$GNGGA,031330.000,2231.0331,N,11350.5054,E,1,12,0.9,-1.0,M,0.0,M,,*57
$GPGSA,A,3,05,13,29,02,15,19,30,06,,,,,1.7,0.9,1.5*3E
$BDGSA,A,3,03,13,09,06,,,,,,,,,1.7,0.9,1.5*26
$GNRMC,031330.000,A,2231.0331,N,11350.5054,E,0.13,113.97,171019,,,A*73
$GNGGA,031331.000,2231.0331,N,11350.5054,E,1,12,0.9,-1.0,M,0.0,M,,*56
$GNRMC,031331.000,A,2231.0331,N,11350.5054,E,0.15,113.97,171019,,,A*74
!AIVDM,1,1,,B,369FV6PP@F89;2l<qK9=R9rh0000,0*2E
!AIVDM,2,1,2,A,56:Cqq00000088L;620@619Dr3S3360P4t00000Q;@I;;6J8N;Dj1CVR1CP0,0*38
!AIVDM,2,2,2,A,00000000000,2*26
$GNGGA,031332.000,2231.0331,N,11350.5054,E,1,12,0.9,-1.0,M,0.0,M,,*55
$GPGSA,A,3,05,13,29,02,15,19,30,06,,,,,1.7,0.9,1.5*3E
$BDGSA,A,3,03,13,09,06,,,,,,,,,1.7,0.9,1.5*26
$GPGSV,3,1,11,02,58,047,42,05,56,342,42,06,26,096,32,07,02,063,40*7C
$GPGSV,3,2,11,12,17,227,27,13,58,168,44,15,31,209,38,19,14,151,32*70
$GPGSV,3,3,11,25,11,268,,29,25,320,32,30,11,093,29*4C
$BDGSV,3,1,09,01,,,27,02,,,35,03,64,189,40,04,,,36*57
$BDGSV,3,2,09,06,71,173,38,08,,,28,09,44,197,36,12,,,18*65
$BDGSV,3,3,09,13,53,352,43*56
$GNRMC,031332.000,A,2231.0331,N,11350.5054,E,0.11,113.97,171019,,,A*73
$GNGGA,031333.000,2231.0331,N,11350.5054,E,1,12,0.9,-1.0,M,0.0,M,,*54
$GNRMC,031333.000,A,2231.0331,N,11350.5054,E,0.15,113.97,171019,,,A*76
!AIVDM,1,1,,B,16:E4HPP0G895hP<pEKBP?w000Ss,0*52
!AIVDM,1,1,,B,16:Cfu0P00898JJ<p4O`Pgw02d3w,0*24
$GNGGA,031334.000,2231.0331,N,11350.5054,E,1,12,0.9,-1.0,M,0.0,M,,*53
$GPGSA,A,3,05,13,29,02,15,19,30,06,,,,,1.7,0.9,1.5*3E
$BDGSA,A,3,03,13,09,06,,,,,,,,,1.7,0.9,1.5*26
$GNRMC,031334.000,A,2231.0331,N,11350.5054,E,0.19,285.67,171019,,,A*7E
$GNGGA,031335.000,2231.0331,N,11350.5054,E,1,12,0.9,-1.0,M,0.0,M,,*52
$GNRMC,031335.000,A,2231.0331,N,11350.5054,E,0.08,285.67,171019,,,A*7F
$GNGGA,031336.000,2231.0331,N,11350.5054,E,1,12,0.9,-1.0,M,0.0,M,,*51
$GPGSA,A,3,05,13,29,02,15,19,30,06,,,,,1.7,0.9,1.5*3E
$BDGSA,A,3,03,13,09,06,,,,,,,,,1.7,0.9,1.5*26
$GNRMC,031336.000,A,2231.0331,N,11350.5054,E,0.04,285.67,171019,,,A*70
$GNGGA,031337.000,2231.0331,N,11350.5054,E,1,12,0.9,-1.0,M,0.0,M,,*50
$GPGSV,3,1,12,02,58,047,42,04,,,27,05,56,342,44,06,26,096,31*4F
$GPGSV,3,2,12,07,02,063,40,12,17,227,27,13,58,168,44,15,31,209,40*71
$GPGSV,3,3,12,19,14,151,33,25,11,268,,29,25,320,30,30,11,092,29*74
$BDGSV,3,1,09,01,,,27,02,,,37,03,64,189,40,04,,,39*5A
$BDGSV,3,2,09,06,71,173,39,08,,,23,09,44,197,36,12,,,18*6F
$BDGSV,3,3,09,13,53,352,43*56
$GNRMC,031337.000,A,2231.0331,N,11350.5054,E,0.12,285.67,171019,,,A*76
$GNGGA,031338.000,2231.0331,N,11350.5054,E,1,12,0.9,-1.0,M,0.0,M,,*5F
$GPGSA,A,3,05,13,29,02,15,19,30,06,,,,,1.7,0.9,1.5*3E
$BDGSA,A,3,03,13,09,06,,,,,,,,,1.7,0.9,1.5*26
$GNRMC,031338.000,A,2231.0331,N,11350.5054,E,0.20,85.41,171019,,,A*4E
!AIVDM,1,1,,B,369FV6PP@F89;2R<qKBeIIjt0000,0*5C
$GNGGA,031339.000,2231.0331,N,11350.5054,E,1,12,0.9,-1.0,M,0.0,M,,*5E
$GNRMC,031339.000,A,2231.0331,N,11350.5054,E,0.04,85.41,171019,,,A*49
!AIVDM,1,1,,B,16:DJAP00F896?J<pFS2vkUF0L<M,0*6B
$GNGGA,031340.000,2231.0331,N,11350.5054,E,1,12,0.9,-1.0,M,0.0,M,,*50
$GPGSA,A,3,05,13,29,02,15,19,30,06,,,,,1.7,0.9,1.5*3E
$BDGSA,A,3,03,13,09,06,,,,,,,,,1.7,0.9,1.5*26
$GNRMC,031340.000,A,2231.0331,N,11350.5054,E,0.21,92.17,171019,,,A*45
$GNGGA,031341.000,2231.0331,N,11350.5054,E,1,12,0.9,-1.0,M,0.0,M,,*51
$GNRMC,031341.000,A,2231.0331,N,11350.5054,E,0.35,85.37,171019,,,A*45
!AIVDM,1,1,,A,369FV6PP@F89;2@<qKH=Hqi40000,0*65
!AIVDM,1,1,,B,B6:bg5001j2CGD3>>P:4wwv41P06,0*3A
!AIVDM,1,1,,B,16:ae1P00089>7n<ptL0001p0000,0*2E
$GNGGA,031342.000,2231.0331,N,11350.5054,E,1,12,0.9,-1.0,M,0.0,M,,*52
$GPGSA,A,3,05,13,29,02,15,19,30,06,,,,,1.7,0.9,1.5*3E
$BDGSA,A,3,03,13,09,06,,,,,,,,,1.7,0.9,1.5*26
$GPGSV,3,1,12,02,58,048,43,04,,,27,05,56,342,41,06,26,096,30*45
$GPGSV,3,2,12,07,02,063,41,12,17,227,27,13,58,168,44,15,31,209,37*70
$GPGSV,3,3,12,19,14,151,33,25,11,268,,29,25,320,33,30,11,092,30*7F
$BDGSV,3,1,09,01,,,27,02,,,37,03,64,189,40,04,,,39*5A
$BDGSV,3,2,09,06,71,173,39,08,,,23,09,44,197,36,12,,,18*6F
$BDGSV,3,3,09,13,53,352,43*56
$GNRMC,031342.000,A,2231.0331,N,11350.5054,E,0.08,85.37,171019,,,A*48
$GNGGA,031343.000,2231.0331,N,11350.5054,E,1,12,0.9,-1.0,M,0.0,M,,*53
$GNRMC,031343.000,A,2231.0331,N,11350.5054,E,0.07,85.37,171019,,,A*46
$GNGGA,031344.000,2231.0331,N,11350.5054,E,1,12,0.9,-1.0,M,0.0,M,,*54
$GPGSA,A,3,05,13,29,02,15,19,30,06,,,,,1.7,0.9,1.5*3E
$BDGSA,A,3,03,13,09,06,,,,,,,,,1.7,0.9,1.5*26
$GNRMC,031344.000,A,2231.0331,N,11350.5054,E,0.32,62.99,171019,,,A*4A
!AIVDM,1,1,,B,169FV6PP@F89;2:<qKK=IIe80<4a,0*7D
$GNGGA,031345.000,2231.0331,N,11350.5054,E,1,12,0.9,-1.0,M,0.0,M,,*55
$GNRMC,031345.000,A,2231.0331,N,11350.5054,E,0.47,100.29,171019,,,A*77
$GNGGA,031346.000,2231.0331,N,11350.5054,E,1,12,0.9,-1.0,M,0.0,M,,*56
$GPGSA,A,3,05,13,29,02,15,19,30,06,,,,,1.7,0.9,1.5*3E
$BDGSA,A,3,03,13,09,06,,,,,,,,,1.7,0.9,1.5*26
$GNRMC,031346.000,A,2231.0331,N,11350.5054,E,0.08,100.29,171019,,,A*7F
!AIVDM,1,1,,B,16:Cqq000?89;Q<<pl7mt4mN08Kl,0*35
$GNGGA,031347.000,2231.0331,N,11350.5054,E,1,12,0.9,-1.0,M,0.0,M,,*57
$GPGSV,3,1,12,02,58,048,43,04,,,27,05,56,342,42,06,26,096,31*47
$GPGSV,3,2,12,07,02,063,40,12,17,227,26,13,58,168,44,15,31,209,36*71
$GPGSV,3,3,12,19,14,151,33,25,11,268,,29,25,320,33,30,11,092,31*7E
$BDGSV,3,1,09,01,,,27,02,,,37,03,64,189,40,04,,,39*5A
$BDGSV,3,2,09,06,71,173,40,08,,,23,09,44,197,37,12,,,18*60
$BDGSV,3,3,09,13,53,352,43*56
$GNRMC,031347.000,A,2231.0331,N,11350.5054,E,0.07,100.29,171019,,,A*71
!AIVDM,1,1,,A,369FV6PP@F89;1r<qKQeDaW@0000,0*43
$GNGGA,031348.000,2231.0331,N,11350.5054,E,1,12,0.9,-1.0,M,0.0,M,,*58
$GPGSA,A,3,05,13,29,02,15,19,30,06,,,,,1.7,0.9,1.5*3E
$BDGSA,A,3,03,13,09,06,,,,,,,,,1.7,0.9,1.5*26
$GNRMC,031348.000,A,2231.0331,N,11350.5054,E,0.09,100.29,171019,,,A*70
!AIVDM,1,1,,B,B6:jkoP09:2Bn1S>;<2<UhN021Mk,0*4B
!AIVDM,1,1,,A,16:DJAP00F896B<<pFNC3kW`08LW,0*70
$GNGGA,031349.000,2231.0331,N,11350.5054,E,1,12,0.9,-1.0,M,0.0,M,,*59
$GNRMC,031349.000,A,2231.0331,N,11350.5054,E,0.06,100.29,171019,,,A*7E
!AIVDM,1,1,,A,10`:DoOP?w899R:<pHQN4?wV0l?;,0*38
$GNGGA,031350.000,2231.0331,N,11350.5054,E,1,12,0.9,-1.0,M,0.0,M,,*51
$GPGSA,A,3,05,13,29,02,15,19,30,06,,,,,1.7,0.9,1.5*3E
$BDGSA,A,3,03,13,09,06,,,,,,,,,1.7,0.9,1.5*26
$GNRMC,031350.000,A,2231.0331,N,11350.5054,E,0.23,65.10,171019,,,A*49
!AIVDM,1,1,,B,B6:E?3000J2CBS3>>Gt9<7N021Mk,0*51
$GNGGA,031351.000,2231.0331,N,11350.5054,E,1,12,0.9,-1.0,M,0.0,M,,*50
$GNRMC,031351.000,A,2231.0331,N,11350.5054,E,0.18,65.10,171019,,,A*40
!AIVDM,1,1,,B,369FV6PP@F89;1p<qKWeAaUH0000,0*4B
$GNGGA,031352.000,2231.0331,N,11350.5054,E,1,12,0.9,-1.0,M,0.0,M,,*53
$GPGSA,A,3,05,13,29,02,15,19,30,06,,,,,1.7,0.9,1.5*3E
$BDGSA,A,3,03,13,09,06,,,,,,,,,1.7,0.9,1.5*26
$GPGSV,3,1,12,02,58,048,43,04,,,27,05,56,342,41,06,26,096,29*4D
$GPGSV,3,2,12,07,02,063,31,12,17,227,26,13,58,168,44,15,31,209,38*79
$GPGSV,3,3,12,19,14,151,30,25,11,268,,29,25,320,28,30,11,092,30*76
$BDGSV,3,1,09,01,,,27,02,,,36,03,64,189,40,04,,,39*5B
$BDGSV,3,2,09,06,71,173,39,08,,,26,09,44,198,35,12,,,23*6E
$BDGSV,3,3,09,13,53,352,43*56
$GNRMC,031352.000,A,2231.0331,N,11350.5054,E,0.28,105.40,171019,,,A*72
$GNGGA,031353.000,2231.0331,N,11350.5054,E,1,12,0.9,-1.0,M,0.0,M,,*52
$GNRMC,031353.000,A,2231.0331,N,11350.5054,E,0.18,105.40,171019,,,A*70
!AIVDM,1,1,,B,16:E4HPP0F895kP<pElBRgw`00Sg,0*69
$GNGGA,031354.000,2231.0331,N,11350.5054,E,1,12,0.9,-1.0,M,0.0,M,,*55
$GPGSA,A,3,05,13,29,02,15,19,30,06,,,,,1.7,0.9,1.5*3E
$BDGSA,A,3,03,13,09,06,,,,,,,,,1.7,0.9,1.5*26
$GNRMC,031354.000,A,2231.0331,N,11350.5054,E,0.15,105.40,171019,,,A*7A
!AIVDM,1,1,,A,169FV6PP@F89;1F<qKW=>aQL0<4a,0*02
$GNGGA,031355.000,2231.0331,N,11350.5054,E,1,12,0.9,-1.0,M,0.0,M,,*54
$GNRMC,031355.000,A,2231.0331,N,11350.5054,E,0.05,105.40,171019,,,A*7A
!AIVDM,1,1,,A,16:Cqq000@89;Ql<pkvUq4mh00So,0*57
$GNGGA,031356.000,2231.0331,N,11350.5054,E,1,12,0.9,-1.0,M,0.0,M,,*57
$GPGSA,A,3,05,13,29,02,15,19,30,06,,,,,1.7,0.9,1.5*3E
$BDGSA,A,3,03,13,09,06,,,,,,,,,1.7,0.9,1.5*26
$GNRMC,031356.000,A,2231.0331,N,11350.5054,E,0.26,122.86,171019,,,A*77
!AIVDM,1,1,,A,169H0AP01D8948t<plNcGa;d0D3O,0*31
$GNGGA,031357.000,2231.0331,N,11350.5054,E,1,12,0.9,-1.0,M,0.0,M,,*56
$GPGSV,3,1,12,02,58,048,43,04,,,27,05,56,342,41,06,26,096,41*43
$GPGSV,3,2,12,07,02,063,27,12,17,227,26,13,58,168,45,15,31,209,39*7E
$GPGSV,3,3,12,19,14,151,28,25,11,268,,29,25,320,38,30,11,092,23*7C
$BDGSV,3,1,09,01,,,28,02,,,31,03,64,189,40,04,,,30*5A
$BDGSV,3,2,09,06,71,173,38,08,,,31,09,44,198,30,12,,,31*6F
$BDGSV,3,3,09,13,53,352,43*56
$GNRMC,031357.000,A,2231.0331,N,11350.5054,E,0.13,122.86,171019,,,A*70
!AIVDM,1,1,,A,16:ae1P00089>7j<ptL0001p0000,0*29
!AIVDM,1,1,,A,169G6T0P?w<tSF0l4Q@>4?v60d3v,0*55
$GNGGA,031358.000,2231.0331,N,11350.5054,E,1,12,0.9,-1.0,M,0.0,M,,*59
$GPGSA,A,3,05,13,29,02,15,19,30,06,,,,,1.7,0.9,1.5*3E
$BDGSA,A,3,03,13,09,06,,,,,,,,,1.7,0.9,1.5*26
$GNRMC,031358.000,A,2231.0331,N,11350.5054,E,0.16,122.86,171019,,,A*7A
!AIVDM,1,1,,A,H6:fo0E61G3Cifhhhh00000Pp6=0,0*0A
!AIVDM,1,1,,B,C6:EV100022B6V3>;dH2Kwv0V@bL<:L?WR0000000000S0DKU40P,0*2D
$GNGGA,031359.000,2231.0331,N,11350.5054,E,1,12,0.9,-1.0,M,0.0,M,,*58
$GNRMC,031359.000,A,2231.0331,N,11350.5054,E,0.21,105.91,171019,,,A*7C
!AIVDM,1,1,,B,16:DJAP00F896BV<pFJ3:3V604Hl,0*58
!AIVDM,1,1,,B,B6:fs=h0=j2B`VS>9Qa5Kwu3QP06,0*26
!AIVDM,1,1,,B,H6:fo0E61G3Cifhhhh00000Pp6=0,0*09
$GNGGA,031400.000,2231.0331,N,11350.5054,E,1,12,0.9,-1.0,M,0.0,M,,*53
$GPGSA,A,3,05,13,29,02,15,19,30,06,,,,,1.7,0.9,1.5*3E
$BDGSA,A,3,03,13,09,06,,,,,,,,,1.7,0.9,1.5*26
$GNRMC,031400.000,A,2231.0331,N,11350.5054,E,0.30,95.02,171019,,,A*45
$GNGGA,031401.000,2231.0331,N,11350.5054,E,1,12,0.9,-1.0,M,0.0,M,,*52
$GNRMC,031401.000,A,2231.0331,N,11350.5054,E,0.13,95.02,171019,,,A*45
!AIVDM,1,1,,A,369FV6PP@E89;4f<qKau:aId0000,0*35
!AIVDM,1,1,,A,H6:bg51UDDQD5PTsS7P00000000,2*57
!AIVDM,1,1,,A,H6:bg5560000000hhhhhhh98<880,0*04
!AIVDM,1,1,,A,16:DUa000O`95=l<pF1ApADF0<<P,0*00
$GNGGA,031402.000,2231.0331,N,11350.5054,E,1,12,0.9,-1.0,M,0.0,M,,*51
$GPGSA,A,3,05,13,29,02,15,19,30,06,,,,,1.7,0.9,1.5*3E
$BDGSA,A,3,03,13,09,06,,,,,,,,,1.7,0.9,1.5*26
$GPGSV,3,1,12,02,58,048,44,04,,,26,05,56,342,43,06,26,096,42*44
$GPGSV,3,2,12,07,02,063,28,12,17,227,26,13,58,168,46,15,31,209,41*7D
$GPGSV,3,3,12,19,14,151,26,25,11,268,,29,25,320,37,30,11,092,28*76
$BDGSV,3,1,09,01,,,31,02,,,31,03,64,189,40,04,,,30*52
$BDGSV,3,2,09,06,71,173,37,08,,,31,09,44,198,28,12,,,31*69
$BDGSV,3,3,09,13,53,352,42*57
$GNRMC,031402.000,A,2231.0331,N,11350.5054,E,0.16,95.02,171019,,,A*43
$GNGGA,031403.000,2231.0331,N,11350.5054,E,1,12,0.9,-1.0,M,0.0,M,,*50
$GNRMC,031403.000,A,2231.0331,N,11350.5054,E,0.13,95.02,171019,,,A*47
!AIVDM,2,1,3,A,56:EV10000000000001<QDpHDpO?4000000000160`o:81JfP6CPCTj0@000,0*02
!AIVDM,2,2,3,A,000000000080,0*1D
$GNGGA,031404.000,2231.0331,N,11350.5054,E,1,12,0.9,-1.0,M,0.0,M,,*57
$GPGSA,A,3,05,13,29,02,15,19,30,06,,,,,1.7,0.9,1.5*3E
$BDGSA,A,3,03,13,09,06,,,,,,,,,1.7,0.9,1.5*26
$GNRMC,031404.000,A,2231.0331,N,11350.5054,E,0.10,95.02,171019,,,A*43
!AIVDM,1,1,,A,16:E4HPP0G895kP<pElBU?v80H38,0*2A
$GNGGA,031405.000,2231.0331,N,11350.5054,E,1,12,0.9,-1.0,M,0.0,M,,*56
$GNRMC,031405.000,A,2231.0331,N,11350.5054,E,0.12,95.02,171019,,,A*40
!AIVDM,1,1,,B,B6:fop@06R2BmcS>E;CG>c2SQP06,0*54
!AIVDM,1,1,,A,B6:E?3000:2CBRS>>H3IFev021Mk,0*6B
$GNGGA,031406.000,2231.0331,N,11350.5054,E,1,12,0.9,-1.0,M,0.0,M,,*55
$GPGSA,A,3,05,13,29,02,15,19,30,06,,,,,1.7,0.9,1.5*3E
$BDGSA,A,3,03,13,09,06,,,,,,,,,1.7,0.9,1.5*26
$GNRMC,031406.000,A,2231.0331,N,11350.5054,E,0.17,95.02,171019,,,A*46
!AIVDM,1,1,,A,16:Ejr?001`9>G4<pD0@054:24Hp,0*11
!AIVDM,1,1,,B,16:Cqq000@89;R`<pkjUsTj>0<4O,0*3F
$GNGGA,031407.000,2231.0331,N,11350.5054,E,1,12,0.9,-1.0,M,0.0,M,,*54
$GPGSV,3,1,11,02,58,048,44,05,56,342,43,06,26,096,36,07,02,063,31*76
$GPGSV,3,2,11,12,17,227,,13,58,168,45,15,31,209,38,19,13,151,27*77
$GPGSV,3,3,11,25,11,268,,29,26,320,36,30,11,092,26*45
$BDGSV,3,1,09,01,,,31,02,,,28,03,64,189,40,04,,,32*58
$BDGSV,3,2,09,06,71,173,39,08,,,33,09,44,198,32,12,,,32*6D
$BDGSV,3,3,09,13,53,352,41*54
$GNRMC,031407.000,A,2231.0331,N,11350.5054,E,0.26,79.82,171019,,,A*4F
!AIVDM,1,1,,A,369FV6PP@E89;0`<qKpM1a>00000,0*36
!AIVDM,2,1,4,A,56:DJAP000009TUF221TuF0hT4r1ADv3F222220l2@N482U>0<Tj1CVR1C`8,0*3B
!AIVDM,2,2,4,A,88888888880,2*20
$GNGGA,031408.000,2231.0331,N,11350.5054,E,1,12,0.9,-1.0,M,0.0,M,,*5B
$GPGSA,A,3,05,13,29,02,15,19,30,06,,,,,1.7,0.9,1.5*3E
$BDGSA,A,3,03,13,09,06,,,,,,,,,1.7,0.9,1.5*26
$GNRMC,031408.000,A,2231.0331,N,11350.5054,E,0.03,79.82,171019,,,A*47
!AIVDM,1,1,,A,10`:DoOP00899R8<pHQ`JwvB0D?;,0*57
!AIVDM,1,1,,A,16:DJAP00G`96E><pFNC83`H00SU,0*75
$GNGGA,031409.000,2231.0331,N,11350.5054,E,1,12,0.9,-1.0,M,0.0,M,,*5A
$GNRMC,031409.000,A,2231.0331,N,11350.5054,E,0.08,79.82,171019,,,A*4D
$GNGGA,031410.000,2231.0331,N,11350.5054,E,1,12,0.9,-1.0,M,0.0,M,,*52
$GPGSA,A,3,05,13,29,02,15,19,30,06,,,,,1.7,0.9,1.5*3E
$BDGSA,A,3,03,13,09,06,,,,,,,,,1.7,0.9,1.5*26
$GNRMC,031410.000,A,2231.0331,N,11350.5054,E,0.09,79.82,171019,,,A*44
!AIVDM,1,1,,A,B6:fqEP0?R2CSJ3>0q6BMm53QP06,0*46
$GNGGA,031411.000,2231.0331,N,11350.5054,E,1,12,0.9,-1.0,M,0.0,M,,*53
$GNRMC,031411.000,A,2231.0331,N,11350.5054,E,0.07,79.82,171019,,,A*4B
!AIVDM,1,1,,B,369FV6PP@E89;00<qKvtrq<80000,0*03
!AIVDM,1,1,,A,177cpB9Olw`8oVF<r?:5QD:D20Rw,0*3E
!AIVDM,1,1,,B,C6:fs=h0=j2BauS>9Me5SwTRjb:JBL>83eee11111110S3T5TR07,0*65
$GNGGA,031412.000,2231.0331,N,11350.5054,E,1,12,0.9,-1.0,M,0.0,M,,*50
$GPGSA,A,3,05,13,29,02,15,19,30,06,,,,,1.7,0.9,1.5*3E
$BDGSA,A,3,03,13,09,06,,,,,,,,,1.7,0.9,1.5*26
$GPGSV,3,1,11,02,58,048,43,05,55,342,44,06,26,096,31,07,02,063,31*72
$GPGSV,3,2,11,12,17,227,,13,59,168,45,15,31,209,37,19,13,151,28*76
$GPGSV,3,3,11,25,11,268,,29,26,320,36,30,11,092,19*49
$BDGSV,3,1,09,01,,,33,02,,,28,03,64,189,40,04,,,32*5A
$BDGSV,3,2,09,06,71,173,37,08,,,26,09,44,198,35,12,,,30*62
$BDGSV,3,3,09,13,53,352,43*56
$GNRMC,031412.000,A,2231.0331,N,11350.5054,E,0.14,79.82,171019,,,A*4A
!AIVDM,2,1,1,B,56:ae1P00003W;80001L4q4T4pM<PDpO77?T001678<7400009p000000000,0*7F
!AIVDM,2,2,1,B,00000000000,2*26
$GNGGA,031413.000,2231.0331,N,11350.5054,E,1,12,0.9,-1.0,M,0.0,M,,*51
$GNRMC,031413.000,A,2231.0331,N,11350.5054,E,0.10,79.82,171019,,,A*4F
!AIVDM,1,1,,B,16:Cfu0P00898JD<p4OS6OvH2PS:,0*37
$GNGGA,031414.000,2231.0331,N,11350.5054,E,1,12,0.9,-1.0,M,0.0,M,,*56
$GPGSA,A,3,05,13,29,02,15,19,30,06,,,,,1.7,0.9,1.5*3E
$BDGSA,A,3,03,13,09,06,,,,,,,,,1.7,0.9,1.5*26
$GNRMC,031414.000,A,2231.0331,N,11350.5054,E,0.08,79.82,171019,,,A*41
!AIVDM,1,1,,B,169@WGPP0K897>@<pE2E<gvJ0LqU,0*39
$GNGGA,031415.000,2231.0331,N,11350.5054,E,1,13,0.8,-1.0,M,0.0,M,,*57
$GNRMC,031415.000,A,2231.0331,N,11350.5054,E,0.79,300.39,171019,,,A*7B
!AIVDM,1,1,,A,169FV6PP@E89:wT<qL4dqa6@0<4h,0*44
!AIVDM,1,1,,A,H6:fk?56wNvww1g00000004h;<4O,0*5A
!AIVDM,1,1,,A,169H0APOiE893r@<pm@ca9HL00S?,0*20
$GNGGA,031416.000,2231.0331,N,11350.5054,E,1,13,0.8,-1.0,M,0.0,M,,*54
$GPGSA,A,3,05,13,29,02,15,19,30,06,,,,,1.3,0.8,1.0*3E
$BDGSA,A,3,03,13,09,06,12,,,,,,,,1.3,0.8,1.0*25
$GNRMC,031416.000,A,2231.0331,N,11350.5054,E,0.13,300.39,171019,,,A*74
$GNGGA,031417.000,2231.0331,N,11350.5054,E,1,13,0.8,-1.0,M,0.0,M,,*55
$GPGSV,3,1,11,02,58,048,44,05,55,342,42,06,26,096,27,07,02,063,38*7D
$GPGSV,3,2,11,12,17,227,,13,59,167,44,15,31,209,37,19,13,151,32*73
$GPGSV,3,3,11,25,11,268,,29,26,320,28,30,11,092,29*45
$BDGSV,3,1,09,01,,,29,02,,,30,03,64,189,40,04,,,34*5E
$BDGSV,3,2,09,06,71,173,39,08,,,29,09,44,198,35,12,07,323,25*52
$BDGSV,3,3,09,13,53,352,43*56
$GNRMC,031417.000,A,2231.0331,N,11350.5054,E,0.03,300.39,171019,,,A*74
!AIVDM,1,1,,B,169@nBPP01`9:40<oV0>4?vR20S2,0*56
!AIVDM,1,1,,A,169G6T0P0p89;wD<pBR6j?vb2`:e,0*32
!AIVDM,1,1,,A,B6:jkoP07b2Blo3>:u:0AVv021Mk,0*7C
!AIVDM,1,1,,B,369FV6PP@E89:wF<qL7<pa2D0000,0*5D
$GNGGA,031418.000,2231.0330,N,11350.5054,E,1,13,0.8,-1.0,M,0.0,M,,*5B
$GPGSA,A,3,05,13,29,02,15,19,30,06,,,,,1.3,0.8,1.0*3E
$BDGSA,A,3,03,13,09,06,12,,,,,,,,1.3,0.8,1.0*25
$GNRMC,031418.000,A,2231.0330,N,11350.5054,E,0.08,300.39,171019,,,A*71
!AIVDM,1,1,,B,16:DJAP00F`96Hj<pFTC=Cdd0L<M,0*62
!AIVDM,1,1,,B,369H0APOiD893q0<pmEca9JP0210,0*27
!AIVDM,1,1,,A,36:EV11000898Jd<pfiP9gv00000,0*26
$GNGGA,031419.000,2231.0330,N,11350.5054,E,1,13,0.8,-1.0,M,0.0,M,,*5A
$GNRMC,031419.000,A,2231.0330,N,11350.5054,E,0.08,300.39,171019,,,A*70
!AIVDM,1,1,,A,36:EV11000898Jd<pfiP9gv00000,0*26
!AIVDM,1,1,,B,10`:DoOP00899RF<pHPHGwvb0L?<,0*21
$GNGGA,031420.000,2231.0330,N,11350.5054,E,1,13,0.8,-1.0,M,0.0,M,,*50
$GPGSA,A,3,05,13,29,02,15,19,30,06,,,,,1.3,0.8,1.0*3E
$BDGSA,A,3,03,13,09,06,12,,,,,,,,1.3,0.8,1.0*25
$GNRMC,031420.000,A,2231.0330,N,11350.5054,E,0.15,300.39,171019,,,A*76
$GNGGA,031421.000,2231.0330,N,11350.5054,E,1,13,0.8,-1.0,M,0.0,M,,*51
$GNRMC,031421.000,A,2231.0330,N,11350.5054,E,0.15,300.39,171019,,,A*77
!AIVDM,1,1,,A,369FV6PP@E89:vr<qL<<ma0L0000,0*77
!AIVDM,1,1,,B,C6:E?3000:2CBR3>>H74:Lv0jb;0@b30jb2M1WSh0000UST5SSP0,0*0F
!AIVDM,1,1,,A,369H0APOiD893n<<pmR;haN`00w0,0*59
$GNGGA,031422.000,2231.0330,N,11350.5054,E,1,13,0.8,-1.0,M,0.0,M,,*52
$GPGSA,A,3,05,13,29,02,15,19,30,06,,,,,1.3,0.8,1.0*3E
$BDGSA,A,3,03,13,09,06,12,,,,,,,,1.3,0.8,1.0*25
$GPGSV,3,1,11,02,58,048,42,05,55,342,46,06,26,096,30,07,02,063,39*78
$GPGSV,3,2,11,12,17,226,,13,59,167,45,15,31,209,39,19,13,151,33*7C
$GPGSV,3,3,11,25,11,268,,29,26,320,34,30,11,092,30*40
$BDGSV,3,1,09,01,,,29,02,,,37,03,64,189,40,04,,,39*54
$BDGSV,3,2,09,06,71,173,39,08,,,26,09,44,198,37,12,07,323,22*58
$BDGSV,3,3,09,13,53,352,43*56
$GNRMC,031422.000,A,2231.0330,N,11350.5054,E,0.33,80.54,171019,,,A*40
!AIVDM,1,1,,A,16:DUa0OhN`95B0<pFK1w1Rv08=O,0*44
$GNGGA,031423.000,2231.0330,N,11350.5054,E,1,13,0.8,-1.0,M,0.0,M,,*53
$GNRMC,031423.000,A,2231.0330,N,11350.5054,E,0.04,80.54,171019,,,A*45
!AIVDM,1,1,,A,16:E4HPP0G895qh<pElBWgvd0<@u,0*44
!AIVDM,1,1,,A,169@WGPP0K897A@<pE2EAgvb0H>D,0*4A
$GNGGA,031424.000,2231.0330,N,11350.5054,E,1,13,0.8,-1.0,M,0.0,M,,*54
$GPGSA,A,3,05,13,29,02,15,19,30,06,,,,,1.3,0.8,1.0*3E
$BDGSA,A,3,03,13,09,06,12,,,,,,,,1.3,0.8,1.0*25
$GNRMC,031424.000,A,2231.0330,N,11350.5054,E,0.06,80.54,171019,,,A*40
!AIVDM,1,1,,A,C6:bg5001j2CFc3>>Jj4wwv0jb:@b2hBMiSh00000000S4T6440P,0*45
!AIVDM,1,1,,A,169A5cS000896>N<p77U:G2l0L<l,0*3D
$GNGGA,031425.000,2231.0330,N,11350.5054,E,1,13,0.8,-1.0,M,0.0,M,,*55
$GNRMC,031425.000,A,2231.0330,N,11350.5054,E,0.00,80.54,171019,,,A*47
!AIVDM,1,1,,B,169H0APOiG893lt<pmachaNd00Su,0*1F
$GNGGA,031426.000,2231.0330,N,11350.5054,E,1,13,0.8,-1.0,M,0.0,M,,*56
$GPGSA,A,3,05,13,29,02,15,19,30,06,,,,,1.3,0.8,1.0*3E
$BDGSA,A,3,03,13,09,06,12,,,,,,,,1.3,0.8,1.0*25
$GNRMC,031426.000,A,2231.0330,N,11350.5054,E,0.02,80.54,171019,,,A*46
!AIVDM,1,1,,A,16:Ejr?001`9>G4<pD0@052l28?b,0*28
!AIVDM,1,1,,A,169@nBPP00`9:40<oUwf4?vl28?t,0*54
!AIVDM,1,1,,B,16:Cqq000?89;Sn<pkLF;4bn28?v,0*3E
$GNGGA,031427.000,2231.0330,N,11350.5054,E,1,13,0.8,-1.0,M,0.0,M,,*57
$GPGSV,3,1,11,02,58,048,42,05,55,342,43,06,26,096,36,07,02,063,37*75
$GPGSV,3,2,11,12,17,226,,13,59,167,45,15,31,209,40,19,13,151,33*72
$GPGSV,3,3,11,25,11,268,,29,26,320,37,30,11,092,25*47
$BDGSV,3,1,09,01,,,27,02,,,37,03,64,189,40,04,,,41*55
$BDGSV,3,2,09,06,71,173,38,08,,,25,09,44,198,36,12,07,323,23*5A
$BDGSV,3,3,09,13,53,352,42*57
$GNRMC,031427.000,A,2231.0330,N,11350.5054,E,0.02,80.54,171019,,,A*47
!AIVDM,1,1,,B,169G6T0P0p89;wD<pBR6j?vb0`@R,0*7E
!AIVDM,1,1,,A,369FV6PP@D89:v><qLCLdHn`0000,0*67
$GNGGA,031428.000,2231.0330,N,11350.5054,E,1,13,0.8,-1.0,M,0.0,M,,*58
$GPGSA,A,3,05,13,29,02,15,19,30,06,,,,,1.3,0.8,1.0*3E
$BDGSA,A,3,03,13,09,06,12,,,,,,,,1.3,0.8,1.0*25
$GNRMC,031428.000,A,2231.0330,N,11350.5054,E,0.03,80.54,171019,,,A*49
!AIVDM,2,1,5,A,56:ae1P00003W;80001L4q4T4pM<PDpO77?T001678<7400009p000000000,0*78
!AIVDM,2,2,5,A,00000000000,2*21
!AIVDM,1,1,,A,369H0APOiG893j8<pmn;maPl01uh,0*2A
!AIVDM,1,1,,A,10`:DoOP00899RN<pHOH?gvt04Hp,0*08
$GNGGA,031429.000,2231.0330,N,11350.5054,E,1,13,0.8,-1.0,M,0.0,M,,*59
$GNRMC,031429.000,A,2231.0330,N,11350.5054,E,0.07,80.54,171019,,,A*4C
!AIVDM,1,1,,A,16:DJAP00G`96Kj<pFLS>3i200S=,0*20
$GNGGA,031430.000,2231.0330,N,11350.5054,E,1,13,0.8,-1.0,M,0.0,M,,*51
$GPGSA,A,3,05,13,29,02,15,19,30,06,,,,,1.3,0.8,1.0*3E
$BDGSA,A,3,03,13,09,06,12,,,,,,,,1.3,0.8,1.0*25
$GNRMC,031430.000,A,2231.0330,N,11350.5054,E,0.04,80.54,171019,,,A*47
!AIVDM,1,1,,A,B6:fs=h0=j2BdKS>9Hm03wfSQP06,0*27
$GNGGA,031431.000,2231.0330,N,11350.5054,E,1,13,0.8,-1.0,M,0.0,M,,*50
$GNRMC,031431.000,A,2231.0330,N,11350.5054,E,0.02,80.54,171019,,,A*40
!AIVDM,1,1,,B,369FV6PP@D89:uh<qLGt`plh0000,0*3B
$GNGGA,031432.000,2231.0330,N,11350.5054,E,1,13,0.8,-1.0,M,0.0,M,,*53
$GPGSA,A,3,05,13,29,02,15,19,30,06,,,,,1.3,0.8,1.0*3E
$BDGSA,A,3,03,13,09,06,12,,,,,,,,1.3,0.8,1.0*25
$GPGSV,3,1,11,02,58,048,42,05,55,342,45,06,26,096,33,07,02,063,37*76
$GPGSV,3,2,11,12,17,226,,13,59,167,45,15,31,209,41,19,13,151,33*73
$GPGSV,3,3,11,25,11,268,,29,26,320,34,30,11,092,29*48
$BDGSV,3,1,09,01,,,27,02,,,36,03,64,189,40,04,,,41*54
$BDGSV,3,2,09,06,71,173,38,08,,,25,09,44,198,37,12,07,323,26*5E
$BDGSV,3,3,09,13,53,352,41*54
$GNRMC,031432.000,A,2231.0330,N,11350.5054,E,0.12,80.54,171019,,,A*42
!AIVDM,1,1,,B,369H0APOiG893gD<pn2cmaRt00t@,0*6D
$GNGGA,031433.000,2231.0330,N,11350.5054,E,1,13,0.8,-1.0,M,0.0,M,,*52
$GNRMC,031433.000,A,2231.0330,N,11350.5054,E,0.07,80.54,171019,,,A*47
$GNGGA,031434.000,2231.0330,N,11350.5055,E,1,13,0.8,-1.0,M,0.0,M,,*54
$GPGSA,A,3,05,13,29,02,15,19,30,06,,,,,1.3,0.8,1.0*3E
$BDGSA,A,3,03,13,09,06,12,,,,,,,,1.3,0.8,1.0*25
$GNRMC,031434.000,A,2231.0330,N,11350.5055,E,0.15,80.54,171019,,,A*42
!AIVDM,1,1,,B,169@WGPP0L897D@<pDaEI?vv04Hp,0*63
$GNGGA,031435.000,2231.0330,N,11350.5055,E,1,13,0.8,-1.0,M,0.0,M,,*55
$GNRMC,031435.000,A,2231.0330,N,11350.5055,E,0.01,80.54,171019,,,A*46
!AIVDM,1,1,,A,169H0APOiE893dP<pn?;maU404Hp,0*63
!AIVDM,1,1,,A,169FV6PP@D89:uB<qLLL``fp0<4f,0*7F
$GNGGA,031436.000,2231.0330,N,11350.5055,E,1,13,0.8,-1.0,M,0.0,M,,*56
$GPGSA,A,3,05,13,29,02,15,19,30,06,,,,,1.3,0.8,1.0*3E
$BDGSA,A,3,03,13,09,06,12,,,,,,,,1.3,0.8,1.0*25
$GNRMC,031436.000,A,2231.0330,N,11350.5055,E,0.12,80.54,171019,,,A*47
!AIVDM,1,1,,A,16:Cqq000?89;T<<pkD6?TS:0<4T,0*3E
$GNGGA,031437.000,2231.0330,N,11350.5055,E,1,13,0.8,-0.9,M,0.0,M,,*5F
$GPGSV,3,1,11,02,58,048,43,05,55,342,44,06,26,096,32,07,02,062,33*72
$GPGSV,3,2,11,12,17,226,,13,59,167,45,15,31,209,38,19,13,151,33*7D
$GPGSV,3,3,11,25,11,268,,29,26,320,35,30,11,092,31*40
$BDGSV,3,1,09,01,,,27,02,,,36,03,64,189,40,04,,,41*54
$BDGSV,3,2,09,06,71,173,38,08,,,28,09,44,198,35,12,07,323,25*52
$BDGSV,3,3,09,13,53,352,42*57
$GNRMC,031437.000,A,2231.0330,N,11350.5055,E,0.12,80.54,171019,,,A*46
!AIVDM,1,1,,B,169@nBPP01`9:40<oUuf4?w:20Rp,0*62
!AIVDM,1,1,,B,369FV6PP@D89:u4<qLNdR8bt0000,0*16
$GNGGA,031438.000,2231.0330,N,11350.5055,E,1,13,0.8,-0.9,M,0.0,M,,*50
$GPGSA,A,3,05,13,29,02,15,19,30,06,,,,,1.3,0.8,1.0*3E
$BDGSA,A,3,03,13,09,06,12,,,,,,,,1.3,0.8,1.0*25
$GNRMC,031438.000,A,2231.0330,N,11350.5055,E,0.09,80.54,171019,,,A*43
!AIVDM,1,1,,B,10`:DoOP00899RH<pHO`:Ow>08Fk,0*5A
!AIVDM,1,1,,B,36:EV11000898Jd<pfiP9gv00000,0*25
$GNGGA,031439.000,2231.0330,N,11350.5055,E,1,13,0.8,-0.9,M,0.0,M,,*51
$GNRMC,031439.000,A,2231.0330,N,11350.5055,E,0.08,80.54,171019,,,A*43
!AIVDM,1,1,,B,16:DJAP00G`96Lh<pFQSACoF0HGD,0*53
$GNGGA,031440.000,2231.0330,N,11350.5055,E,1,13,0.8,-0.9,M,0.0,M,,*5F
$GPGSA,A,3,05,13,29,02,15,19,30,06,,,,,1.3,0.8,1.0*3E
$BDGSA,A,3,03,13,09,06,12,,,,,,,,1.3,0.8,1.0*25
$GNRMC,031440.000,A,2231.0330,N,11350.5055,E,0.17,80.54,171019,,,A*43
$GNGGA,031441.000,2231.0330,N,11350.5055,E,1,13,0.8,-0.9,M,0.0,M,,*5E
$GNRMC,031441.000,A,2231.0330,N,11350.5055,E,0.12,80.54,171019,,,A*47
!AIVDM,1,1,,A,369FV6PP@C89:tV<qLSLN8W40000,0*2D
!AIVDM,1,1,,A,369H0APOiG893`L<pnS;p9W@011h,0*40
$GNGGA,031442.000,2231.0330,N,11350.5055,E,1,13,0.8,-0.9,M,0.0,M,,*5D
$GPGSA,A,3,05,13,29,02,15,19,30,06,,,,,1.3,0.8,1.0*3E
$BDGSA,A,3,03,13,09,06,12,,,,,,,,1.3,0.8,1.0*25
$GPGSV,3,1,11,02,58,048,44,05,55,342,43,06,26,096,35,07,02,062,30*76
$GPGSV,3,2,11,12,17,226,,13,59,167,45,15,31,209,41,19,13,151,30*70
$GPGSV,3,3,11,25,11,268,,29,26,320,37,30,11,092,25*47
$BDGSV,3,1,09,01,,,27,02,,,34,03,64,189,39,04,,,39*57
$BDGSV,3,2,09,06,71,173,39,08,,,28,09,44,198,35,12,07,323,29*5F
$BDGSV,3,3,09,13,53,352,44*51
$GNRMC,031442.000,A,2231.0330,N,11350.5055,E,0.11,80.54,171019,,,A*47
$GNGGA,031443.000,2231.0330,N,11350.5054,E,1,13,0.8,-0.9,M,0.0,M,,*5D
$GNRMC,031443.000,A,2231.0330,N,11350.5054,E,0.28,73.24,171019,,,A*46
!AIVDM,1,1,,B,16:ae1P00089>7l<ptL@001p0000,0*5C
$GNGGA,031444.000,2231.0330,N,11350.5054,E,1,13,0.8,-0.9,M,0.0,M,,*5A
$GPGSA,A,3,05,13,29,02,15,19,30,06,,,,,1.3,0.8,1.0*3E
$BDGSA,A,3,03,13,09,06,12,,,,,,,,1.3,0.8,1.0*25
$GNRMC,031444.000,A,2231.0330,N,11350.5054,E,0.05,73.24,171019,,,A*4E
!AIVDM,1,1,,A,169@WGPP0K897Fh<pDVmPgwF0<qR,0*31
!AIVDM,1,1,,B,B6:fk?00Bb2BAC3>3K32WwhVSP06,0*64
!AIVDM,1,1,,B,169FV6PP@D89:tB<qLUdHpU808JD,0*57
$GNGGA,031445.000,2231.0330,N,11350.5054,E,1,13,0.8,-0.9,M,0.0,M,,*5B
$GNRMC,031445.000,A,2231.0330,N,11350.5054,E,0.15,73.24,171019,,,A*4E
!AIVDM,1,1,,A,B69I<OP00B2C7aS>@0JobBv021Mk,0*1F
!AIVDM,1,1,,B,B69I<OP00B2C7aS>@0JobBv021Mk,0*1C
$GNGGA,031446.000,2231.0330,N,11350.5054,E,1,13,0.8,-0.9,M,0.0,M,,*58
$GPGSA,A,3,05,13,29,02,15,19,30,06,,,,,1.3,0.8,1.0*3E
$BDGSA,A,3,03,13,09,06,12,,,,,,,,1.3,0.8,1.0*25
$GNRMC,031446.000,A,2231.0330,N,11350.5054,E,0.17,73.24,171019,,,A*4F
!AIVDM,1,1,,B,169H0APOiG893Ut<pngcu9aH04Hp,0*7F
!AIVDM,1,1,,A,169@nBPP01`9:3h<oUsv4?wL2D=8,0*0D
$GNGGA,031447.000,2231.0330,N,11350.5054,E,1,13,0.8,-0.9,M,0.0,M,,*59
$GPGSV,3,1,11,02,58,049,43,05,55,343,43,06,26,096,38,07,02,062,20*7D
$GPGSV,3,2,11,12,17,226,,13,59,167,45,15,31,209,41,19,13,151,29*78
$GPGSV,3,3,11,25,11,268,,29,26,320,35,30,11,092,27*47
$BDGSV,3,1,09,01,,,28,02,,,29,03,64,189,39,04,,,32*5F
$BDGSV,3,2,09,06,71,173,39,08,,,27,09,44,198,34,12,07,323,33*5A
$BDGSV,3,3,09,13,53,352,43*56
$GNRMC,031447.000,A,2231.0330,N,11350.5054,E,0.15,73.24,171019,,,A*4C
!AIVDM,1,1,,A,177cpB9Om:`8pb8<r4k5oTkL28Ku,0*19
!AIVDM,1,1,,A,369FV6PP@C89:sl<qLb<F8O@0000,0*35
$GNGGA,031448.000,2231.0330,N,11350.5054,E,1,13,0.8,-0.9,M,0.0,M,,*56
$GPGSA,A,3,05,13,29,02,15,19,30,06,,,,,1.3,0.8,1.0*3E
$BDGSA,A,3,03,13,09,06,12,,,,,,,,1.3,0.8,1.0*25
$GNRMC,031448.000,A,2231.0330,N,11350.5054,E,0.06,73.24,171019,,,A*41
!AIVDM,1,1,,B,B6:jkoP06J2BlN3>:guoUOv021Mk,0*78
!AIVDM,1,1,,A,16:DJAP00F`96NV<pFS3Eksb04Hp,0*5C
$GNGGA,031449.000,2231.0330,N,11350.5054,E,1,13,0.8,-0.9,M,0.0,M,,*57
$GNRMC,031449.000,A,2231.0330,N,11350.5054,E,0.06,73.24,171019,,,A*40
!AIVDM,1,1,,A,369H0APOiF893S8<pnt;p9cP0000,0*5D
!AIVDM,1,1,,A,30`:DoOP00899Qn<pHP8:OwV24OS,0*6E
$GNGGA,031450.000,2231.0330,N,11350.5054,E,1,13,0.8,-0.9,M,0.0,M,,*5F
$GPGSA,A,3,05,13,29,02,15,19,30,06,,,,,1.3,0.8,1.0*3E
$BDGSA,A,3,03,13,09,06,12,,,,,,,,1.3,0.8,1.0*25
$GNRMC,031450.000,A,2231.0330,N,11350.5054,E,0.02,73.24,171019,,,A*4C
$GNGGA,031451.000,2231.0330,N,11350.5054,E,1,13,0.8,-0.9,M,0.0,M,,*5E
$GNRMC,031451.000,A,2231.0330,N,11350.5054,E,0.04,73.24,171019,,,A*4B
!AIVDM,1,1,,B,36:DUa0Oh;`95DJ<pFh1i3r000wi,0*71
$GNGGA,031452.000,2231.0330,N,11350.5054,E,1,13,0.8,-0.9,M,0.0,M,,*5D
$GPGSA,A,3,05,13,29,02,15,19,30,06,,,,,1.3,0.8,1.0*3E
$BDGSA,A,3,03,13,09,06,12,,,,,,,,1.3,0.8,1.0*25
$GPGSV,3,1,11,02,58,049,43,05,55,343,44,06,26,096,36,07,02,062,26*72
$GPGSV,3,2,11,12,17,226,,13,59,167,45,15,31,209,39,19,13,151,28*76
$GPGSV,3,3,11,25,11,267,,29,26,320,35,30,11,092,28*47
$BDGSV,3,1,09,01,,,31,02,,,29,03,64,189,41,04,,,32*58
$BDGSV,3,2,09,06,71,173,39,08,,,30,09,44,198,31,12,07,323,33*59
$BDGSV,3,3,09,13,53,352,43*56
$GNRMC,031452.000,A,2231.0330,N,11350.5054,E,0.11,73.24,171019,,,A*4C
!AIVDM,1,1,,B,369H0APOiE893Qp<po3cu9cT0000,0*08
!AIVDM,1,1,,A,B69I<OP0022C7aS>@0FbR8N021Mk,0*1C
!AIVDM,1,1,,B,36:Cqq0P@>89;U6<pk2n?lEb00th,0*0D
$GNGGA,031453.000,2231.0329,N,11350.5054,E,1,13,0.8,-0.9,M,0.0,M,,*54
$GNRMC,031453.000,A,2231.0329,N,11350.5054,E,0.08,73.24,171019,,,A*4D
!AIVDM,1,1,,B,B69I<OP0022C7aS>@0FbR8N021Mk,0*1F
!AIVDM,1,1,,B,169@WGPP0K897Gh<pD@EUgwV0HOc,0*63
$GNGGA,031454.000,2231.0329,N,11350.5054,E,1,13,0.8,-0.9,M,0.0,M,,*53
$GPGSA,A,3,05,13,29,02,15,19,30,06,,,,,1.3,0.8,1.0*3E
$BDGSA,A,3,03,13,09,06,12,,,,,,,,1.3,0.8,1.0*25
$GNRMC,031454.000,A,2231.0329,N,11350.5054,E,0.05,73.24,171019,,,A*47
!AIVDM,1,1,,A,B6:fQ1P0<22ApQS>63iEe4rSQP06,0*61
!AIVDM,1,1,,A,169FV6PP@C89:s2<qLhd?HIL08P3,0*53
!AIVDM,1,1,,B,16:E4HPP0G8961@<pF?jg?wd0D@p,0*40
$GNGGA,031455.000,2231.0329,N,11350.5054,E,1,13,0.8,-0.8,M,0.0,M,,*53
$GNRMC,031455.000,A,2231.0329,N,11350.5054,E,0.07,73.24,171019,,,A*44
$GNGGA,031456.000,2231.0329,N,11350.5054,E,1,13,0.8,-0.8,M,0.0,M,,*50
$GPGSA,A,3,05,13,29,02,15,19,30,06,,,,,1.3,0.8,1.0*3E
$BDGSA,A,3,03,13,09,06,12,,,,,,,,1.3,0.8,1.0*25
$GNRMC,031456.000,A,2231.0329,N,11350.5054,E,0.15,73.24,171019,,,A*44
!AIVDM,1,1,,A,169H0APOiH893OH<poBcwaed0@QE,0*5B
!AIVDM,1,1,,A,36:Cqq0P@>89;UF<pjw6>DAj20lQ,0*64
$GNGGA,031457.000,2231.0329,N,11350.5054,E,1,13,0.8,-0.8,M,0.0,M,,*51
$GPGSV,3,1,11,02,58,049,43,05,55,343,44,06,26,096,35,07,02,062,30*76
$GPGSV,3,2,11,12,17,226,,13,59,167,45,15,31,209,39,19,13,151,30*7F
$GPGSV,3,3,11,25,11,267,,29,26,320,32,30,11,092,26*4E
$BDGSV,3,1,09,01,,,31,02,,,29,03,64,189,41,04,,,32*58
$BDGSV,3,2,09,06,71,173,37,08,,,28,09,44,198,34,12,07,323,31*59
$BDGSV,3,3,09,13,53,352,43*56
$GNRMC,031457.000,A,2231.0329,N,11350.5054,E,0.18,73.24,171019,,,A*48
!AIVDM,1,1,,B,169@nBPP00`9:3h<oUrf4?wj28Qm,0*7D
!AIVDM,1,1,,B,369FV6PP@C89:rR<qLlL;pCT0000,0*5A
$GNGGA,031458.000,2231.0329,N,11350.5054,E,1,13,0.8,-0.8,M,0.0,M,,*5E
$GPGSA,A,3,05,13,29,02,15,19,30,06,,,,,1.3,0.8,1.0*3E
$BDGSA,A,3,03,13,09,06,12,,,,,,,,1.3,0.8,1.0*25
$GNRMC,031458.000,A,2231.0329,N,11350.5054,E,0.09,73.24,171019,,,A*47
!AIVDM,1,1,,A,16:ae1P00089>7f<ptK@001p0000,0*52
$GNGGA,031459.000,2231.0329,N,11350.5054,E,1,13,0.8,-0.8,M,0.0,M,,*5F
$GNRMC,031459.000,A,2231.0329,N,11350.5054,E,0.10,73.24,171019,,,A*4E
!AIVDM,1,1,,B,16:DJAP00F`96PB<pFTSIl0600SK,0*0A
!AIVDM,1,1,,B,36:Cqq0P@>89;UP<pjuV=TAn0240,0*3D
!AIVDM,1,1,,B,10`:DoOP00899QL<pHRH=?v024Ht,0*0F
!AIVDO,1,1,,,B68rO0000J2B1?3>9cTekwuVSP06,0*7C
!AIVDO,1,1,,,B68rO0000J2B1?3>9cTekwuVSP06,0*7C
!AIVDM,1,1,,B,B68rO0000J2B1?3>9cTekwuVSP06,0*3C
$GNGGA,031500.000,2231.0329,N,11350.5054,E,1,13,0.),05,13,29,02,15,19,30,06,,,,,1.3,0.8,1.0*3E
$BDGSA,A,3,03,13,09,06,12,,,,,,,,1.3,0.8,1.0*25
$GNRMC,031500.000,A,2231.0329,N,11350.5054,E,0.12,73.24,171019,,,A*41
!AIVDM,1,1,,B,B6:fs=h0>B2BhK3>9D8sKwP3QP06,0*57
!AIVDM,1,1,,A,H69I<OPMDTHDpOKKP0000000000,2*37
$GNGGA,031501.000,2231.0329,N,11350.5054,E,1,13,0.8,-0.8,M,0.0,M,,*53
$GNRMC,031501.000,A,2231.0329,N,11350.5054,E,0.12,73.24,171019,,,A*40
!AIVDM,1,1,,A,369FV6PP@C89:r0<qLp<7`Ad0000,0*79
$AISUC,SetSuccess!
!AIVDM,1,1,,B,C68rO0000B2B1=3>9c0ekwv1P0BDBch0L?1U0@2N1j1h0000000P,0*54
GNGGA,031502.000,2231.0329,N,11350.5054,E,1,13,0.8,-0.8,M,0.0,M,,*50
$GPGSA,A,3,05,13,29,02,15,19,30,06,,,,,1.3,0.8,1.0*3E
$BDGSA,A,3,03,13,09,06,12,,,,,,,,1.3,0.8,1.0*25
$GPGSV,3,1,11,02,58,049,44,05,55,343,42,06,25,096,32,07,02,062,34*77
$GPGSV,3,2,11,12,17,226,,13,59,167,45,15,31,209,37,19,13,152,32*70
$GPGSV,3,3,11,25,11,267,,29,26,320,38,30,11,092,27*45
$BDGSV,3,1,09,01,,,31,02,,,29,03,64,189,41,04,,,32*58
$BDGSV,3,2,09,06,71,173,38,08,,,30,09,44,198,34,12,07,323,28*57
$BDGSV,3,3,09,13,54,352,45*57
$GNRMC,031502.000,A,2231.0329,N,11350.5054,E,0.27,59.80,171019,,,A*43
!AIVDM,1,1,,A,36:Cqq0P@>89;Uj<pjr6;4<620wh,0*3B
$GNGGA,031503.000,2231.0329,N,11350.5054,E,1,13,0.8,-0.8,M,0.0,M,,*51
$GNRMC,031503.000,A,2231.0329,N,11350.5054,E,0.11,59.80,171019,,,A*47
$GNGGA,031504.000,2231.0329,N,11350.5054,E,1,13,0.8,-0.8,M,0.0,M,,*56
$GPGSA,A,3,05,13,29,02,15,19,30,06,,,,,1.3,0.8,1.0*3E
$BDGSA,A,3,03,13,09,06,12,,,,,,,,1.3,0.8,1.0*25
$GNRMC,031504.000,A,2231.0329,N,11350.5054,E,0.17,59.80,171019,,,A*46
!AIVDM,1,1,,B,B69I<OP0022C7a3>@0AvUUN021Mk,0*06
!AIVDM,1,1,,A,B69I<OP0022C7a3>@0AvUUN021Mk,0*05
!AIVDM,1,1,,B,169FV6PP@B89:qL<qLsL5`;l0H38,0*76
$GNGGA,031505.000,2231.0329,N,11350.5054,E,1,13,0.8,-0.8,M,0.0,M,,*57
$GNRMC,031505.000,A,2231.0329,N,11350.5054,E,0.10,59.80,171019,,,A*40
!AIVDM,1,1,,B,36:DUa0OhE`95GL<pFq2MlRL0000,0*29
$GNGGA,031506.000,2231.0329,N,11350.5054,E,1,13,0.8,-0.8,M,0.0,M,,*54
$GPGSA,A,3,05,13,29,02,15,19,30,06,,,,,1.3,0.8,1.0*3E
$BDGSA,A,3,03,13,09,06,12,,,,,,,,1.3,0.8,1.0*25
$GNRMC,031506.000,A,2231.0329,N,11350.5054,E,0.12,59.80,171019,,,A*41
!AIVDM,1,1,,A,16:Ejr?001`9>G:<pCwP058<20S@,0*6A
!AIVDM,1,1,,B,16:Cqq0P@>89;V2<pjnF846>284M,0*62
$GNGGA,031507.000,2231.0329,N,11350.5054,E,1,13,0.8,-0.8,M,0.0,M,,*55
$GPGSV,3,1,11,02,58,049,43,05,55,343,43,06,25,096,33,07,02,062,36*72
$GPGSV,3,2,11,12,17,226,,13,59,167,45,15,32,209,36,19,13,152,33*73
$GPGSV,3,3,11,25,11,267,,29,26,320,33,30,11,092,29*40
$BDGSV,3,1,09,01,,,31,02,,,36,03,64,189,40,04,,,33*56
$BDGSV,3,2,09,06,71,173,38,08,,,32,09,44,198,35,12,07,323,27*5B
$BDGSV,3,3,09,13,54,352,43*51
$GNRMC,031507.000,A,2231.0329,N,11350.5054,E,0.16,59.80,171019,,,A*44
!AIVDM,1,1,,A,369FV6PP@B89:q:<qLtstp800000,0*44
$GNGGA,031508.000,2231.0329,N,11350.5054,E,1,13,0.8,-0.8,M,0.0,M,,*5A
$GPGSA,A,3,05,13,29,02,15,19,30,06,,,,,1.3,0.8,1.0*3E
$BDGSA,A,3,03,13,09,06,12,,,,,,,,1.3,0.8,1.0*25
$GNRMC,031508.000,A,2231.0329,N,11350.5054,E,0.11,59.80,171019,,,A*4C
!AIVDM,1,1,,A,10`:DoOP00899QN<pHRp?gvB2@50,0*53
$GNGGA,031509.000,2231.0329,N,11350.5054,E,1,13,0.8,-0.8,M,0.0,M,,*5B
$GNRMC,031509.000,A,2231.0329,N,11350.5054,E,0.31,283.51,171019,,,A*76
!AIVDM,1,1,,A,16:DJAP00F`96R:<pFTkM46J0<<M,0*08
$GNGGA,031510.000,2231.0329,N,11350.5054,E,1,13,0.8,-0.8,M,0.0,M,,*53
$GPGSA,A,3,05,13,29,02,15,19,30,06,,,,,1.3,0.8,1.0*3E
$BDGSA,A,3,03,13,09,06,12,,,,,,,,1.3,0.8,1.0*25
$GNRMC,031510.000,A,2231.0329,N,11350.5054,E,0.13,283.51,171019,,,A*7E
!AIVDM,1,1,,B,C6:bg5001j2CEA3>>Bb4wwv0jb:@b2hBMiSh00000000S4T6440P,0*67
!AIVDM,1,1,,B,B6:fqEP0A22CK63>0JBJ9s53QP06,0*12
$GNGGA,031511.000,2231.0329,N,11350.5054,E,1,13,0.8,-0.8,M,0.0,M,,*52
$GNRMC,031511.000,A,2231.0329,N,11350.5054,E,0.03,283.51,171019,,,A*7E
!AIVDM,1,1,,B,369FV6PP@B89:p`<qLwsrH480000,0*25
!AIVDM,1,1,,B,16:Cfu0P00898J:<p4Or`OvF2h7;,0*6D
!AIVDM,1,1,,B,B69I<OP0022C7`S>@0>?ukN021Mk,0*4F
!AIVDM,1,1,,A,B69I<OP0022C7`S>@0>?ukN021Mk,0*4C
$GNGGA,031512.000,2231.0329,N,11350.5053,E,1,13,0.8,-0.8,M,0.0,M,,*56
$GPGSA,A,3,05,13,29,02,15,19,30,06,,,,,1.3,0.8,1.0*3E
$BDGSA,A,3,03,13,09,06,12,,,,,,,,1.3,0.8,1.0*25
$GPGSV,3,1,11,02,58,049,44,05,55,343,42,06,25,096,32,07,02,062,36*75
$GPGSV,3,2,11,12,17,226,,13,59,167,45,15,32,209,33,19,13,152,32*77
$GPGSV,3,3,11,25,11,267,,29,26,320,26,30,11,092,30*4C
$BDGSV,3,1,09,01,,,30,02,,,36,03,64,189,40,04,,,36*52
$BDGSV,3,2,09,06,71,173,38,08,,,29,09,44,198,34,12,07,323,27*50
$BDGSV,3,3,09,13,54,352,44*56
$GNRMC,031512.000,A,2231.0329,N,11350.5053,E,0.09,283.51,171019,,,A*70
$GNGGA,031513.000,2231.0329,N,11350.5053,E,1,13,0.8,-0.8,M,0.0,M,,*57
$GNRMC,031513.000,A,2231.0329,N,11350.5053,E,0.44,76.34,171019,,,A*43
!AIVDM,1,1,,B,36:E4HPP0F8963@<pF=BigvH00Mk,0*72
!AIVDM,1,1,,B,36:Cqq0P@=89;VF<pji6340J20wh,0*77
!AIVDM,2,1,2,B,56:ae1P00003W;80001L4q4T4pM<PDpO77?T001678<7400009p000000000,0*7C
!AIVDM,2,2,2,B,00000000000,2*25
$GNGGA,031514.000,2231.0329,N,11350.5053,E,1,13,0.8,-0.8,M,0.0,M,,*50
$GPGSA,A,3,05,13,29,02,15,19,30,06,,,,,1.3,0.8,1.0*3E
$BDGSA,A,3,03,13,09,06,12,,,,,,,,1.3,0.8,1.0*25
$GNRMC,031514.000,A,2231.0329,N,11350.5053,E,0.15,76.34,171019,,,A*40
!AIVDM,1,1,,B,B6:fk?00C:2B=03>3nS2wwRVSP06,0*6D
!AIVDM,1,1,,B,169@WGPP0D897K@<pD;DkgvJ0H8t,0*71
$GNGGA,031515.000,2231.0329,N,11350.5053,E,1,13,0.8,-0.8,M,0.0,M,,*51
$GNRMC,031515.000,A,2231.0329,N,11350.5053,E,0.13,76.34,171019,,,A*47
!AIVDM,1,1,,A,36:DUa0OhN`95If<pG<An4Jh0000,0*7D
$GNGGA,031516.000,2231.0329,N,11350.5053,E,1,13,0.8,-0.8,M,0.0,M,,*52
$GPGSA,A,3,05,13,29,02,15,19,30,06,,,,,1.3,0.8,1.0*3E
$BDGSA,A,3,03,13,09,06,12,,,,,,,,1.3,0.8,1.0*25
$GNRMC,031516.000,A,2231.0329,N,11350.5053,E,0.15,76.34,171019,,,A*42
!AIVDM,2,1,3,B,56:E4H`000009Teb221TuF0hT4r1ADv37R22220O20E736dP09Dj1CVR1C`8,0*62
!AIVDM,2,2,3,B,88888888880,2*24
$GNGGA,031517.000,2231.0329,N,11350.5053,E,1,13,0.8,-0.8,M,0.0,M,,*53
$GPGSV,3,1,11,02,58,049,44,05,55,343,44,06,25,097,38,07,02,062,24*7B
$GPGSV,3,2,11,12,17,226,,13,59,167,45,15,32,209,38,19,13,152,27*78
$GPGSV,3,3,11,25,11,267,,29,26,320,35,30,11,092,25*4A
$BDGSV,3,1,09,01,,,30,02,,,33,03,64,189,40,04,,,33*52
$BDGSV,3,2,09,06,71,173,37,08,,,30,09,44,198,28,12,07,323,31*5D
$BDGSV,3,3,09,13,54,352,42*50
$GNRMC,031517.000,A,2231.0329,N,11350.5053,E,0.42,154.58,171019,,,A*7A
$GNGGA,031518.000,2231.0329,N,11350.5053,E,1,13,0.8,-0.8,M,0.0,M,,*5C
$GPGSA,A,3,05,13,29,02,15,19,30,06,,,,,1.3,0.8,1.0*3E
$BDGSA,A,3,03,13,09,06,12,,,,,,,,1.3,0.8,1.0*25
$GNRMC,031518.000,A,2231.0329,N,11350.5053,E,0.36,131.63,171019,,,A*7D
!AIVDM,1,1,,A,B6:jkoP06J2BlE3>:RmkqLv021Mk,0*7E
!AIVDM,1,1,,B,369FV6PP@@89:oj<qM3c`7vD0000,0*34
!AIVDM,1,1,,B,16:DJAP00E`96TD<pFSSPl8f0H;;,0*2D
$GNGGA,031519.000,2231.0329,N,11350.5053,E,1,13,0.8,-0.8,M,0.0,M,,*5D
$GNRMC,031519.000,A,2231.0329,N,11350.5053,E,0.22,179.73,171019,,,A*74
!AIVDM,1,1,,B,10`:DoOP00899Qh<pHRpCwv`2H;m,0*63
!AIVDM,1,1,,B,B69I<OP0022C7`S>@0:4Eav021Mk,0*42
$GNGGA,031520.000,2231.0329,N,11350.5053,E,1,13,0.8,-0.8,M,0.0,M,,*57
$GPGSA,A,3,05,13,29,02,15,19,30,06,,,,,1.3,0.8,1.0*3E
$BDGSA,A,3,03,13,09,06,12,,,,,,,,1.3,0.8,1.0*25
$GNRMC,031520.000,A,2231.0329,N,11350.5053,E,0.78,134.20,171019,,,A*7E
!AIVDM,1,1,,A,B69I<OP0022C7`S>@0:4Eav021Mk,0*41
!AIVDM,1,1,,B,36:Cqq0P@=89;Vb<pjcUskp`21sP,0*72
!AIVDM,1,1,,B,B6:fU2@0022BooS>FFjQ>0aSQP06,0*05
!AIVDM,2,1,6,A,50`:DoD0000000000000000000000000000000000000040Ht00000000000,0*2B
!AIVDM,2,2,6,A,00000000008,2*2A
$GNGGA,031521.000,2231.0326,N,11350.5052,E,1,13,0.8,-1.1,M,0.0,M,,*50
$GNRMC,031521.000,A,2231.0326,N,11350.5052,E,0.92,121.68,171019,,,A*7D
!AIVDM,1,1,,A,369FV6PP@@89:o><qM5sRGtL0000,0*3D
$GNGGA,031522.000,2231.0323,N,11350.5054,E,1,13,0.8,-1.1,M,0.0,M,,*50
$GPGSA,A,3,05,13,29,02,15,19,30,06,,,,,1.3,0.8,1.0*3E
$BDGSA,A,3,03,13,09,06,12,,,,,,,,1.3,0.8,1.0*25
$GPGSV,3,1,11,02,58,049,42,05,55,343,45,06,25,097,31,07,02,062,33*73
$GPGSV,3,2,11,12,17,226,,13,59,167,46,15,32,209,42,19,13,152,33*73
$GPGSV,3,3,11,25,11,267,,29,26,320,42,30,11,092,35*4B
$BDGSV,3,1,09,01,,,30,02,,,33,03,64,189,39,04,,,38*57
$BDGSV,3,2,09,06,71,173,38,08,,,31,09,44,198,39,12,07,323,31*53
$BDGSV,3,3,09,13,54,352,24*50
$GNRMC,031522.000,A,2231.0323,N,11350.5054,E,0.76,132.02,171019,,,A*79
$GNGGA,031523.000,2231.0320,N,11350.5053,E,1,13,0.8,-1.3,M,0.0,M,,*57
$GNRMC,031523.000,A,2231.0320,N,11350.5053,E,0.50,122.85,171019,,,A*76
!AIVDM,1,1,,A,36:Cqq0P@=89;Vn<pjaEpCnf20t@,0*4A
!AIVDM,1,1,,A,16:E4HPP0D8966@<pFVRl?vd08>7,0*59
!AIVDM,1,1,,A,169@WGPP0D897Jh<pCoDn?vb0DqR,0*1E
$GNGGA,031524.000,2231.0319,N,11350.5056,E,1,13,0.8,-1.5,M,0.0,M,,*59
$GPGSA,A,3,05,13,29,02,15,19,30,06,,,,,1.3,0.8,1.0*3E
$BDGSA,A,3,03,13,09,06,12,,,,,,,,1.3,0.8,1.0*25
$GNRMC,031524.000,A,2231.0319,N,11350.5056,E,0.36,81.95,171019,,,A*47
!AIVDM,1,1,,A,C6:EV100022B6V3>;dH2Kwv0V@bL<:L?WR0000000000S0DKU40P,0*2E
$GNGGA,031525.000,2231.0319,N,11350.5058,E,1,13,0.8,-1.8,M,0.0,M,,*5B
$GNRMC,031525.000,A,2231.0319,N,11350.5058,E,0.39,63.66,171019,,,A*47
!AIVDM,1,1,,B,36:DUa0OhT`95L8<pGOQh4M20000,0*07
$GNGGA,031526.000,2231.0321,N,11350.5062,E,1,13,0.8,-1.9,M,0.0,M,,*5B
$GPGSA,A,3,05,13,29,02,15,19,30,06,,,,,1.3,0.8,1.0*3E
$BDGSA,A,3,03,13,09,06,12,,,,,,,,1.3,0.8,1.0*25
$GNRMC,031526.000,A,2231.0321,N,11350.5062,E,0.56,59.67,171019,,,A*47
!AIVDM,1,1,,B,169H0AP01I893<D<pq:d9ajh0D3N,0*40
!AIVDM,1,1,,B,16:Cqq0P@=89;W6<pjV5k3hn24Ht,0*3C
$GNGGA,031527.000,2231.0322,N,11350.5065,E,1,13,0.8,-2.2,M,0.0,M,,*56
$GPGSV,3,1,11,02,58,049,43,05,55,343,44,06,25,097,39,07,02,062,36*7E
$GPGSV,3,2,11,12,16,226,,13,59,167,41,15,32,209,47,19,13,152,32*71
$GPGSV,3,3,11,25,11,267,,29,26,320,35,30,11,092,27*48
$BDGSV,3,1,09,01,,,30,02,,,33,03,64,189,39,04,,,33*5C
$BDGSV,3,2,09,06,71,173,32,08,,,39,09,44,198,35,12,07,323,30*5C
$BDGSV,3,3,09,13,54,352,34*51
$GNRMC,031527.000,A,2231.0322,N,11350.5065,E,0.65,43.70,171019,,,A*4F
!AIVDM,1,1,,B,H69I<OU6?F10100h0000000Hg580,0*38
!AIVDM,1,1,,A,369FV6PP@?89:nL<qM8sHWp`0000,0*1E
$GNGGA,031528.000,2231.0327,N,11350.5068,E,1,13,0.8,-2.3,M,0.0,M,,*50
$GPGSA,A,3,05,13,29,02,15,19,30,06,,,,,1.3,0.8,1.0*3E
$BDGSA,A,3,03,13,09,06,12,,,,,,,,1.3,0.8,1.0*25
$GNRMC,031528.000,A,2231.0327,N,11350.5068,E,0.66,28.00,171019,,,A*41
!AIVDM,1,1,,A,10`:DoOP00`99Qp<pHS8Jgvt20S8,0*21
$GNGGA,031529.000,2231.0331,N,11350.5071,E,1,13,0.8,-2.4,M,0.0,M,,*59
$GNRMC,031529.000,A,2231.0331,N,11350.5071,E,1.06,32.33,171019,,,A*43
!AIVDM,1,1,,A,36:Cqq0P@=89;W@<pjTmhCfr222P,0*28
!AIVDM,1,1,,A,16:DJAP00E`96VF<pFQ3UD=20L<M,0*45
!AIVDM,1,1,,A,C6:EC200122CGBS><V0E`A>2jb:RBL>jb2L@bOcgUU10S4<64S07,0*36
$GNGGA,031530.000,2231.0335,N,11350.5077,E,1,13,0.8,-1.7,M,0.0,M,,*53
$GPGSA,A,3,05,13,29,02,15,19,30,06,,,,,1.3,0.8,1.0*3E
$BDGSA,A,3,03,13,09,06,12,,,,,,,,1.3,0.8,1.0*25
$GNRMC,031530.000,A,2231.0335,N,11350.5077,E,1.01,36.19,171019,,,A*42
!AIVDM,1,1,,B,C6:EC200122CGCS><V<D<A?2jb:RBL>jb2L@bOcgUU10S4<64S07,0*64
!AIVDM,1,1,,A,B6:fs=h0?22BlHS>9ETnOwfSQP06,0*60
$GNGGA,031531.000,2231.0341,N,11350.5077,E,1,13,0.8,-1.6,M,0.0,M,,*50
$GNRMC,031531.000,A,2231.0341,N,11350.5077,E,1.00,22.64,171019,,,A*4E
!AIVDM,1,1,,B,B69I<OP00B2C7a3>?wmaQDN021Mk,0*60
$GNGGA,031532.000,2231.0346,N,11350.5078,E,1,13,0.8,-1.3,M,0.0,M,,*5E
$GPGSA,A,3,05,13,29,02,15,19,30,06,,,,,1.3,0.8,1.0*3E
$BDGSA,A,3,03,13,09,06,12,,,,,,,,1.3,0.8,1.0*25
$GPGSV,3,1,11,02,58,049,41,05,55,343,39,06,25,097,32,07,02,062,37*7C
$GPGSV,3,2,11,12,16,226,,13,59,167,41,15,32,209,39,19,13,152,24*7F
$GPGSV,3,3,11,25,11,267,,29,26,320,40,30,11,092,35*49
$BDGSV,3,1,09,01,,,29,02,,,32,03,64,189,37,04,,,33*5B
$BDGSV,3,2,09,06,71,173,33,08,,,42,09,44,198,30,12,07,323,30*54
$BDGSV,3,3,09,13,54,352,35*50
$GNRMC,031532.000,A,2231.0346,N,11350.5078,E,1.13,29.15,171019,,,A*4A
!AIVDM,1,1,,B,377TIi5000`97RL<or:4H9k00000,0*12
$GNGGA,031533.000,2231.0349,N,11350.5080,E,1,13,0.8,-1.4,M,0.0,M,,*50
$GNRMC,031533.000,A,2231.0349,N,11350.5080,E,1.23,38.21,171019,,,A*47
!AIVDM,1,1,,B,36:Cqq0P@<89;WV<pjQmc3a2210P,0*04
!AIVDM,1,1,,B,169@WGPP0D897Mh<pCoD9?vv00SV,0*0B
$GNGGA,031534.000,2231.0352,N,11350.5081,E,1,13,0.8,-1.6,M,0.0,M,,*5E
$GPGSA,A,3,05,13,29,02,15,19,30,06,,,,,1.3,0.8,1.0*3E
$BDGSA,A,3,03,13,09,06,12,,,,,,,,1.3,0.8,1.0*25
$GNRMC,031534.000,A,2231.0352,N,11350.5081,E,1.26,23.56,171019,,,A*44
$GNGGA,031535.000,2231.0357,N,11350.5082,E,1,13,0.8,-1.5,M,0.0,M,,*5A
$GNRMC,031535.000,A,2231.0357,N,11350.5082,E,1.48,31.03,171019,,,A*48
!AIVDM,1,1,,B,403sl2Qv>`S?R`9E54<noki024Ht,0*50
!AIVDM,1,1,,A,169FV6PP@?89:mH<qM;c8Glp08E3,0*1A
!AIVDM,1,1,,B,16:Ejr?001`9>G<<pCwh05762@E?,0*4B
$GNGGA,031536.000,2231.0359,N,11350.5082,E,1,13,0.8,-1.7,M,0.0,M,,*55
$GPGSA,A,3,05,13,29,02,15,19,30,06,,,,,1.3,0.8,1.0*3E
$BDGSA,A,3,03,13,09,06,12,,,,,,,,1.3,0.8,1.0*25
$GNRMC,031536.000,A,2231.0359,N,11350.5082,E,1.33,32.79,171019,,,A*47
!AIVDM,1,1,,B,169A5cS000896>4<p7:78o1:0<<b,0*2A
!AIVDM,1,1,,A,16:Cqq0P@<89;`2<pjOEUCU:28F4,0*01
$GNGGA,031537.000,2231.0364,N,11350.5082,E,1,13,0.8,-1.6,M,0.0,M,,*5B
$GPGSV,3,1,11,02,58,049,44,05,55,343,33,06,25,097,32,07,02,062,34*70
$GPGSV,3,2,11,12,16,226,,13,59,167,31,15,32,209,38,19,13,152,23*7E
$GPGSV,3,3,11,25,11,267,,29,26,320,37,30,11,092,34*48
$BDGSV,3,1,09,01,,,41,02,,,32,03,64,189,28,04,,,31*59
$BDGSV,3,2,09,06,71,173,31,08,,,41,09,44,198,20,12,07,323,36*52
$BDGSV,3,3,09,13,54,352,34*51
$GNRMC,031537.000,A,2231.0364,N,11350.5082,E,1.36,24.89,171019,,,A*45
!AIVDM,1,1,,B,369FV6PP0?89:m8<qM<K27lt0000,0*34
$GNGGA,031538.000,2231.0367,N,11350.5083,E,1,13,0.8,-1.4,M,0.0,M,,*54
$GPGSA,A,3,05,13,29,02,15,19,30,06,,,,,1.3,0.8,1.0*3E
$BDGSA,A,3,03,13,09,06,12,,,,,,,,1.3,0.8,1.0*25
$GNRMC,031538.000,A,2231.0367,N,11350.5083,E,1.44,19.20,171019,,,A*40
!AIVDM,1,1,,B,10`:DoOP00899R8<pHSHDgw>04Ht,0*55
$GNGGA,031539.000,2231.0368,N,11350.5082,E,1,13,0.8,-1.3,M,0.0,M,,*5C
$GNRMC,031539.000,A,2231.0368,N,11350.5082,E,1.53,4.72,171019,,,A*72
!AIVDM,1,1,,B,16:DJAP00E`96`F<pFN3`l?F0D<M,0*0C
!AIVDM,1,1,,B,B69I<OP00B2C7aS>?weUuAv021Mk,0*25
$GNGGA,031540.000,2231.0369,N,11350.5080,E,1,13,0.8,-1.1,M,0.0,M,,*53
$GPGSA,A,3,05,13,29,02,15,19,30,06,,,,,1.3,0.8,1.0*3E
$BDGSA,A,3,03,13,09,06,12,,,,,,,,1.3,0.8,1.0*25
$GNRMC,031540.000,A,2231.0369,N,11350.5080,E,1.60,10.58,171019,,,A*42
$GNGGA,031541.000,2231.0372,N,11350.5077,E,1,13,0.8,-1.0,M,0.0,M,,*51
$GNRMC,031541.000,A,2231.0372,N,11350.5077,E,1.74,7.19,171019,,,A*77
$GNGGA,031542.000,2231.0377,N,11350.5077,E,1,13,0.8,-1.1,M,0.0,M,,*56
$GPGSA,A,3,05,13,29,02,15,19,30,06,,,,,1.3,0.8,1.0*3E
$BDGSA,A,3,03,13,09,06,12,,,,,,,,1.3,0.8,1.0*25
$GPGSV,3,1,11,02,58,049,42,05,55,343,46,06,25,097,33,07,02,062,34*75
$GPGSV,3,2,11,12,16,226,,13,59,167,39,15,32,209,42,19,13,152,36*7F
$GPGSV,3,3,11,25,11,267,,29,26,319,38,30,11,092,36*4F
$BDGSV,3,1,09,01,,,38,02,,,32,03,64,189,28,04,,,31*57
$BDGSV,3,2,09,06,71,173,32,08,,,41,09,44,198,31,12,07,323,39*5E
$BDGSV,3,3,09,13,54,352,34*51
$GNRMC,031542.000,A,2231.0377,N,11350.5077,E,1.61,5.71,171019,,,A*79
$GNGGA,031543.000,2231.0381,N,11350.5078,E,1,13,0.8,-1.0,M,0.0,M,,*50
$GNRMC,031543.000,A,2231.0381,N,11350.5078,E,1.71,2.40,171019,,,A*7A
!AIVDM,1,1,,B,B6:fk?00C:2B913>4AK3cwiVSP06,0*76
!AIVDM,1,1,,A,16:E4HPP0F8969P<pFVS0gwD04Ht,0*59
$GNGGA,031544.000,2231.0386,N,11350.5078,E,1,13,0.8,-0.9,M,0.0,M,,*58
$GPGSA,A,3,05,13,29,02,15,19,30,06,,,,,1.3,0.8,1.0*3E
$BDGSA,A,3,03,13,09,06,12,,,,,,,,1.3,0.8,1.0*25
$GNRMC,031544.000,A,2231.0386,N,11350.5078,E,1.67,355.56,171019,,,A*7B
!AIVDM,1,1,,B,169FV6PP0>89:lB<qM=rrok804Ht,0*1F
!AIVDM,2,1,4,B,56:ae1P00003W;80001L4q4T4pM<PDpO77?T001678<7400009p000000000,0*7A
!AIVDM,2,2,4,B,00000000000,2*23
$GNGGA,031545.000,2231.0391,N,11350.5076,E,1,14,0.8,-0.7,M,0.0,M,,*58
$GNRMC,031545.000,A,2231.0391,N,11350.5076,E,1.82,345.20,171019,,,A*79
!AIVDM,1,1,,B,B69I<OP00B2C7b3>?waQA=v021Mk,0*0E
$GNGGA,031546.000,2231.0397,N,11350.5074,E,1,14,0.8,-0.3,M,0.0,M,,*5B
$GPGSA,A,3,05,13,29,02,15,19,30,06,,,,,1.3,0.8,1.0*3E
$BDGSA,A,3,03,13,09,06,12,08,,,,,,,1.3,0.8,1.0*2D
$GNRMC,031546.000,A,2231.0397,N,11350.5074,E,1.95,343.58,171019,,,A*71
!AIVDM,1,1,,B,16:Cqq0P@;89;`p<pjJUECKN20S7,0*36
$GNGGA,031547.000,2231.0404,N,11350.5074,E,1,14,0.8,0.0,M,0.0,M,,*79
$GPGSV,3,1,11,02,58,049,38,05,55,343,44,06,25,097,41,07,02,062,39*72
$GPGSV,3,2,11,12,16,226,,13,59,167,46,15,32,209,35,19,13,152,24*74
$GPGSV,3,3,11,25,11,267,,29,26,319,39,30,11,092,40*4F
$BDGSV,3,1,10,01,,,30,02,,,32,03,64,189,31,04,,,31*5F
$BDGSV,3,2,10,05,,,35,06,71,173,33,08,58,042,37,09,44,198,38*5B
$BDGSV,3,3,10,12,07,323,32,13,54,352,24*6F
$GNRMC,031547.000,A,2231.0404,N,11350.5074,E,1.89,343.27,171019,,,A*78
$GNGGA,031548.000,2231.0411,N,11350.5073,E,1,14,0.8,0.0,M,0.0,M,,*75
$GPGSA,A,3,05,13,29,02,15,19,30,06,,,,,1.3,0.8,1.0*3E
$BDGSA,A,3,03,13,09,06,12,08,,,,,,,1.3,0.8,1.0*2D
$GNRMC,031548.000,A,2231.0411,N,11350.5073,E,1.86,331.53,171019,,,A*7D
!AIVDM,1,1,,B,B6:jkoP06b2Bkl3>:FEtUSv021Mk,0*63
!AIVDM,1,1,,A,369FV6PP0>89:kh<qM>bo7i@0000,0*27
!AIVDM,1,1,,A,16:DJAP00F`96`b<pFOScD?`00Sj,0*78
$GNGGA,031549.000,2231.0419,N,11350.5073,E,1,14,0.8,0.2,M,0.0,M,,*7E
$GNRMC,031549.000,A,2231.0419,N,11350.5073,E,1.87,339.46,171019,,,A*79
!AIVDM,1,1,,A,B6:bg500622CCP3>>:NE7wv41P06,0*59
$GNGGA,031550.000,2231.0424,N,11350.5072,E,1,14,0.8,0.4,M,0.0,M,,*7F
$GPGSA,A,3,05,13,29,02,15,19,30,06,,,,,1.3,0.8,1.0*3E
$BDGSA,A,3,03,13,09,06,12,08,,,,,,,1.3,0.8,1.0*2D
$GNRMC,031550.000,A,2231.0424,N,11350.5072,E,1.81,330.87,171019,,,A*7C
$GNGGA,031551.000,2231.0429,N,11350.5071,E,1,14,0.8,0.9,M,0.0,M,,*7D
$GNRMC,031551.000,A,2231.0429,N,11350.5071,E,1.79,325.33,171019,,,A*7F
!AIVDM,1,1,,B,369FV6PP0>89:k<<qM?JmGiH0000,0*23
!AIVDM,1,1,,B,36:DUa0Ohf`95UB<pHBR2m220111,0*2A
!AIVDM,1,1,,B,C6:E?3000:2CBRS>>H6Nevv0jb;0@b30jb2M1WSh0000UST5SSP0,0*71
$GNGGA,031552.000,2231.0433,N,11350.5070,E,1,14,0.8,1.2,M,0.0,M,,*7E
$GPGSA,A,3,05,13,29,02,15,19,30,06,,,,,1.3,0.8,1.0*3E
$BDGSA,A,3,03,13,09,06,12,08,,,,,,,1.3,0.8,1.0*2D
$GPGSV,3,1,11,02,58,050,35,05,55,343,45,06,25,097,43,07,02,062,34*79
$GPGSV,3,2,11,12,16,226,,13,59,167,46,15,32,209,38,19,13,152,32*7E
$GPGSV,3,3,11,25,11,267,,29,26,319,33,30,11,092,32*40
$BDGSV,3,1,10,01,,,30,02,,,32,03,64,189,38,04,,,31*56
$BDGSV,3,2,10,05,,,35,06,71,173,35,08,58,042,31,09,44,198,29*5B
$BDGSV,3,3,10,12,07,323,29,13,54,352,38*68
$GNRMC,031552.000,A,2231.0433,N,11350.5070,E,0.99,338.61,171019,,,A*72
$GNGGA,031553.000,2231.0435,N,11350.5071,E,1,14,0.8,1.7,M,0.0,M,,*7D
$GNRMC,031553.000,A,2231.0435,N,11350.5071,E,0.60,289.79,171019,,,A*70
!AIVDM,1,1,,B,36:Cqq0P@:89;aD<pjHU:CAb00v@,0*0B
!AIVDM,1,1,,A,H69I<OPMDTHDpOKKP0000000000,2*37
!AIVDM,1,1,,B,169@WGPP0I897Ph<pCoC?gwV0DqQ,0*32
$GNGGA,031554.000,2231.0433,N,11350.5074,E,1,14,0.8,2.1,M,0.0,M,,*7C
$GPGSA,A,3,05,13,29,02,15,19,30,06,,,,,1.3,0.8,1.0*3E
$BDGSA,A,3,03,13,09,06,12,08,,,,,,,1.3,0.8,1.0*2D
$GNRMC,031554.000,A,2231.0433,N,11350.5074,E,0.23,153.29,171019,,,A*72
!AIVDM,1,1,,B,B6:fNdP00B2Bg23=s0v6UcrSQP06,0*0D
!AIVDM,1,1,,A,169FV6PP0>89:jt<qM?rh7iL04Ht,0*1A
!AIVDM,1,1,,B,16:E4HPP0G896=P<pFhC5gwd0@PE,0*09
$GNGGA,031555.000,2231.0431,N,11350.5076,E,1,14,0.8,2.5,M,0.0,M,,*79
$GNRMC,031555.000,A,2231.0431,N,11350.5076,E,0.91,146.04,171019,,,A*71
!AIVDM,1,1,,B,403sl2Qv>`S?n`9E54<noki02L>f,0*70
!AIVDM,1,1,,B,169A5cS000896>8<p7:@IW3h0@Pn,0*54
$GNGGA,031556.000,2231.0429,N,11350.5081,E,1,14,0.8,2.7,M,0.0,M,,*79
$GPGSA,A,3,05,13,29,02,15,19,30,06,,,,,1.3,0.8,1.0*3E
$BDGSA,A,3,03,13,09,06,12,08,,,,,,,1.3,0.8,1.0*2D
$GNRMC,031556.000,A,2231.0429,N,11350.5081,E,1.72,126.91,171019,,,A*75
$GNGGA,031557.000,2231.0425,N,11350.5085,E,1,14,0.8,3.1,M,0.0,M,,*77
$GPGSV,3,1,11,02,58,050,29,05,55,343,43,06,25,097,35,07,02,062,33*74
$GPGSV,3,2,11,12,16,226,,13,59,167,47,15,32,209,36,19,13,152,33*70
$GPGSV,3,3,11,25,11,267,,29,26,319,38,30,11,091,35*4F
$BDGSV,3,1,10,01,,,30,02,,,31,03,64,189,38,04,,,32*56
$BDGSV,3,2,10,05,,,32,06,71,173,38,08,58,042,39,09,44,198,40*56
$BDGSV,3,3,10,12,07,323,31,13,54,352,30*69
$GNRMC,031557.000,A,2231.0425,N,11350.5085,E,1.58,138.71,171019,,,A*75
$GNGGA,031558.000,2231.0420,N,11350.5091,E,1,14,0.8,4.0,M,0.0,M,,*7E
$GPGSA,A,3,05,13,29,02,15,19,30,06,,,,,1.3,0.8,1.0*3E
$BDGSA,A,3,03,13,09,06,12,08,,,,,,,1.3,0.8,1.0*2D
$GNRMC,031558.000,A,2231.0420,N,11350.5091,E,1.96,127.97,171019,,,A*7E
$GNGGA,031559.000,2231.0417,N,11350.5098,E,1,14,0.8,4.5,M,0.0,M,,*77
$GNRMC,031559.000,A,2231.0417,N,11350.5098,E,2.14,111.87,171019,,,A*7F
!AIVDM,1,1,,B,10`:DoOP00899R`<pHT8Dwv000RR,0*5D
!AIVDM,1,1,,B,36:Cqq0P@:89;ah<pjG4wS8021th,0*16
!AIVDM,1,1,,B,16:DJAP00G`96bJ<pFN3fD@60L<M,0*29
$GNGGA,031600.000,2231.0418,N,11350.5105,E,1,14,0.8,5.1,M,0.0,M,,*77
$GPGSA,A,3,05,13,29,02,15,19,30,06,,,,,1.3,0.8,1.0*3E
$BDGSA,A,3,03,13,09,06,12,08,,,,,,,1.3,0.8,1.0*2D
$GNRMC,031600.000,A,2231.0418,N,11350.5105,E,2.41,94.07,171019,,,A*4E
$GNGGA,031601.000,2231.0420,N,11350.5115,E,1,14,0.8,5.5,M,0.0,M,,*78
$GNRMC,031601.000,A,2231.0420,N,11350.5115,E,3.20,82.69,171019,,,A*4C
$GNGGA,031602.000,2231.0423,N,11350.5124,E,1,14,0.8,5.6,M,0.0,M,,*79
$GPGSA,A,3,05,13,29,02,15,19,30,06,,,,,1.3,0.8,1.0*3E
$BDGSA,A,3,03,13,09,06,12,08,,,,,,,1.3,0.8,1.0*2D
$GPGSV,3,1,11,02,58,050,35,05,55,343,36,06,25,097,33,07,02,062,30*7E
$GPGSV,3,2,11,12,16,226,,13,59,167,38,15,32,209,46,19,13,152,35*79
$GPGSV,3,3,11,25,11,267,,29,26,319,37,30,11,091,34*41
$BDGSV,3,1,10,01,,,30,02,,,34,03,64,189,38,04,,,32*53
$BDGSV,3,2,10,05,,,32,06,71,173,32,08,58,042,35,09,44,198,39*5E
$BDGSV,3,3,10,12,07,323,28,13,54,352,32*63
$GNRMC,031602.000,A,2231.0423,N,11350.5124,E,3.87,72.11,171019,,,A*43
!AIVDM,1,1,,B,B6:fs=h0>R2BpT3>9K4dwwP3QP06,0*68
!AIVDM,1,1,,B,36:EMCUP00`96ph<p<n>4?v42Dlb,0*32
!AIVDM,2,1,5,B,56:DJAP000009TUF221TuF0hT4r1ADv3F222220l2@N482U>0<Tj1CVR1C`8,0*39
!AIVDM,2,2,5,B,88888888880,2*22
$GNGGA,031603.000,2231.0428,N,11350.5135,E,1,14,0.8,5.7,M,0.0,M,,*72
$GNRMC,031603.000,A,2231.0428,N,11350.5135,E,3.67,61.99,171019,,,A*45
!AIVDM,1,1,,A,36:Cqq0P@:89;b8<pjFTpS4620wP,0*10
$GNGGA,031604.000,2231.0436,N,11350.5147,E,1,14,0.8,5.8,M,0.0,M,,*70
$GPGSA,A,3,05,13,29,02,15,19,30,06,,,,,1.3,0.8,1.0*3E
$BDGSA,A,3,03,13,09,06,12,08,,,,,,,1.3,0.8,1.0*2D
$GNRMC,031604.000,A,2231.0436,N,11350.5147,E,4.52,62.49,171019,,,A*47
!AIVDM,1,1,,B,169FV6PP0=89:iF<qM@bTogl0D4h,0*1E
$GNGGA,031605.000,2231.0442,N,11350.5160,E,1,14,0.8,5.7,M,0.0,M,,*78
$GNRMC,031605.000,A,2231.0442,N,11350.5160,E,4.49,55.43,171019,,,A*44
!AIVDM,1,1,,B,36:DUa000f`95aj<pHbB<U4L0AMt,0*26
$GNGGA,031606.000,2231.0450,N,11350.5173,E,1,14,0.8,5.5,M,0.0,M,,*78
$GPGSA,A,3,05,13,29,02,15,19,30,06,,,,,1.3,0.8,1.0*3E
$BDGSA,A,3,03,13,09,06,12,08,,,,,,,1.3,0.8,1.0*2D
$GNRMC,031606.000,A,2231.0450,N,11350.5173,E,4.38,49.23,171019,,,A*4B
!AIVDM,1,1,,B,169H0AP01K892kD<pse<4af80D3F,0*48
!AIVDM,1,1,,B,16:Cqq0P@989;bV<pjEDi30>04I0,0*42
$GNGGA,031607.000,2231.0459,N,11350.5189,E,1,14,0.8,5.0,M,0.0,M,,*70
$GPGSV,3,1,11,02,58,050,43,05,55,344,44,06,25,097,34,07,02,062,27*7C
$GPGSV,3,2,11,12,16,226,43,13,59,167,38,15,32,209,48,19,13,152,40*72
$GPGSV,3,3,11,25,11,267,,29,26,319,37,30,11,091,29*4D
$BDGSV,3,1,10,01,,,31,02,,,39,03,64,189,36,04,,,32*51
$BDGSV,3,2,10,05,,,30,06,71,173,32,08,58,042,26,09,44,198,31*56
$BDGSV,3,3,10,12,07,323,29,13,54,352,40*67
$GNRMC,031607.000,A,2231.0459,N,11350.5189,E,4.94,48.18,171019,,,A*49
$GNGGA,031608.000,2231.0469,N,11350.5204,E,1,14,0.8,4.7,M,0.0,M,,*7C
$GPGSA,A,3,05,13,29,02,15,19,30,06,,,,,1.3,0.8,1.0*3E
$BDGSA,A,3,03,13,09,06,12,08,,,,,,,1.3,0.8,1.0*2D
$GNRMC,031608.000,A,2231.0469,N,11350.5204,E,5.28,51.13,171019,,,A*46
!AIVDM,1,1,,A,10`:DoOP00899Rj<pHT8@OvB0<>s,0*5B
$GNGGA,031609.000,2231.0479,N,11350.5221,E,1,14,0.8,4.4,M,0.0,M,,*78
$GNRMC,031609.000,A,2231.0479,N,11350.5221,E,5.55,51.27,171019,,,A*4C
!AIVDM,1,1,,B,C6:EV100022B6c3>;ch2Kwv0V@bL<:L?WR0000000000S0DKU40P,0*3F
!AIVDM,1,1,,B,C6:EV100022B6c3>;ch2Kwv0V@bL<:L?WR0000000000S0DKU40P,0*3F
!AIVDM,1,1,,A,16:DJAP00G`96dB<pFICi4@J085f,0*06
!AIVDM,1,1,,A,36:Cqq0P@:89;bp<pjDDbjtD21qh,0*6C
$GNGGA,031610.000,2231.0489,N,11350.5236,E,1,14,0.8,4.2,M,0.0,M,,*7F
$GPGSA,A,3,05,13,29,02,15,19,30,06,,,,,1.3,0.8,1.0*3E
$BDGSA,A,3,03,13,09,06,12,08,,,,,,,1.3,0.8,1.0*2D
$GNRMC,031610.000,A,2231.0489,N,11350.5236,E,5.75,52.35,171019,,,A*4F
$GNGGA,031611.000,2231.0498,N,11350.5252,E,1,14,0.8,4.2,M,0.0,M,,*7C
$GNRMC,031611.000,A,2231.0498,N,11350.5252,E,5.87,53.99,171019,,,A*46
$GNGGA,031612.000,2231.0508,N,11350.5268,E,1,14,0.8,4.2,M,0.0,M,,*7E
$GPGSA,A,3,05,13,29,02,15,19,30,06,,,,,1.3,0.8,1.0*3E
$BDGSA,A,3,03,13,09,06,12,08,,,,,,,1.3,0.8,1.0*2D
$GPGSV,3,1,11,02,58,050,43,05,55,344,44,06,25,097,38,07,02,062,26*71
$GPGSV,3,2,11,12,16,226,45,13,60,167,38,15,32,209,48,19,13,152,38*71
$GPGSV,3,3,11,25,11,267,30,29,26,319,36,30,11,091,30*47
$BDGSV,3,1,10,01,,,35,02,,,39,03,64,189,36,04,,,31*56
$BDGSV,3,2,10,05,,,30,06,71,173,30,08,58,042,29,09,44,198,31*5B
$BDGSV,3,3,10,12,07,323,30,13,54,352,38*60
$GNRMC,031612.000,A,2231.0508,N,11350.5268,E,5.90,54.38,171019,,,A*4E
!AIVDM,1,1,,A,B6:fk?00CJ2B5K3>4dC4wwQVSP06,0*75
!AIVDM,2,1,7,A,569A5cP25Rs<8T5V220d4r1@4r1<4r0P4v2222002Q8jE6Kd0ATj1C`6R1C`,0*70
!AIVDM,2,2,7,A,88888888880,2*23
!AIVDM,1,1,,B,36:Cqq0P@989;c<<pjClTRpJ00v@,0*26
$GNGGA,031613.000,2231.0518,N,11350.5284,E,1,14,0.8,4.2,M,0.0,M,,*7C
$GNRMC,031613.000,A,2231.0518,N,11350.5284,E,6.09,52.74,171019,,,A*41
!AIVDM,1,1,,B,16:E4HPP0H896?h<pFVS8?vH0@7q,0*39
$GNGGA,031614.000,2231.0528,N,11350.5304,E,1,14,0.8,4.2,M,0.0,M,,*71
$GPGSA,A,3,05,13,29,02,15,19,30,06,,,,,1.3,0.8,1.0*3E
$BDGSA,A,3,03,13,09,06,12,08,,,,,,,1.3,0.8,1.0*2D
$GNRMC,031614.000,A,2231.0528,N,11350.5304,E,6.07,52.55,171019,,,A*41
!AIVDM,1,1,,B,B6:fk?00CJ2B573>4f;5;wRVSP06,0*3E
!AIVDM,1,1,,B,169@WGPP0K897`h<pDGRngvJ0DqR,0*71
$GNGGA,031615.000,2231.0539,N,11350.5320,E,1,14,0.8,4.4,M,0.0,M,,*70
$GNRMC,031615.000,A,2231.0539,N,11350.5320,E,6.29,52.35,171019,,,A*4C
!AIVDM,1,1,,A,169FV6PP0=89:h4<qM@JRGf@04I0,0*10
$GNGGA,031616.000,2231.0550,N,11350.5335,E,1,14,0.8,4.5,M,0.0,M,,*79
$GPGSA,A,3,05,13,29,02,15,19,30,06,,,,,1.3,0.8,1.0*3E
$BDGSA,A,3,03,13,09,06,12,08,,,,,,,1.3,0.8,1.0*2D
$GNRMC,031616.000,A,2231.0550,N,11350.5335,E,6.29,51.94,171019,,,A*4C
!AIVDM,1,1,,B,16:Ejr?001`9>G@<pCwP054P2<2;,0*65
!AIVDM,1,1,,B,169A5cS001896><<p7;jW72R04I0,0*0C
$GNGGA,031617.000,2231.0562,N,11350.5349,E,1,14,0.8,4.4,M,0.0,M,,*73
$GPGSV,3,1,11,02,58,050,44,05,55,344,43,06,25,097,36,07,02,062,26*7F
$GPGSV,3,2,11,12,16,226,45,13,60,167,36,15,32,209,49,19,13,152,38*7E
$GPGSV,3,3,11,25,11,267,35,29,26,319,39,30,11,091,32*4F
$BDGSV,3,1,10,01,,,35,02,,,39,03,64,189,36,04,,,31*56
$BDGSV,3,2,10,05,,,30,06,71,173,31,08,58,042,29,09,44,198,31*5A
$BDGSV,3,3,10,12,07,323,30,13,54,352,40*6F
$GNRMC,031617.000,A,2231.0562,N,11350.5349,E,6.49,51.50,171019,,,A*49
$GNGGA,031618.000,2231.0574,N,11350.5365,E,1,14,0.8,4.5,M,0.0,M,,*74
$GPGSA,A,3,05,13,29,02,15,19,30,06,,,,,1.3,0.8,1.0*3E
$BDGSA,A,3,03,13,09,06,12,08,,,,,,,1.3,0.8,1.0*2D
$GNRMC,031618.000,A,2231.0574,N,11350.5365,E,6.56,51.81,171019,,,A*4D
!AIVDM,1,1,,A,B6:jkoP07:2Bjq3>::>3eaN021Mk,0*5F
!AIVDM,1,1,,B,16:DJAP00H`96`t<pE`SiT@d0D<M,0*12
$GNGGA,031619.000,2231.0587,N,11350.5379,E,1,14,0.8,4.3,M,0.0,M,,*72
$GNRMC,031619.000,A,2231.0587,N,11350.5379,E,6.63,52.66,171019,,,A*41
!AIVDM,1,1,,B,B6:VkD000B2Bn33=qVipEPa3QP06,0*3D
!AIVDM,1,1,,B,36:Cqq0P@989;cn<pjCDGjh`21vP,0*56
!AIVDM,1,1,,B,10`:DoOP00899Rl<pHSp=Ovb0D>r,0*35
!AIVDM,1,1,,B,D03sl2R0tNfp00N000,4*7B
$GNGGA,031620.000,2231.0599,N,11350.5393,E,1,14,0.8,4.2,M,0.0,M,,*72
$GPGSA,A,3,05,13,29,02,15,19,30,06,,,,,1.3,0.8,1.0*3E
$BDGSA,A,3,03,13,09,06,12,08,,,,,,,1.3,0.8,1.0*2D
$GNRMC,031620.000,A,2231.0599,N,11350.5393,E,6.60,52.46,171019,,,A*41
!AIVDM,2,1,6,B,56:Cfu000002222222084t4qADw622222222220l3h6462di0:H88888881L,0*39
!AIVDM,2,2,6,B,81T1dA4Qmh0,2*08
!AIVDM,1,1,,B,B6:fij@01B2CHl3=w15Pa=b3QP06,0*7F
$GNGGA,031621.000,2231.0611,N,11350.5408,E,1,14,0.8,4.2,M,0.0,M,,*75
$GNRMC,031621.000,A,2231.0611,N,11350.5408,E,6.72,52.86,171019,,,A*49
!AIVDM,1,1,,A,16:Cfu0P00898JB<p4JAR?vV2h<l,0*2E
$GNGGA,031622.000,2231.0622,N,11350.5423,E,1,14,0.8,4.0,M,0.0,M,,*7D
$GPGSA,A,3,05,13,29,02,15,19,30,06,,,,,1.3,0.8,1.0*3E
$BDGSA,A,3,03,13,09,06,12,08,,,,,,,1.3,0.8,1.0*2D
$GPGSV,3,1,11,02,58,050,42,05,55,344,41,06,25,097,38,07,02,062,26*75
$GPGSV,3,2,11,12,16,226,46,13,60,167,35,15,32,209,44,19,13,152,37*7C
$GPGSV,3,3,11,25,11,267,27,29,26,319,31,30,11,091,30*46
$BDGSV,3,1,12,01,,,36,02,,,38,03,64,189,35,04,,,31*55
$BDGSV,3,2,12,05,,,30,06,71,173,31,07,,,31,08,58,042,32*6C
$BDGSV,3,3,12,09,44,198,35,10,,,38,12,07,323,30,13,54,352,39*56
$GNRMC,031622.000,A,2231.0622,N,11350.5423,E,6.77,54.23,171019,,,A*4F
!AIVDM,1,1,,A,16:DUa0Ohe`95h<<pI2jMmFv00SE,0*7A
$GNGGA,031623.000,2231.0633,N,11350.5441,E,1,14,0.8,3.9,M,0.0,M,,*76
$GNRMC,031623.000,A,2231.0633,N,11350.5441,E,6.99,55.87,171019,,,A*45
!AIVDM,1,1,,A,36:Cqq0P@989;d:<pjCD?2df2110,0*0B
!AIVDM,1,1,,B,169FV6PP0>89:g4<qM@JNWdP04I0,0*01
!AIVDM,1,1,,A,16:E4HPP0I896Bh<pFVS=?vd04I0,0*24
!AIVDM,1,1,,A,169@WGPP0L897b@<pD@BMgvb0@>D,0*1E
$GNGGA,031624.000,2231.0643,N,11350.5458,E,1,14,0.8,3.8,M,0.0,M,,*7F
$GPGSA,A,3,05,13,29,02,15,19,30,06,,,,,1.3,0.8,1.0*3E
$BDGSA,A,3,03,13,09,06,12,08,,,,,,,1.3,0.8,1.0*2D
$GNRMC,031624.000,A,2231.0643,N,11350.5458,E,6.50,56.46,171019,,,A*46
!AIVDM,1,1,,A,33==7R5000`97ut<p;RPuT:d0Der,0*40
!AIVDM,1,1,,B,C6:V3m00022BPWS=s<hn7wcVjb:V@2N>b2L@bO1USec0S2h4T207,0*0F
!AIVDM,1,1,,A,369A5cS000896=T<p7;mro2l02uA,0*68
$GNGGA,031625.000,2231.0652,N,11350.5473,E,1,14,0.8,3.7,M,0.0,M,,*78
$GNRMC,031625.000,A,2231.0652,N,11350.5473,E,5.73,56.63,171019,,,A*4B
$GNGGA,031626.000,2231.0659,N,11350.5488,E,1,14,0.8,3.5,M,0.0,M,,*76
