$GNGGA,021046.000,2307.3596,N,11318.8757,E,1,07,4.0,-236.4,M,0.0,M,,*56
$GPGSA,A,3,17,19,02,06,,,,,,,,,10.7,4.0,9.9*0A
$BDGSA,A,3,13,12,08,,,,,,,,,,10.7,4.0,9.9*18
$GNRMC,021046.000,A,2307.3596,N,11318.8757,E,0.15,235.20,170919,,,A*7C
$GNGGA,021047.000,2307.3595,N,11318.8757,E,1,07,4.0,-236.1,M,0.0,M,,*51
$GNRMC,021047.000,A,2307.3595,N,11318.8757,E,0.22,204.87,170919,,,A*75
!AIVDM,1,1,,B,369FfHE00086r@n=>C0C4WsL0Dg:,0*10
!AIVDM,1,1,,A,16:V4R0P0086Qt`=>Mj00?wP04@`,0*18
$GNGGA,021048.000,2307.3596,N,11318.8760,E,1,07,4.0,-236.8,M,0.0,M,,*50
$GPGSA,A,3,17,19,02,06,,,,,,,,,10.7,4.0,9.9*0A
$BDGSA,A,3,13,12,08,,,,,,,,,,10.7,4.0,9.9*18
$GPGSV,3,1,09,02,32,293,41,05,21,217,26,06,50,350,38,09,27,099,*78
$GPGSV,3,2,09,12,20,317,32,17,58,069,46,19,61,034,38,23,14,065,28*7C
$GPGSV,3,3,09,28,32,170,33*4D
$BDGSV,1,1,03,08,49,360,38,12,48,349,29,13,48,320,36*50
$GNRMC,021048.000,A,2307.3596,N,11318.8760,E,0.16,204.87,170919,,,A*7A
$GNGGA,021049.000,2307.3594,N,11318.8771,E,1,07,4.0,-232.7,M,0.0,M,,*58
$GNRMC,021049.000,A,2307.3594,N,11318.8771,E,0.11,204.87,170919,,,A*7E
$GNGGA,021050.000,2307.3599,N,11318.8782,E,1,07,4.0,-236.9,M,0.0,M,,*5B
$GPGSA,A,3,17,19,02,06,,,,,,,,,10.7,4.0,9.9*0A
$BDGSA,A,3,13,12,08,,,,,,,,,,10.7,4.0,9.9*18
$GNRMC,021050.000,A,2307.3599,N,11318.8782,E,0.80,180.52,170919,,,A*78
$GNGGA,021051.000,2307.3600,N,11318.8779,E,1,07,4.0,-232.8,M,0.0,M,,*58
$GNRMC,021051.000,A,2307.3600,N,11318.8779,E,0.59,68.46,170919,,,A*48
!AIVDM,1,1,,A,16:b`c@P0m86pVL=;aclNOwp1P06,0*5A
!AIVDM,1,1,,B,403sl3Qv>HR:k`6N3p=<G>i024@`,0*30
!AIVDO,1,1,,,B68rO0004J1cJH3CdL<LCwr6SP06,0*57
$GNGGA,021052.000,2307.3603,N,11318.8784,E,1,07,4.0,-233.3,M,0.0,M,,*50
$GPGSA,A,3,17,19,02,06,,,,,,,,,10.7,4.0,9.9*0A
$BDGSA,A,3,13,12,08,,,,,,,,,,10.7,4.0,9.9*18
$GNRMC,021052.000,A,2307.3603,N,11318.8784,E,1.78,45.22,170919,,,A*45
!AIVDO,1,1,,,B68rO0004J1cJH3CdL<LCwr6SP06,0*57
!AIVDM,1,1,,B,B68rO0004J1cJH3CdL<LCwr6SP06,0*17
!AIVDM,1,1,,A,16:Qcs0000`7cI<=;2GP<JU`0>Dm,0*5C
$GNGGA,021053.000,2307.3590,N,11318.8791,E,1,07,4.0,-224.9,M,0.0,M,,*50
$GPGSV,3,1,09,02,32,293,42,05,21,217,26,06,50,350,37,09,27,099,*74
$GPGSV,3,2,09,12,20,317,24,17,58,069,45,19,61,034,38,23,14,065,22*72
$GPGSV,3,3,09,28,31,170,28*44
$BDGSV,1,1,03,08,49,360,28,12,48,349,33,13,48,320,38*54
$GNRMC,021053.000,A,2307.3590,N,11318.8791,E,1.94,185.11,170919,,,A*76
$GNGGA,021054.000,2307.3564,N,11318.8779,E,1,07,4.0,-216.6,M,0.0,M,,*54
$GPGSA,A,3,17,19,02,06,,,,,,,,,10.7,4.0,9.9*0A
$BDGSA,A,3,13,12,08,,,,,,,,,,10.7,4.0,9.9*18
$GNRMC,021054.000,A,2307.3564,N,11318.8779,E,4.15,211.87,170919,,,A*71
!AIVDM,1,1,,A,16:V4R@P0086Qtf=>MH@0?wd04@`,0*08
$GNGGA,021055.000,2307.3545,N,11318.8775,E,1,07,4.0,-216.4,M,0.0,M,,*58
$GNRMC,021055.000,A,2307.3545,N,11318.8775,E,3.36,265.54,170919,,,A*74
$GNGGA,021056.000,2307.3549,N,11318.8763,E,1,07,4.0,-210.3,M,0.0,M,,*51
$GPGSA,A,3,17,19,02,06,,,,,,,,,10.7,4.0,9.9*0A
$BDGSA,A,3,13,12,08,,,,,,,,,,10.7,4.0,9.9*18
$GNRMC,021056.000,A,2307.3549,N,11318.8763,E,4.26,284.78,170919,,,A*7B
!AIVDM,1,1,,B,16:ECHPP00`6h0h=>KV>4?wh20Sw,0*22
$GNGGA,021057.000,2307.3547,N,11318.8733,E,1,07,4.0,-200.8,M,0.0,M,,*51
$GNRMC,021057.000,A,2307.3547,N,11318.8733,E,5.93,292.13,170919,,,A*74
$GNGGA,021058.000,2307.3551,N,11318.8717,E,1,07,4.0,-198.8,M,0.0,M,,*5D
$GPGSA,A,3,17,19,02,06,,,,,,,,,10.7,4.0,9.9*0A
$BDGSA,A,3,13,12,08,,,,,,,,,,10.7,4.0,9.9*18
$GPGSV,3,1,09,02,32,293,33,05,21,217,31,06,50,350,48,09,27,099,44*7C
$GPGSV,3,2,09,12,20,317,24,17,58,069,47,19,61,034,43,23,14,065,22*7C
$GPGSV,3,3,09,28,31,170,29*45
$BDGSV,1,1,04,07,,,32,08,49,000,35,12,48,349,41,13,48,320,34*55
$GNRMC,021058.000,A,2307.3551,N,11318.8717,E,7.65,274.67,170919,,,A*7A
$GNGGA,021059.000,2307.3560,N,11318.8692,E,1,07,4.0,-200.2,M,0.0,M,,*5A
$GNRMC,021059.000,A,2307.3560,N,11318.8692,E,9.29,269.88,170919,,,A*7E
!AIVDM,1,1,,B,B6:fg0h0021fVo3CSVuUUAMSQP06,0*36
$GNGGA,021100.000,2307.3561,N,11318.8669,E,1,07,4.0,-202.8,M,0.0,M,,*5A
$GPGSA,A,3,17,19,02,06,,,,,,,,,10.7,4.0,9.9*0A
$BDGSA,A,3,13,12,08,,,,,,,,,,10.7,4.0,9.9*18
$GNRMC,021100.000,A,2307.3561,N,11318.8669,E,9.91,259.10,170919,,,A*77
$GNGGA,021101.000,2307.3527,N,11318.8620,E,1,07,4.0,-190.4,M,0.0,M,,*50
$GNRMC,021101.000,A,2307.3527,N,11318.8620,E,12.77,246.80,170919,,,A*4C
!AIVDM,1,1,,A,403sl3Av>HR;1`6OJn=>ONi0281;,0*42
!AIVDM,1,1,,A,D03sl3B<TNfpbpN000,4*57
!AIVDM,1,1,,A,403sl3Qv>HR;1`6N3p=<G>i02<4k,0*1F
$GNGGA,021102.000,2307.3526,N,11318.8598,E,1,07,4.0,-192.6,M,0.0,M,,*52
$GPGSA,A,3,17,19,02,06,,,,,,,,,10.7,4.0,10.0*3B
$BDGSA,A,3,13,12,08,,,,,,,,,,10.7,4.0,10.0*29
$GNRMC,021102.000,A,2307.3526,N,11318.8598,E,10.26,271.45,170919,,,A*45
$GNGGA,021103.000,2307.3512,N,11318.8563,E,1,07,4.0,-184.4,M,0.0,M,,*55
$GPGSV,3,1,09,02,32,293,41,05,21,217,29,06,50,350,39,09,27,099,42*70
$GPGSV,3,2,09,12,20,317,23,17,58,069,39,19,61,034,44,23,14,065,22*75
$GPGSV,3,3,09,28,31,170,35*48
$BDGSV,2,1,05,07,,,26,08,49,000,33,10,,,32,12,48,349,28*63
$BDGSV,2,2,05,13,48,320,38*59
$GNRMC,021103.000,A,2307.3512,N,11318.8563,E,9.85,268.02,170919,,,A*7D
!AIVDM,1,1,,B,16:V4R@P0086Qtb=>MI@0?v60<2N,0*09
!AIVDM,1,1,,A,403sl3iv>HR;3`5nhV=Fw8i0282P,0*0E
$GNGGA,021104.000,2307.3528,N,11318.8545,E,1,07,4.0,-187.7,M,0.0,M,,*5F
$GPGSA,A,3,17,19,02,06,,,,,,,,,10.7,4.0,10.0*3B
$BDGSA,A,3,13,12,08,,,,,,,,,,10.7,4.0,10.0*29
$GNRMC,021104.000,A,2307.3528,N,11318.8545,E,8.03,271.72,170919,,,A*77
!AIVDM,1,1,,B,D03sl3@@LNfp00N000,4*20
$GNGGA,021105.000,2307.3545,N,11318.8526,E,1,07,4.0,-193.1,M,0.0,M,,*53
$GNRMC,021105.000,A,2307.3545,N,11318.8526,E,6.05,266.47,170919,,,A*70
$GNGGA,021106.000,2307.3525,N,11318.8498,E,1,07,4.0,-189.1,M,0.0,M,,*59
$GPGSA,A,3,17,19,02,06,,,,,,,,,10.7,4.0,10.0*3B
$BDGSA,A,3,13,12,08,,,,,,,,,,10.7,4.0,10.0*29
$GNRMC,021106.000,A,2307.3525,N,11318.8498,E,5.94,270.23,170919,,,A*7F
$GNGGA,021107.000,2307.3493,N,11318.8460,E,1,07,4.0,-180.3,M,0.0,M,,*58
$GNRMC,021107.000,A,2307.3493,N,11318.8460,E,6.17,245.33,170919,,,A*7A
!AIVDM,1,1,,A,16:ECHPP01`6h0h=>KVf4?v@24@d,0*55
$GNGGA,021108.000,2307.3460,N,11318.8431,E,1,07,4.0,-172.1,M,0.0,M,,*50
$GPGSA,A,3,17,19,02,06,,,,,,,,,10.7,4.0,10.0*3B
$BDGSA,A,3,13,12,08,,,,,,,,,,10.7,4.0,10.0*29
$GPGSV,3,1,10,02,32,293,39,05,21,217,28,06,50,350,31,09,27,099,37*7C
$GPGSV,3,2,10,12,20,317,25,15,,,28,17,58,069,47,19,61,034,43*4C
$GPGSV,3,3,10,23,14,065,21,28,31,170,27*77
$BDGSV,2,1,07,03,,,38,06,,,28,07,,,21,08,49,000,25*5E
$BDGSV,2,2,07,10,,,24,12,48,349,26,13,48,320,40*66
$GNRMC,021108.000,A,2307.3460,N,11318.8431,E,5.74,260.04,170919,,,A*78
$GNGGA,021109.000,2307.3439,N,11318.8415,E,1,07,4.0,-168.1,M,0.0,M,,*50
$GNRMC,021109.000,A,2307.3439,N,11318.8415,E,5.00,258.22,170919,,,A*7F
$GNGGA,021110.000,2307.3410,N,11318.8394,E,1,07,4.0,-157.1,M,0.0,M,,*51
$GPGSA,A,3,17,19,02,06,,,,,,,,,10.7,4.0,10.0*3B
$BDGSA,A,3,13,12,08,,,,,,,,,,10.7,4.0,10.0*29
$GNRMC,021110.000,A,2307.3410,N,11318.8394,E,4.33,251.94,170919,,,A*77
!AIVDM,1,1,,A,16:fs@@P0086SQ0=>MwP00HD1P00,0*66
$GNGGA,021111.000,2307.3422,N,11318.8392,E,1,07,4.0,-157.1,M,0.0,M,,*57
$GNRMC,021111.000,A,2307.3422,N,11318.8392,E,2.42,256.62,170919,,,A*7F
!AIVDM,1,1,,B,403sl3Qv>HR;;`6N3p=<G>i020S:,0*2C
$GNGGA,021112.000,2307.3428,N,11318.8396,E,1,07,4.0,-159.4,M,0.0,M,,*51
$GPGSA,A,3,17,19,02,06,,,,,,,,,10.7,4.0,10.0*3B
$BDGSA,A,3,13,12,08,,,,,,,,,,10.7,4.0,10.0*29
$GNRMC,021112.000,A,2307.3428,N,11318.8396,E,3.07,247.96,170919,,,A*79
!AIVDM,1,1,,A,16:Qcs0001`7cI@=;2GP<JTH0@7J,0*22
!AIVDM,1,1,,A,D03sl3Qk8Nfp00N000,4*6D
!AIVDM,1,1,,A,16:V4R@P0086Qtb=>MIP0?vJ00T<,0*7E
$GNGGA,021113.000,2307.3406,N,11318.8384,E,1,07,4.0,-148.8,M,0.0,M,,*53
$GPGSV,3,1,10,02,32,293,28,05,21,217,29,06,50,350,31,09,27,099,40*7D
$GPGSV,3,2,10,12,20,317,24,15,,,22,17,58,069,48,19,61,034,44*4F
$GPGSV,3,3,10,23,14,065,21,28,31,170,27*77
$BDGSV,2,1,07,03,,,20,06,,,28,07,,,24,08,49,000,23*54
$BDGSV,2,2,07,10,,,32,12,48,349,24,13,48,320,34*60
$GNRMC,021113.000,A,2307.3406,N,11318.8384,E,1.77,242.64,170919,,,A*7A
$GNGGA,021114.000,2307.3393,N,11318.8369,E,1,07,4.0,-140.1,M,0.0,M,,*5D
$GPGSA,A,3,17,19,02,06,,,,,,,,,10.8,4.0,10.0*34
$BDGSA,A,3,13,12,08,,,,,,,,,,10.8,4.0,10.0*26
$GNRMC,021114.000,A,2307.3393,N,11318.8369,E,2.46,235.66,170919,,,A*76
$GNGGA,021115.000,2307.3416,N,11318.8375,E,1,07,4.0,-144.5,M,0.0,M,,*5B
$GNRMC,021115.000,A,2307.3416,N,11318.8375,E,1.74,261.19,170919,,,A*7B
$GNGGA,021116.000,2307.3434,N,11318.8387,E,1,07,4.0,-146.2,M,0.0,M,,*50
$GPGSA,A,3,17,19,02,06,,,,,,,,,10.8,4.0,10.0*34
$BDGSA,A,3,13,12,08,,,,,,,,,,10.8,4.0,10.0*26
$GNRMC,021116.000,A,2307.3434,N,11318.8387,E,3.60,53.12,170919,,,A*4A
$GNGGA,021117.000,2307.3427,N,11318.8381,E,1,07,4.0,-134.2,M,0.0,M,,*50
$GNRMC,021117.000,A,2307.3427,N,11318.8381,E,4.43,72.82,170919,,,A*43
!AIVDM,1,1,,B,16:V4R0P0086Qt:=>Mg00?vR08C3,0*13
!AIVDM,1,1,,B,16:ECHPP00`6h0h=>KVf4?vR28:N,0*19
!AIVDM,1,1,,A,D03sl31TPNfp00N000,4*5A
!AIVDM,1,1,,A,16:bbIHP0487DnT==VkC3OvR2d3w,0*0B
$GNGGA,021118.000,2307.3443,N,11318.8374,E,1,07,4.0,-127.3,M,0.0,M,,*54
$GPGSA,A,3,17,19,02,06,,,,,,,,,10.8,4.0,10.0*34
$BDGSA,A,3,13,12,08,,,,,,,,,,10.8,4.0,10.0*26
$GPGSV,3,1,09,02,32,293,45,05,21,217,28,06,50,350,42,09,27,099,40*7B
$GPGSV,3,2,09,12,20,317,26,17,58,069,44,19,61,034,42,23,14,065,19*74
$GPGSV,3,3,09,28,31,170,28*44
$BDGSV,2,1,07,03,,,20,06,,,27,07,,,30,08,49,000,28*55
$BDGSV,2,2,07,10,,,33,12,48,349,29,13,48,320,39*61
$GNRMC,021118.000,A,2307.3443,N,11318.8374,E,3.75,359.28,170919,,,A*7C
!AIVDM,1,1,,B,36:@Rl500087<Jt==noeaHrT07Wh,0*3F
$GNGGA,021119.000,2307.3476,N,11318.8375,E,1,07,4.0,-127.1,M,0.0,M,,*50
$GNRMC,021119.000,A,2307.3476,N,11318.8375,E,0.32,247.02,170919,,,A*7C
$GNGGA,021120.000,2307.3404,N,11318.8337,E,1,07,4.0,-98.8,M,0.0,M,,*65
$GPGSA,A,3,17,19,02,06,,,,,,,,,10.8,4.0,10.0*34
$BDGSA,A,3,13,12,08,,,,,,,,,,10.8,4.0,10.0*26
$GNRMC,021120.000,A,2307.3404,N,11318.8337,E,11.41,188.88,170919,,,A*43
!AIVDM,1,1,,A,403sl31v>HR;D87B4n==o<1000S:,0*0D
!AIVDM,1,1,,B,16:fs@@P0086SQ0=>MwP00Hb1P00,0*43
$GNGGA,021121.000,2307.3355,N,11318.8328,E,1,07,4.0,-89.7,M,0.0,M,,*66
$GNRMC,021121.000,A,2307.3355,N,11318.8328,E,11.22,180.75,170919,,,A*40
!AIVDM,1,1,,A,16:b`c@P0m86plJ=;`wlIwwp1P06,0*4C
!AIVDM,1,1,,A,403sl3Av>HR;E`6OJn=>ONi028<q,0*71
!AIVDM,1,1,,A,403sl3Qv>HR;E`6N3p=<G>i028=4,0*39
$GNGGA,021122.000,2307.3336,N,11318.8339,E,1,07,4.0,-85.0,M,0.0,M,,*6B
$GPGSA,A,3,17,19,02,06,,,,,,,,,10.8,4.0,10.0*34
$BDGSA,A,3,13,12,08,,,,,,,,,,10.8,4.0,10.0*26
$GNRMC,021122.000,A,2307.3336,N,11318.8339,E,8.77,170.82,170919,,,A*79
$GNGGA,021123.000,2307.3335,N,11318.8364,E,1,07,4.0,-86.0,M,0.0,M,,*62
$GPGSV,3,1,09,02,33,293,39,05,21,217,29,06,50,350,28,09,27,099,39*72
$GPGSV,3,2,09,12,20,317,25,17,58,069,31,19,61,034,35,23,14,065,21*7E
$GPGSV,3,3,09,28,31,170,37*4A
$BDGSV,3,1,09,01,,,41,02,,,38,03,,,20,06,,,27*6C
$BDGSV,3,2,09,07,,,28,08,49,000,22,10,,,29,12,48,349,29*68
$BDGSV,3,3,09,13,48,320,36*5B
$GNRMC,021123.000,A,2307.3335,N,11318.8364,E,5.18,112.00,170919,,,A*79
!AIVDM,1,1,,B,16:V4R@P0086Qtb=>MI00?vf0@C4,0*5E
!AIVDM,1,1,,A,403sl3iv>HR;G`5nhV=Fw8i028>>,0*18
$GNGGA,021124.000,2307.3307,N,11318.8388,E,1,07,4.0,-83.8,M,0.0,M,,*6B
$GPGSA,A,3,17,19,02,06,,,,,,,,,10.8,4.0,10.0*34
$BDGSA,A,3,13,12,08,,,,,,,,,,10.8,4.0,10.0*26
$GNRMC,021124.000,A,2307.3307,N,11318.8388,E,13.37,155.21,170919,,,A*47
!AIVDM,1,1,,A,16:V4QhP0086Qln=>N900?vh00Rl,0*26
!AIVDO,1,1,,,B68rO000Pr1cGD3Cd8aQCwdVSP06,0*48
$GNGGA,021125.000,2307.3290,N,11318.8392,E,1,07,4.0,-83.1,M,0.0,M,,*67
$GNRMC,021125.000,A,2307.3290,N,11318.8392,E,13.12,155.61,170919,,,A*41
!AIVDO,1,1,,,B68rO000Pr1cGD3Cd8aQCwdVSP06,0*48
$GNGGA,021126.000,2307.3299,N,11318.8430,E,1,07,4.0,-87.5,M,0.0,M,,*62
$GPGSA,A,3,17,19,02,06,,,,,,,,,10.8,4.0,10.0*34
$BDGSA,A,3,13,12,08,,,,,,,,,,10.8,4.0,10.0*26
$GNRMC,021126.000,A,2307.3299,N,11318.8430,E,9.31,123.19,170919,,,A*70
!AIVDM,1,1,,A,C6:beG@00B1jVU3COm8iOwv0V@bM0jC1QQf000000000S0`dR20P,0*2E
!AIVDM,1,1,,A,E>l4vc<R7W3h42h20WhHq000000D3QA36W9@h2088@dv@0,4*2F
!AIVDM,1,1,,A,36:ECHPP01`6h0h=>KTv4?vl20Pk,0*72
$GNGGA,021127.000,2307.3297,N,11318.8471,E,1,07,4.0,-94.9,M,0.0,M,,*66
$GNRMC,021127.000,A,2307.3297,N,11318.8471,E,9.13,135.31,170919,,,A*77
!AIVDM,1,1,,A,38Hvr25000`7bfb=;>CiDrTl0Dg:,0*52
!AIVDM,1,1,,B,D03sl3QW4Nfp00N000,4*5E
$GNGGA,021128.000,2307.3290,N,11318.8499,E,1,07,4.0,-97.1,M,0.0,M,,*63
$GPGSA,A,3,17,19,02,06,,,,,,,,,10.8,4.0,10.0*34
$BDGSA,A,3,13,12,08,,,,,,,,,,10.8,4.0,10.0*26
$GPGSV,3,1,09,02,33,293,33,05,21,217,32,06,50,351,37,09,27,099,40*73
$GPGSV,3,2,09,12,20,317,20,17,58,069,39,19,61,034,37,23,14,065,26*76
$GPGSV,3,3,09,28,31,170,33*4E
$BDGSV,3,1,09,01,,,38,02,,,25,03,,,32,06,,,26*6C
$BDGSV,3,2,09,07,,,21,08,49,000,34,10,,,31,12,48,349,28*6E
$BDGSV,3,3,09,13,48,320,27*5B
$GNRMC,021128.000,A,2307.3290,N,11318.8499,E,8.05,136.94,170919,,,A*73
$GNGGA,021129.000,2307.3277,N,11318.8525,E,1,07,4.0,-93.3,M,0.0,M,,*6B
$GNRMC,021129.000,A,2307.3277,N,11318.8525,E,10.65,108.53,170919,,,A*44
$GNGGA,021130.000,2307.3262,N,11318.8539,E,1,07,4.0,-80.8,M,0.0,M,,*63
$GPGSA,A,3,17,19,02,06,,,,,,,,,10.8,4.0,10.0*34
$BDGSA,A,3,13,12,08,,,,,,,,,,10.8,4.0,10.0*26
$GNRMC,021130.000,A,2307.3262,N,11318.8539,E,11.23,111.07,170919,,,A*4F
!AIVDM,2,1,0,A,56:ECH`00001@E=B221`QD`T4pLPtpL<QD4r220t0`g1>uflD5RhBF2CTj0C,0*36
!AIVDM,2,2,0,A,@E3mH888880,2*0F
$GNGGA,021131.000,2307.3244,N,11318.8552,E,1,07,4.0,-70.4,M,0.0,M,,*68
$GNRMC,021131.000,A,2307.3244,N,11318.8552,E,10.94,138.68,170919,,,A*48
!AIVDM,1,1,,B,403sl3Av>HR;O`6OJn=>ONi02D9h,0*18
!AIVDM,1,1,,A,16:fs@@P0086SQ0=>N0P00I01P00,0*57
$AISUC,SetSuccess!
!AIVDM,1,1,,B,C68rO000Pj1cHS3Cd5QQCwv1P0BDBch0L?1U0@2N1j1h0000000P,0*22
$GNGGA,021132.000,2307.3205,N,11318.8583,E,1,07,4.0,-59.1,M,0.0,M,,*6C
$GPGSA,A,3,17,19,02,06,,,,,,,,,10.8,4.0,10.0*34
$BDGSA,A,3,13,12,08,,,,,,,,,,10.8,4.0,10.0*26
$GNRMC,021132.000,A,2307.3205,N,11318.8583,E,13.46,122.40,170919,,,A*4F
!AIVDM,1,1,,A,H6:`0;A`PtpLPDpL`UAD4p00000,2*5E
$GNGGA,021133.000,2307.3211,N,11318.8636,E,1,07,4.0,-61.6,M,0.0,M,,*69
$GPGSV,3,1,09,02,33,293,29,05,22,217,28,06,50,351,37,09,27,099,38*7F
$GPGSV,3,2,09,12,20,317,20,17,58,069,39,19,61,034,39,23,14,065,27*79
$GPGSV,3,3,09,28,31,170,30*4D
$BDGSV,3,1,09,01,,,38,02,,,33,03,,,27,06,,,25*6C
$BDGSV,3,2,09,07,,,34,08,49,000,28,10,,,26,12,48,349,31*69
$BDGSV,3,3,09,13,48,320,30*5D
$GNRMC,021133.000,A,2307.3211,N,11318.8636,E,14.26,102.90,170919,,,A*48
$GNGGA,021134.000,2307.3202,N,11318.8685,E,1,07,4.0,-63.2,M,0.0,M,,*62
$GPGSA,A,3,17,19,02,06,,,,,,,,,10.8,4.0,10.0*34
$BDGSA,A,3,13,12,08,,,,,,,,,,10.8,4.0,10.0*26
$GNRMC,021134.000,A,2307.3202,N,11318.8685,E,14.30,116.71,170919,,,A*48
!AIVDM,1,1,,A,16:V4R@P0086Qtf=>MH00?w408IJ,0*07
$GNGGA,021135.000,2307.3191,N,11318.8725,E,1,07,4.0,-60.5,M,0.0,M,,*65
$GNRMC,021135.000,A,2307.3191,N,11318.8725,E,15.54,107.74,170919,,,A*4D
$GNGGA,021136.000,2307.3190,N,11318.8789,E,1,07,4.0,-68.1,M,0.0,M,,*6D
$GPGSA,A,3,17,19,02,06,,,,,,,,,10.8,4.0,10.0*34
$BDGSA,A,3,13,12,08,,,,,,,,,,10.8,4.0,10.0*26
$GNRMC,021136.000,A,2307.3190,N,11318.8789,E,16.48,104.04,170919,,,A*43
!AIVDM,1,1,,B,16:b`c@P0m86psP=;`blEgwp1P06,0*43
!AIVDM,1,1,,A,B6:fnhP00R1h2tSCUPBN9vj3QP06,0*1D
!AIVDM,1,1,,B,B6:fnhP00R1h2tSCUPBN9vj3QP06,0*1E
!AIVDM,1,1,,B,16:ECHPP00`6h0h=>KUN4?w:20T1,0*42
$GNGGA,021137.000,2307.3198,N,11318.8861,E,1,07,4.0,-80.0,M,0.0,M,,*6A
$GNRMC,021137.000,A,2307.3198,N,11318.8861,E,17.61,105.20,170919,,,A*4E
!AIVDM,1,1,,B,16:V4R0P0086QtL=>MfP0?w:04@d,0*35
$GNGGA,021138.000,2307.3189,N,11318.8923,E,1,07,4.0,-86.7,M,0.0,M,,*63
$GPGSA,A,3,17,19,02,06,,,,,,,,,10.8,4.0,10.0*34
$BDGSA,A,3,13,12,08,,,,,,,,,,10.8,4.0,10.0*26
$GPGSV,3,1,10,02,33,293,39,04,,,26,05,22,217,32,06,50,351,33*4E
$GPGSV,3,2,10,09,27,099,36,12,20,317,21,17,58,069,34,19,61,034,33*7C
$GPGSV,3,3,10,23,14,065,27,28,31,170,34*73
$BDGSV,3,1,09,01,,,38,02,,,28,03,,,33,06,,,23*65
$BDGSV,3,2,09,07,,,36,08,49,000,29,10,,,36,12,48,349,29*62
$BDGSV,3,3,09,13,48,320,35*58
$GNRMC,021138.000,A,2307.3189,N,11318.8923,E,17.54,104.76,170919,,,A*42
!AIVDM,1,1,,A,C6:lEF00021h723CV0Td7wk2jb;08c06@:L?0@bOegWjS3<4R4P7,0*3B
$GNGGA,021139.000,2307.3172,N,11318.8966,E,1,07,4.0,-82.1,M,0.0,M,,*65
$GNRMC,021139.000,A,2307.3172,N,11318.8966,E,20.90,87.32,170919,,,A*70
!AIVDM,1,1,,A,B6:lH7h0021WihSC5@2KswkSQP06,0*61
$GNGGA,021140.000,2307.3191,N,11318.9042,E,1,07,4.0,-92.2,M,0.0,M,,*6A
$GPGSA,A,3,17,19,02,06,,,,,,,,,10.8,4.0,10.0*34
$BDGSA,A,3,13,12,08,,,,,,,,,,10.8,4.0,10.0*26
$GNRMC,021140.000,A,2307.3191,N,11318.9042,E,21.26,79.67,170919,,,A*70
!AIVDM,1,1,,A,B6:fpTh0;:1erk3Bsm>wCwl6SP06,0*73
!AIVDM,1,1,,A,403sl31v>HR;`87B4p==o;i008Gw,0*39
!AIVDM,1,1,,B,16:EH20P00`6J2h=;tav4?w@28H5,0*2F
!AIVDM,1,1,,B,3815C4E000`7P7J==>WRPqaD0DrJ,0*21
$GNGGA,021141.000,2307.3188,N,11318.9095,E,1,07,4.0,-93.5,M,0.0,M,,*6F
$GNRMC,021141.000,A,2307.3188,N,11318.9095,E,19.22,89.09,170919,,,A*7B
!AIVDM,1,1,,B,B6:fpTh0;:1erk3Bsm>wCwl6SP06,0*70
!AIVDM,1,1,,A,403suviv>HR;``89gj=9UgQ02@HH,0*48
!AIVDM,1,1,,A,16:RCOP00087EM6==dld4poD04@d,0*37
!AIVDM,1,1,,A,403sl3Av>HR;a`6OJn=>ONi024@d,0*30
!AIVDM,1,1,,A,168ulSPP0186nbv=<1sVI?wD04@d,0*56
!AIVDM,1,1,,A,403sl3Qv>HR;a`6N3p=<G>i028Hj,0*36
!AIVDM,1,1,,A,16:DQsPP00`6FDB=>7gmnOwB20Sf,0*76
$GNGGA,021142.000,2307.3186,N,11318.9131,E,1,07,4.0,-93.9,M,0.0,M,,*61
$GPGSA,A,3,17,19,02,06,,,,,,,,,10.8,4.0,10.0*34
$BDGSA,A,3,13,12,08,,,,,,,,,,10.8,4.0,10.0*26
$GNRMC,021142.000,A,2307.3186,N,11318.9131,E,12.20,87.02,170919,,,A*75
$GNGGA,021143.000,2307.3198,N,11318.9157,E,1,07,4.0,-99.7,M,0.0,M,,*6B
$GPGSV,3,1,11,02,33,293,24,04,,,24,05,22,217,28,06,50,351,39*40
$GPGSV,3,2,11,09,27,099,35,12,20,316,21,15,,,24,17,58,069,29*49
$GPGSV,3,3,11,19,61,034,31,23,14,065,21,28,31,170,24*4F
$BDGSV,3,1,09,01,,,35,02,,,32,03,,,33,06,,,21*61
$BDGSV,3,2,09,07,,,18,08,49,000,27,10,,,41,12,48,349,27*6E
$BDGSV,3,3,09,13,48,320,26*5A
$GNRMC,021143.000,A,2307.3198,N,11318.9157,E,10.92,83.77,170919,,,A*76
!AIVDM,1,1,,A,403sl3iv>HR;c`5nhV=Fw8i02<3l,0*67
$GNGGA,021144.000,2307.3188,N,11318.9179,E,1,07,4.0,-95.9,M,0.0,M,,*63
$GPGSA,A,3,17,19,02,06,,,,,,,,,10.8,4.0,10.0*34
$BDGSA,A,3,13,12,08,,,,,,,,,,10.8,4.0,10.0*26
$GNRMC,021144.000,A,2307.3188,N,11318.9179,E,13.17,90.91,170919,,,A*78
!AIVDM,1,1,,B,16:V4R@P0086Qtl=>MH@0?wH0D0o,0*22
!AIVDM,1,1,,B,B6:fnMh00J1f<G3BwbrB9lv021Mk,0*42
!AIVDM,1,1,,A,16:V4QhP0086Qln=>N800?wH04@d,0*18
$GNGGA,021145.000,2307.3194,N,11318.9212,E,1,07,4.0,-94.3,M,0.0,M,,*6A
$GNRMC,021145.000,A,2307.3194,N,11318.9212,E,11.33,87.73,170919,,,A*74
$GNGGA,021146.000,2307.3195,N,11318.9232,E,1,07,4.0,-91.0,M,0.0,M,,*6C
$GPGSA,A,3,17,19,02,06,,,,,,,,,10.8,4.0,10.0*34
$BDGSA,A,3,13,12,08,,,,,,,,,,10.8,4.0,10.0*26
$GNRMC,021146.000,A,2307.3195,N,11318.9232,E,9.44,83.98,170919,,,A*4C
$GNGGA,021147.000,2307.3184,N,11318.9250,E,1,07,4.0,-88.1,M,0.0,M,,*60
$GNRMC,021147.000,A,2307.3184,N,11318.9250,E,8.88,90.42,170919,,,A*4D
!AIVDM,1,1,,A,16:ECHPP02`6h0h=>KV>4?wP24@d,0*1F
$GNGGA,021148.000,2307.3179,N,11318.9256,E,1,07,4.0,-81.4,M,0.0,M,,*67
$GPGSA,A,3,17,19,02,06,,,,,,,,,10.8,4.0,10.0*34
$BDGSA,A,3,13,12,08,,,,,,,,,,10.8,4.0,10.0*26
$GPGSV,3,1,11,02,33,293,33,04,,,27,05,22,218,30,06,50,351,40*4D
$GPGSV,3,2,11,09,27,099,39,12,21,316,27,15,,,24,17,58,070,33*41
$GPGSV,3,3,11,19,61,034,43,23,14,065,28,28,31,170,29*4E
$BDGSV,2,1,08,02,,,40,03,,,35,06,,,23,07,,,22*60
$BDGSV,2,2,08,08,49,000,31,10,,,31,12,48,350,30,13,48,320,35*57
$GNRMC,021148.000,A,2307.3179,N,11318.9256,E,6.91,88.08,170919,,,A*47
$GNGGA,021149.000,2307.3177,N,11318.9259,E,1,07,4.0,-76.4,M,0.0,M,,*6F
$GNRMC,021149.000,A,2307.3177,N,11318.9259,E,4.79,89.25,170919,,,A*4D
$GNGGA,021150.000,2307.3183,N,11318.9278,E,1,07,4.0,-88.5,M,0.0,M,,*6F
$GPGSA,A,3,17,19,02,06,,,,,,,,,10.8,4.0,10.0*34
$BDGSA,A,3,13,12,08,,,,,,,,,,10.8,4.0,10.0*26
$GNRMC,021150.000,A,2307.3183,N,11318.9278,E,4.68,85.29,170919,,,A*4D
!AIVDM,1,1,,B,403su21v>HR;i`60eV=8tAi020S:,0*40
!AIVDM,1,1,,B,403su2Av>HR;j`4Jg0=;Cji02<<W,0*3E
!AIVDM,2,1,1,A,53:Csv02@No;D8AG>21HDqE>0PE8U@4LF222221?I8R>H6GU0@@k`64hH888,0*2D
!AIVDM,2,2,1,A,88888888880,2*25
$GNGGA,021151.000,2307.3179,N,11318.9283,E,1,07,4.0,-84.5,M,0.0,M,,*63
$GNRMC,021151.000,A,2307.3179,N,11318.9283,E,3.53,86.81,170919,,,A*43
!AIVDM,1,1,,B,403sl3Av>HR;k`6OJn=>ONi020S:,0*70
!AIVDM,1,1,,B,403sl3Qv>HR;k`6N3p=<G>i020S:,0*7C
$GNGGA,021152.000,2307.3197,N,11318.9267,E,1,07,4.0,-77.7,M,0.0,M,,*64
$GPGSA,A,3,17,19,02,06,,,,,,,,,10.8,4.0,10.0*34
$BDGSA,A,3,13,12,08,,,,,,,,,,10.8,4.0,10.0*26
$GNRMC,021152.000,A,2307.3197,N,11318.9267,E,2.36,92.94,170919,,,A*49
!AIVDM,1,1,,A,16:Qcs0001`7cI<=;2H0<JU`08Nm,0*3E
$GNGGA,021153.000,2307.3205,N,11318.9241,E,1,07,4.0,-68.3,M,0.0,M,,*63
$GPGSV,3,1,11,02,33,294,28,04,,,27,05,22,218,33,06,50,351,41*42
$GPGSV,3,2,11,09,27,099,40,12,21,316,26,15,,,23,17,58,070,38*42
$GPGSV,3,3,11,19,61,035,41,23,14,064,27,28,31,170,44*48
$BDGSV,2,1,08,02,,,40,03,,,35,06,,,23,07,,,22*60
$BDGSV,2,2,08,08,49,000,27,10,,,32,12,48,350,32,13,48,320,37*53
$GNRMC,021153.000,A,2307.3205,N,11318.9241,E,1.58,51.93,170919,,,A*47
!AIVDM,1,1,,A,16:fs@@P0086SQ0=>N1000Ib1P00,0*64
$GNGGA,021154.000,2307.3199,N,11318.9235,E,1,07,4.0,-62.7,M,0.0,M,,*6F
$GPGSA,A,3,17,19,02,06,,,,,,,,,10.8,4.0,10.0*34
$BDGSA,A,3,13,12,08,,,,,,,,,,10.8,4.0,10.0*26
$GNRMC,021154.000,A,2307.3199,N,11318.9235,E,0.75,83.95,170919,,,A*42
!AIVDM,1,1,,A,16:V4R@P0086Qtj=>MHh0?wd00Rb,0*38
$GNGGA,021155.000,2307.3221,N,11318.9212,E,1,07,4.0,-61.3,M,0.0,M,,*6C
$GNRMC,021155.000,A,2307.3221,N,11318.9212,E,0.08,83.95,170919,,,A*4C
!AIVDO,1,1,,,B68rO0000:1cMf3Cd4DlOwsVSP06,0*47
!AIVDO,1,1,,,B68rO0000:1cMf3Cd4DlOwsVSP06,0*47
!AIVDM,1,1,,B,B68rO0000:1cMf3Cd4DlOwsVSP06,0*07
$GNGGA,021156.000,2307.3227,N,11318.9221,E,1,07,4.0,-66.9,M,0.0,M,,*64
$GPGSA,A,3,17,19,02,06,,,,,,,,,10.8,4.0,10.0*34
$BDGSA,A,3,13,12,08,,,,,,,,,,10.8,4.0,10.0*26
$GNRMC,021156.000,A,2307.3227,N,11318.9221,E,0.31,85.34,170919,,,A*4E
$GNGGA,021157.000,2307.3221,N,11318.9215,E,1,07,4.0,-60.1,M,0.0,M,,*6A
$GNRMC,021157.000,A,2307.3221,N,11318.9215,E,0.70,258.52,170919,,,A*79
!AIVDM,1,1,,A,369q>`5001`7:IT==PGRvoqp0P00,0*7C
!AIVDM,1,1,,A,B6:fnMh00J1f<F3BwbnF5pN021Mk,0*70
!AIVDM,1,1,,A,177nT00P00`78fd==;5@0?wj20So,0*72
!AIVDM,1,1,,B,B6:fqu00021g2D3BphNFQpLSQP06,0*73
!AIVDM,1,1,,B,16:ECHPP03`6h10=>KVf4?wl2@RA,0*63
$GNGGA,021158.000,2307.3227,N,11318.9224,E,1,07,4.0,-67.1,M,0.0,M,,*66
$GPGSA,A,3,17,19,02,06,,,,,,,,,10.8,4.0,10.0*34
$BDGSA,A,3,13,12,08,,,,,,,,,,10.8,4.0,10.0*26
$GPGSV,3,1,11,02,33,294,30,04,,,27,05,22,218,33,06,50,351,43*49
$GPGSV,3,2,11,09,27,099,39,12,21,316,27,15,,,30,17,58,070,37*40
$GPGSV,3,3,11,19,61,035,42,23,14,064,20,28,31,170,44*4C
$BDGSV,2,1,08,02,,,40,03,,,37,06,,,24,07,,,23*64
$BDGSV,2,2,08,08,49,000,27,10,,,37,12,48,350,33,13,48,320,38*58
$GNRMC,021158.000,A,2307.3227,N,11318.9224,E,0.32,329.15,170919,,,A*70
!AIVDM,1,1,,A,86:V4R@0J0<P,0*44
$GNGGA,021159.000,2307.3220,N,11318.9217,E,1,07,4.0,-60.9,M,0.0,M,,*6F
$GNRMC,021159.000,A,2307.3220,N,11318.9217,E,0.94,297.68,170919,,,A*74
$GNGGA,021200.000,2307.3214,N,11318.9218,E,1,07,4.0,-53.3,M,0.0,M,,*62
$GPGSA,A,3,17,19,02,06,,,,,,,,,10.8,4.0,10.0*34
$BDGSA,A,3,13,12,08,,,,,,,,,,10.8,4.0,10.0*26
$GNRMC,021200.000,A,2307.3214,N,11318.9218,E,0.39,309.05,170919,,,A*79
!AIVDM,1,1,,A,403su21v>HR;s`60eV=8tAi020S:,0*59
!AIVDM,1,1,,A,H6:fpThMDTL4pLIE<PDpO;SP000,2*40
!AIVDM,1,1,,A,403sl31v>HR<0`7B4v==o<102<9Q,0*31
$GNGGA,021201.000,2307.3204,N,11318.9200,E,1,09,1.4,-40.4,M,0.0,M,,*61
$GNRMC,021201.000,A,2307.3204,N,11318.9200,E,0.54,144.27,170919,,,A*70
!AIVDM,1,1,,B,16:fs@@P0086SQ0=>N0000H41P00,0*31
!AIVDM,1,1,,A,403sl3Qv>HR<1`6N3p=<G>i0281F,0*34
$GNGGA,021202.000,2307.3201,N,11318.9197,E,1,09,1.4,-40.3,M,0.0,M,,*6D
$GPGSA,A,3,17,19,02,06,28,09,,,,,,,3.5,1.4,3.2*39
$BDGSA,A,3,13,12,08,,,,,,,,,,3.5,1.4,3.2*28
$GNRMC,021202.000,A,2307.3201,N,11318.9197,E,0.19,144.27,170919,,,A*72
!AIVDM,1,1,,B,D03sl30C@Nfp00N000,4*5F
!AIVDM,1,1,,A,D03sl3h3`Nfp00N000,4*54
!AIVDM,1,1,,A,16:69P0000`7>00==k8N48p42LbW,0*33
!AIVDM,1,1,,A,168ulSPP0186nbv=<1q6LOv80D6b,0*3C
!AIVDM,1,1,,B,16:V4R@P00;wQdp=>MI@0?v6087:,0*3C
$GNGGA,021203.000,2307.3200,N,11318.9196,E,1,09,1.4,-40.1,M,0.0,M,,*6E
$GPGSV,3,1,11,02,33,294,21,04,,,27,05,22,218,34,06,50,351,42*4F
$GPGSV,3,2,11,09,27,098,39,12,21,316,27,15,,,30,17,58,070,38*4E
$GPGSV,3,3,11,19,61,035,40,23,14,064,20,28,31,170,41*4B
$BDGSV,2,1,08,02,,,40,03,,,37,06,,,26,07,,,24*61
$BDGSV,2,2,08,08,49,000,28,10,,,37,12,48,350,32,13,48,320,38*56
$GNRMC,021203.000,A,2307.3200,N,11318.9196,E,0.05,144.27,170919,,,A*7E
!AIVDM,1,1,,B,16:Qcs0001`7cID=;2I@<JT604@h,0*64
$GNGGA,021204.000,2307.3199,N,11318.9195,E,1,09,1.4,-39.8,M,0.0,M,,*6E
$GPGSA,A,3,17,19,02,06,28,09,,,,,,,3.5,1.4,3.2*39
$BDGSA,A,3,13,12,08,,,,,,,,,,3.5,1.4,3.2*28
$GNRMC,021204.000,A,2307.3199,N,11318.9195,E,0.08,144.27,170919,,,A*74
!AIVDM,1,1,,B,B6:fnu00021k`l3CLJHsKwQSQP06,0*36
!AIVDM,1,1,,A,B6:fnu00021k`l3CLJHsKwQSQP06,0*35
!AIVDM,1,1,,B,D03sl3@@LNfp00N000,4*20
!AIVDM,1,1,,A,D03su3h0lNfp00N000,4*42
!AIVDM,1,1,,A,403su3iv>HR<485Ckb=2s<1004@h,0*3D
$GNGGA,021205.000,2307.3201,N,11318.9196,E,1,09,1.4,-39.9,M,0.0,M,,*6F
$GNRMC,021205.000,A,2307.3201,N,11318.9196,E,0.08,144.27,170919,,,A*74
!AIVDM,1,1,,B,16:b`c@P0m86q8v=;`94<wwp1P06,0*45
$GNGGA,021206.000,2307.3202,N,11318.9197,E,1,09,1.4,-40.2,M,0.0,M,,*6B
$GPGSA,A,3,17,19,02,06,28,09,,,,,,,3.5,1.4,3.2*39
$BDGSA,A,3,13,12,08,,,,,,,,,,3.5,1.4,3.2*28
$GNRMC,021206.000,A,2307.3202,N,11318.9197,E,0.07,144.27,170919,,,A*7A
!AIVDM,1,1,,A,16:V4PhP0086r?4=>>Hh0?v<08Hs,0*0D
!AIVDM,1,1,,A,16:V4R0P0086Qt`=>Mg@0?v>0<0G,0*55
$GNGGA,021207.000,2307.3202,N,11318.9197,E,1,09,1.4,-40.2,M,0.0,M,,*6A
$GNRMC,021207.000,A,2307.3202,N,11318.9197,E,0.15,144.27,170919,,,A*78
!AIVDM,1,1,,B,177nT00P00`78f`==;500?v>24@h,0*40
!AIVDM,1,1,,A,15Sh?v0002`7d66=:mqRkrT>0<<N,0*25
$GNGGA,021208.000,2307.3202,N,11318.9197,E,1,09,1.4,-40.2,M,0.0,M,,*65
$GPGSA,A,3,17,19,02,06,28,09,,,,,,,3.5,1.4,3.2*39
$BDGSA,A,3,13,12,08,,,,,,,,,,3.5,1.4,3.2*28
$GPGSV,3,1,11,02,33,294,32,04,,,27,05,22,218,33,06,50,351,42*4A
$GPGSV,3,2,11,09,27,098,42,12,21,316,27,15,,,29,17,58,070,35*47
$GPGSV,3,3,11,19,61,035,42,23,14,064,21,28,31,170,44*4D
$BDGSV,2,1,08,02,,,40,03,,,37,06,,,27,07,,,26*62
$BDGSV,2,2,08,08,49,000,31,10,,,37,12,48,350,30,13,48,320,39*5D
$GNRMC,021208.000,A,2307.3202,N,11318.9197,E,0.68,162.51,170919,,,A*78
$GNGGA,021209.000,2307.3202,N,11318.9197,E,1,09,1.4,-40.2,M,0.0,M,,*64
$GNRMC,021209.000,A,2307.3202,N,11318.9197,E,0.80,168.60,170919,,,A*77
!AIVDM,1,1,,A,D03su2AoPNfp00N000,4*09
$GNGGA,021210.000,2307.3202,N,11318.9197,E,1,09,1.4,-40.2,M,0.0,M,,*6C
$GPGSA,A,3,17,19,02,06,28,09,,,,,,,3.5,1.4,3.2*39
$BDGSA,A,3,13,12,08,,,,,,,,,,3.5,1.4,3.2*28
$GNRMC,021210.000,A,2307.3202,N,11318.9197,E,0.63,163.42,170919,,,A*79
!AIVDM,1,1,,B,403su21v>HR<9`60eV=8tAi02H6:,0*0A
!AIVDM,1,1,,B,403su2Av>HR<:`4Jg0=;Cji024@h,0*22
!AIVDM,1,1,,B,403sl31v>HR<:87B52==o<1004@h,0*6F
$GNGGA,021211.000,2307.3202,N,11318.9197,E,1,09,1.4,-40.2,M,0.0,M,,*6D
$GNRMC,021211.000,A,2307.3202,N,11318.9197,E,0.12,163.42,170919,,,A*7E
!AIVDM,1,1,,B,403sl3Av>HR<;`6OJn=>ONi024@h,0*62
!AIVDM,1,1,,B,403sl3Qv>HR<;`6N3p=<G>i02D5E,0*46
$GNGGA,021212.000,2307.3202,N,11318.9197,E,1,10,1.1,-40.2,M,0.0,M,,*63
$GPGSA,A,3,17,19,02,06,28,09,,,,,,,3.0,1.1,2.8*32
$BDGSA,A,3,13,12,08,02,,,,,,,,,3.0,1.1,2.8*21
$GNRMC,021212.000,A,2307.3202,N,11318.9197,E,0.02,163.42,170919,,,A*7C
!AIVDM,1,1,,A,16:Qcs0000`7cIH=;2Hh<JTH0>Dm,0*36
!AIVDM,1,1,,B,C6:beG@00B1jVU3COm8iOwv0V@bM0jC1QQf000000000S0`dR20P,0*2D
!AIVDM,1,1,,B,16:69P0000`7>00==k8N48pH2<b`,0*0B
!AIVDM,1,1,,A,D03sl3Qk8Nfp00N000,4*6D
!AIVDM,1,1,,A,B6:kVC@0ER1dP@SC2:=6owVSQP06,0*3D
$GNGGA,021213.000,2307.3202,N,11318.9197,E,1,10,1.1,-40.2,M,0.0,M,,*62
$GPGSV,3,1,11,02,33,294,30,04,,,27,05,22,218,31,06,50,351,40*48
$GPGSV,3,2,11,09,27,098,42,12,21,316,30,15,,,29,17,58,070,40*43
$GPGSV,3,3,11,19,61,035,41,23,14,064,26,28,31,170,43*4E
$BDGSV,2,1,08,02,48,236,40,03,,,37,06,,,26,07,,,26*58
$BDGSV,2,2,08,08,49,000,31,10,,,35,12,48,350,33,13,48,320,36*53
$GNRMC,021213.000,A,2307.3202,N,11318.9197,E,0.04,163.42,170919,,,A*7B
$GNGGA,021214.000,2307.3202,N,11318.9197,E,1,10,1.1,-40.2,M,0.0,M,,*65
$GPGSA,A,3,17,19,02,06,28,09,,,,,,,3.0,1.1,2.8*32
$BDGSA,A,3,13,12,08,02,,,,,,,,,3.0,1.1,2.8*21
$GNRMC,021214.000,A,2307.3202,N,11318.9197,E,0.23,118.74,170919,,,A*70
!AIVDM,1,1,,A,16:V4R@P0086Qtr=>MI@0?vN0@>2,0*6E
$GNGGA,021215.000,2307.3207,N,11318.9192,E,1,12,1.0,-39.9,M,0.0,M,,*62
$GNRMC,021215.000,A,2307.3207,N,11318.9192,E,0.89,114.12,170919,,,A*7D
$GNGGA,021216.000,2307.3232,N,11318.9165,E,1,12,1.0,-38.0,M,0.0,M,,*67
$GPGSA,A,3,17,19,02,06,28,09,,,,,,,2.6,1.0,2.4*38
$BDGSA,A,3,13,12,08,10,06,02,,,,,,,2.6,1.0,2.4*2C
$GNRMC,021216.000,A,2307.3232,N,11318.9165,E,1.79,118.29,170919,,,A*7A
!AIVDM,1,1,,A,D03su1QV8Nfp00N000,4*4B
!AIVDM,1,1,,B,16:V4PhP0086r>r=>>H00?vP0D05,0*3F
$AISUC,SetSuccess!
$GNGGA,021217.000,2307.3236,N,11318.9131,E,1,12,1.0,-32.8,M,0.0,M,,*61
$GNRMC,021217.000,A,2307.3236,N,11318.9131,E,3.45,114.69,170919,,,A*7B
!AIVDM,1,1,,B,16:V4R0P0086QtT=>Mg00?vR04@h,0*29
!AIVDM,1,1,,B,16:ECHPP02`6h1P=>KWv4?vR24@h,0*63
!AIVDM,1,1,,A,D03sl31TPNfp00N000,4*5A
$GNGGA,021218.000,2307.3227,N,11318.9145,E,1,12,1.0,-26.0,M,0.0,M,,*60
$GPGSA,A,3,17,19,02,06,28,09,,,,,,,2.6,1.0,2.4*38
$BDGSA,A,3,13,12,08,10,06,02,,,,,,,2.6,1.0,2.4*2C
$GPGSV,3,1,11,02,33,294,31,04,,,27,05,22,218,32,06,50,351,42*48
$GPGSV,3,2,11,09,27,098,38,12,21,316,29,15,,,29,17,58,070,34*45
$GPGSV,3,3,11,19,61,035,41,23,14,064,24,28,31,170,43*4C
$BDGSV,2,1,08,02,48,236,40,03,,,37,06,26,161,24,07,,,25*6B
$BDGSV,2,2,08,08,49,000,28,10,53,219,39,12,48,350,32,13,48,320,38*64
$GNRMC,021218.000,A,2307.3227,N,11318.9145,E,4.84,128.83,170919,,,A*76
!AIVDM,2,1,0,B,56:V4R4000000000000QD4<PDpLlTpM`QD00000t10O835m:a40000000000,0*58
!AIVDM,2,2,0,B,00000000008,2*2F
$GNGGA,021219.000,2307.3214,N,11318.9154,E,1,12,1.0,-17.7,M,0.0,M,,*64
$GNRMC,021219.000,A,2307.3214,N,11318.9154,E,5.89,134.18,170919,,,A*74
!AIVDM,1,1,,B,D03su3j0tNfp00N000,4*5B
$GNGGA,021220.000,2307.3196,N,11318.9167,E,1,12,1.0,-7.2,M,0.0,M,,*53
$GPGSA,A,3,17,19,02,06,28,09,,,,,,,2.6,1.0,2.4*38
$BDGSA,A,3,13,12,08,10,06,02,,,,,,,2.6,1.0,2.4*2C
$GNRMC,021220.000,A,2307.3196,N,11318.9167,E,7.10,137.46,170919,,,A*7D
!AIVDM,1,1,,A,403su21v>HR<C`60eV=8tAi028<1,0*02
!AIVDM,1,1,,B,16:fs@@P0086SQ0=>Mv@00H`1P00,0*50
!AIVDM,2,1,2,A,56:V4R4000000000000QD4<PDpLlTpM`QD00000t10O835m:a40000000000,0*59
!AIVDM,2,2,2,A,00000000008,2*2E
$GNGGA,021221.000,2307.3181,N,11318.9193,E,1,12,1.0,6.2,M,0.0,M,,*73
$GNRMC,021221.000,A,2307.3181,N,11318.9193,E,8.94,138.90,170919,,,A*76
!AIVDM,1,1,,A,16:69P0000`7>00==k8v48pb20S8,0*7F
!AIVDM,1,1,,A,403sl3Av>HR<E`6OJn=>ONi024@h,0*1F
!AIVDM,1,1,,A,16:DQsPP00`6FDD=>7f52Ovb24@h,0*4D
!AIVDM,1,1,,A,403sl3Qv>HR<E`6N3p=<G>i024@h,0*13
$GNGGA,021222.000,2307.3162,N,11318.9209,E,1,12,1.0,18.4,M,0.0,M,,*44
$GPGSA,A,3,17,19,02,06,28,09,,,,,,,2.6,1.0,2.4*38
$BDGSA,A,3,13,12,08,10,06,02,,,,,,,2.6,1.0,2.4*2C
$GNRMC,021222.000,A,2307.3162,N,11318.9209,E,7.91,142.67,170919,,,A*77
!AIVDM,1,1,,A,16:4obgP00`6ONh=<@hf4?vd24@h,0*52
$GNGGA,021223.000,2307.3143,N,11318.9224,E,1,12,1.0,32.4,M,0.0,M,,*41
$GPGSV,3,1,11,02,33,294,34,04,,,26,05,22,218,30,06,50,351,38*43
$GPGSV,3,2,11,09,27,098,39,12,21,316,28,15,,,27,17,58,070,38*47
$GPGSV,3,3,11,19,61,035,37,23,14,064,27,28,31,170,41*4C
$BDGSV,2,1,08,02,48,236,40,03,,,37,06,26,161,20,07,,,35*6E
$BDGSV,2,2,08,08,49,000,24,10,53,219,38,12,48,350,32,13,48,320,34*65
$GNRMC,021223.000,A,2307.3143,N,11318.9224,E,7.82,148.84,170919,,,A*7F
!AIVDM,1,1,,B,16:Qcs0000`7cIJ=;2Ih<JTj0H>:,0*4F
!AIVDM,1,1,,A,403sl3iv>HR<G`5nhV=Fw8i024@h,0*3B
$GNGGA,021224.000,2307.3125,N,11318.9251,E,1,12,1.0,44.3,M,0.0,M,,*42
$GPGSA,A,3,17,19,02,06,28,09,,,,,,,2.6,1.0,2.4*38
$BDGSA,A,3,13,12,08,10,06,02,,,,,,,2.6,1.0,2.4*2C
$GNRMC,021224.000,A,2307.3125,N,11318.9251,E,9.21,142.47,170919,,,A*78
$GNGGA,021225.000,2307.3126,N,11318.9290,E,1,12,1.0,51.0,M,0.0,M,,*4A
$GNRMC,021225.000,A,2307.3126,N,11318.9290,E,10.10,124.14,170919,,,A*4B
$GNGGA,021226.000,2307.3123,N,11318.9335,E,1,12,1.0,54.6,M,0.0,M,,*41
$GPGSA,A,3,17,19,02,06,28,09,,,,,,,2.6,1.0,2.4*38
$BDGSA,A,3,13,12,08,10,06,02,,,,,,,2.6,1.0,2.4*2C
$GNRMC,021226.000,A,2307.3123,N,11318.9335,E,11.70,102.40,170919,,,A*41
!AIVDM,1,1,,A,16:V4PhP0086r>h=>>GP0?vl00Rt,0*22
!AIVDM,1,1,,A,16:ECHPP00`6h1P=>Ka>4?vl2@?t,0*35
$GNGGA,021227.000,2307.3127,N,11318.9389,E,1,12,1.0,52.0,M,0.0,M,,*43
$GNRMC,021227.000,A,2307.3127,N,11318.9389,E,14.61,93.30,170919,,,A*78
!AIVDM,1,1,,B,D03sl3QW4Nfp00N000,4*5E
$GNGGA,021228.000,2307.3126,N,11318.9453,E,1,12,1.0,44.3,M,0.0,M,,*49
$GPGSA,A,3,17,19,02,06,28,09,,,,,,,2.6,1.0,2.4*38
$BDGSA,A,3,13,12,08,10,06,02,,,,,,,2.6,1.0,2.4*2C
$GPGSV,3,1,10,02,33,294,39,05,22,218,30,06,50,351,42,09,27,098,34*78
$GPGSV,3,2,10,12,21,316,27,15,,,24,17,58,070,37,19,61,035,41*4E
$GPGSV,3,3,10,23,14,064,26,28,31,170,27*71
$BDGSV,2,1,08,02,48,236,35,03,,,37,06,26,161,20,07,,,37*6E
$BDGSV,2,2,08,08,49,000,24,10,53,219,42,12,48,350,31,13,48,320,35*6A
$GNRMC,021228.000,A,2307.3126,N,11318.9453,E,17.56,95.96,170919,,,A*7B
$GNGGA,021229.000,2307.3123,N,11318.9516,E,1,12,1.0,41.0,M,0.0,M,,*4B
$GNRMC,021229.000,A,2307.3123,N,11318.9516,E,18.82,95.81,170919,,,A*7F
$GNGGA,021230.000,2307.3109,N,11318.9591,E,1,12,1.0,41.4,M,0.0,M,,*40
$GPGSA,A,3,17,19,02,06,28,09,,,,,,,2.6,1.0,2.4*38
$BDGSA,A,3,13,12,08,10,06,02,,,,,,,2.6,1.0,2.4*2C
$GNRMC,021230.000,A,2307.3109,N,11318.9591,E,19.61,95.12,170919,,,A*76
$GNGGA,021231.000,2307.3106,N,11318.9660,E,1,12,1.0,42.8,M,0.0,M,,*4C
$GNRMC,021231.000,A,2307.3106,N,11318.9660,E,20.46,93.81,170919,,,A*76
!AIVDM,1,1,,B,403sl3Av>HR<O`6OJn=>ONi02@Bh,0*60
$GNGGA,021232.000,2307.3104,N,11318.9737,E,1,12,1.0,44.4,M,0.0,M,,*44
$GPGSA,A,3,17,19,02,06,28,09,,,,,,,2.6,1.0,2.4*38
$BDGSA,A,3,13,12,08,10,06,02,,,,,,,2.6,1.0,2.4*2C
$GNRMC,021232.000,A,2307.3104,N,11318.9737,E,21.30,92.83,170919,,,A*77
$GNGGA,021233.000,2307.3101,N,11318.9813,E,1,12,1.0,45.6,M,0.0,M,,*4A
$GPGSV,3,1,10,02,33,294,39,05,22,218,44,06,50,351,30,09,27,098,37*7D
$GPGSV,3,2,10,12,21,316,31,15,,,26,17,58,070,35,19,61,035,41*49
$GPGSV,3,3,10,23,14,064,25,28,31,170,35*71
$BDGSV,2,1,08,02,48,236,38,03,,,35,06,26,161,16,07,,,13*62
$BDGSV,2,2,08,08,49,000,32,10,53,219,41,12,48,350,31,13,48,320,33*68
$GNRMC,021233.000,A,2307.3101,N,11318.9813,E,21.71,92.46,170919,,,A*76
$GNGGA,021234.000,2307.3095,N,11318.9888,E,1,12,1.0,46.6,M,0.0,M,,*40
$GPGSA,A,3,17,19,02,06,28,09,,,,,,,2.6,1.0,2.4*38
$BDGSA,A,3,13,12,08,10,06,02,,,,,,,2.6,1.0,2.4*2C
$GNRMC,021234.000,A,2307.3095,N,11318.9888,E,22.30,95.14,170919,,,A*79
$GNGGA,021235.000,2307.3090,N,11318.9961,E,1,12,1.0,46.2,M,0.0,M,,*46
$GNRMC,021235.000,A,2307.3090,N,11318.9961,E,23.00,95.96,170919,,,A*73
!AIVDM,1,1,,B,369FS=QP0187ADJ==bl7UqC40000,0*1B
$GNGGA,021236.000,2307.3089,N,11319.0061,E,1,11,1.0,42.1,M,0.0,M,,*48
$GPGSA,A,3,17,19,02,06,28,09,,,,,,,2.8,1.0,2.6*34
$BDGSA,A,3,13,12,08,10,02,,,,,,,,2.8,1.0,2.6*26
$GNRMC,021236.000,A,2307.3089,N,11319.0061,E,23.48,92.10,170919,,,A*7C
$GNGGA,021237.000,2307.3078,N,11319.0139,E,1,12,1.0,45.0,M,0.0,M,,*4E
$GNRMC,021237.000,A,2307.3078,N,11319.0139,E,23.22,97.45,170919,,,A*76
!AIVDM,1,1,,B,16:ECHPP02`6h1P=>Kaf4?w<2HFe,0*5D
!AIVDM,1,1,,B,B6:ioJP0:j1bAD3C3dnech;4SP00,0*6A
$GNGGA,021238.000,2307.3082,N,11319.0222,E,1,12,1.0,41.8,M,0.0,M,,*41
$GPGSA,A,3,17,19,02,06,28,09,,,,,,,2.6,1.0,2.4*38
$BDGSA,A,3,13,12,08,10,02,06,,,,,,,2.6,1.0,2.4*2C
$GPGSV,3,1,10,02,33,294,37,05,22,218,17,06,50,351,39,09,27,098,33*78
$GPGSV,3,2,10,12,21,316,32,15,,,24,17,58,070,25,19,61,035,43*4B
$GPGSV,3,3,10,23,14,064,25,28,31,170,28*7D
$BDGSV,2,1,08,02,48,236,41,03,,,31,06,26,161,29,07,,,35*60
$BDGSV,2,2,08,08,49,000,25,10,53,219,35,12,48,350,32,13,48,320,33*6E
$GNRMC,021238.000,A,2307.3082,N,11319.0222,E,24.55,92.20,170919,,,A*74
$GNGGA,021239.000,2307.3082,N,11319.0296,E,1,12,1.0,37.5,M,0.0,M,,*43
$GNRMC,021239.000,A,2307.3082,N,11319.0296,E,24.63,91.53,170919,,,A*78
$GNGGA,021240.000,2307.3082,N,11319.0371,E,1,12,1.0,34.2,M,0.0,M,,*41
$GPGSA,A,3,17,19,02,06,28,09,,,,,,,2.6,1.0,2.4*38
$BDGSA,A,3,13,12,08,10,02,06,,,,,,,2.6,1.0,2.4*2C
$GNRMC,021240.000,A,2307.3082,N,11319.0371,E,25.79,90.55,170919,,,A*73
$GNGGA,021241.000,2307.3075,N,11319.0444,E,1,12,1.0,30.5,M,0.0,M,,*4A
$GNRMC,021241.000,A,2307.3075,N,11319.0444,E,25.15,91.88,170919,,,A*70
$GNGGA,021242.000,2307.3072,N,11319.0521,E,1,12,1.0,26.4,M,0.0,M,,*4A
$GPGSA,A,3,17,19,02,06,28,09,,,,,,,2.6,1.0,2.4*38
$BDGSA,A,3,13,12,08,10,02,06,,,,,,,2.6,1.0,2.4*2C
$GNRMC,021242.000,A,2307.3072,N,11319.0521,E,25.51,91.83,170919,,,A*7D
$GNGGA,021243.000,2307.3057,N,11319.0594,E,1,12,1.0,25.5,M,0.0,M,,*40
$GPGSV,3,1,10,02,33,294,35,05,22,218,17,06,50,351,36,09,27,098,33*75
$GPGSV,3,2,10,12,21,316,20,15,,,19,17,58,070,20,19,61,035,42*42
$GPGSV,3,3,10,23,14,064,24,28,31,170,24*70
$BDGSV,2,1,08,02,48,236,09,03,,,23,06,26,161,19,07,,,30*69
$BDGSV,2,2,08,08,49,000,19,10,53,219,13,12,48,350,32,13,48,320,30*66
$GNRMC,021243.000,A,2307.3057,N,11319.0594,E,24.75,102.57,170919,,,A*40
$GNGGA,021244.000,2307.3025,N,11319.0674,E,1,11,1.0,28.5,M,0.0,M,,*41
$GPGSA,A,3,17,19,02,06,28,09,,,,,,,2.9,1.0,2.7*34
$BDGSA,A,3,13,12,08,02,06,,,,,,,,2.9,1.0,2.7*21
$GNRMC,021244.000,A,2307.3025,N,11319.0674,E,29.63,111.55,170919,,,A*45
$GNGGA,021245.000,2307.3001,N,11319.0750,E,1,08,1.4,27.7,M,0.0,M,,*40
$GNRMC,021245.000,A,2307.3001,N,11319.0750,E,26.34,113.30,170919,,,A*49
$GNGGA,021246.000,2307.3001,N,11319.0799,E,1,06,1.9,15.4,M,0.0,M,,*47
$GPGSA,A,3,17,19,02,28,,,,,,,,,4.4,1.9,3.9*36
$BDGSA,A,3,02,06,,,,,,,,,,,4.4,1.9,3.9*25
$GNRMC,021246.000,A,2307.3001,N,11319.0799,E,21.45,111.39,170919,,,A*45
$GNGGA,021247.000,2307.3011,N,11319.0862,E,1,04,1.9,7.4,M,0.0,M,,*7D
$GNRMC,021247.000,A,2307.3011,N,11319.0862,E,20.67,102.08,170919,,,A*4F
!AIVDO,1,1,,,B68rO000kb1cbW3Cco<wkwoVSP06,0*5D
!AIVDO,1,1,,,B68rO000kb1cbW3Cco<wkwoVSP06,0*5D
!AIVDM,1,1,,B,B68rO000kb1cbW3Cco<wkwoVSP06,0*1D
$GNGGA,021248.000,2307.2995,N,11319.0922,E,1,03,1.9,2.0,M,0.0,M,,*75
$GPGSA,A,3,17,02,28,,,,,,,,,,4.4,1.9,3.9*3E
$BDGSA,A,3,,,,,,,,,,,,,4.4,1.9,3.9*21
$GPGSV,3,1,09,02,33,294,15,05,22,218,13,06,50,351,03,09,27,098,03*7E
$GPGSV,3,2,09,12,21,316,03,17,58,070,11,19,61,035,03,23,14,064,10*77
$GPGSV,3,3,09,28,31,170,17*48
$BDGSV,2,1,07,02,48,236,,06,26,161,,07,,,03,08,49,000,06*56
$BDGSV,2,2,07,10,53,219,,12,48,350,07,13,48,320,05*56
$GNRMC,021248.000,A,2307.2995,N,11319.0922,E,20.82,102.31,170919,,,A*40
$GNGGA,021249.000,2307.2979,N,11319.0982,E,1,02,1.9,-3.9,M,0.0,M,,*58
$GNRMC,021249.000,A,2307.2979,N,11319.0982,E,20.76,102.66,170919,,,A*40
$GNGGA,021250.000,2307.2963,N,11319.1041,E,1,02,1.9,-9.9,M,0.0,M,,*56
$GPGSA,A,3,17,02,,,,,,,,,,,4.4,1.9,3.9*34
$BDGSA,A,3,,,,,,,,,,,,,4.4,1.9,3.9*21
$GNRMC,021250.000,A,2307.2963,N,11319.1041,E,20.63,103.08,170919,,,A*49
$GNGGA,021251.000,2307.2946,N,11319.1100,E,1,02,1.9,-16.2,M,0.0,M,,*61
$GNRMC,021251.000,A,2307.2946,N,11319.1100,E,20.45,103.56,170919,,,A*44
$GNGGA,021252.000,2307.2933,N,11319.1160,E,1,01,1.9,-22.7,M,0.0,M,,*67
$GPGSA,A,3,02,,,,,,,,,,,,4.4,1.9,3.9*32
$BDGSA,A,3,,,,,,,,,,,,,4.4,1.9,3.9*21
$GNRMC,021252.000,A,2307.2933,N,11319.1160,E,20.45,103.56,170919,,,A*43
$GNGGA,021253.000,,,,,0,00,1.9,,,,,,*47
$GPGSV,3,1,09,02,33,294,08,05,22,218,,06,50,351,03,09,27,098,03*70
$GPGSV,3,2,09,12,21,316,,17,58,071,03,19,61,036,03,23,14,064,03*77
$GPGSV,3,3,09,28,31,170,07*49
$BDGSV,2,1,07,02,48,236,,06,26,161,,07,,,03,08,49,000,*50
$BDGSV,2,2,07,10,53,219,,12,48,350,,13,48,320,05*51
$GNRMC,021253.000,V,,,,,,,170919,,,N*53
$GNGGA,021254.000,,,,,0,00,1.9,,,,,,*40
$GPGSA,A,1,,,,,,,,,,,,,4.4,1.9,3.9*32
$BDGSA,A,1,,,,,,,,,,,,,4.4,1.9,3.9*23
$GNRMC,021254.000,V,,,,,,,170919,,,N*54
$GNGGA,021255.000,,,,,0,00,1.9,,,,,,*41
$GNRMC,021255.000,V,,,,,,,170919,,,N*55
$GNGGA,021256.000,,,,,0,00,1.9,,,,,,*42
$GPGSA,A,1,,,,,,,,,,,,,4.4,1.9,3.9*32
$BDGSA,A,1,,,,,,,,,,,,,4.4,1.9,3.9*23
$GNRMC,021256.000,V,,,,,,,170919,,,N*56
$GNGGA,021257.000,,,,,0,00,1.9,,,,,,*43
$GNRMC,021257.000,V,,,,,,,170919,,,N*57
$GNGGA,021258.000,,,,,0,00,1.9,,,,,,*4C
$GPGSA,A,1,,,,,,,,,,,,,4.4,1.9,3.9*32
$BDGSA,A,1,,,,,,,,,,,,,4.4,1.9,3.9*23
$GPGSV,3,1,09,02,33,294,08,05,22,218,,06,50,352,03,09,27,098,*70
$GPGSV,3,2,09,12,21,316,,17,58,071,,19,61,036,,23,14,064,*74
$GPGSV,3,3,09,28,30,170,07*48
$BDGSV,2,1,06,02,48,236,,06,26,161,,08,49,000,,10,53,219,*68
$BDGSV,2,2,06,12,48,350,,13,48,320,*68
$GNRMC,021258.000,V,,,,,,,170919,,,N*58
$GNGGA,021259.000,,,,,0,00,1.9,,,,,,*4D
$GNRMC,021259.000,V,,,,,,,170919,,,N*59
$GNGGA,021300.000,,,,,0,00,1.9,,,,,,*40
$GPGSA,A,1,,,,,,,,,,,,,4.4,1.9,3.9*32
$BDGSA,A,1,,,,,,,,,,,,,4.4,1.9,3.9*23
$GNRMC,021300.000,V,,,,,,,170919,,,N*54
$GNGGA,021301.000,,,,,0,00,1.9,,,,,,*41
$GNRMC,021301.000,V,,,,,,,170919,,,N*55
$GNGGA,021302.000,,,,,0,00,1.9,,,,,,*42
$GPGSA,A,1,,,,,,,,,,,,,4.4,1.9,3.9*32
$BDGSA,A,1,,,,,,,,,,,,,4.4,1.9,3.9*23
$GNRMC,021302.000,V,,,,,,,170919,,,N*56
$AISUC,SetSuccess!
!AIVDM,1,1,,B,C68rO000kR1cdt3Ccj8wkwv1P00000000000000000000000000P,0*73
$GNGGA,021303.000,,,,,0,00,1.9,,,,,,*43
$GPGSV,3,1,09,02,33,294,08,05,22,218,,06,50,352,,09,27,098,*73
$GPGSV,3,2,09,12,21,316,,17,58,071,,19,61,036,,23,14,064,*74
$GPGSV,3,3,09,28,30,170,*4F
$BDGSV,2,1,06,02,48,236,,06,26,161,,08,49,000,,10,53,219,*68
$BDGSV,2,2,06,12,48,350,,13,48,320,*68
$GNRMC,021303.000,V,,,,,,,170919,,,N*57
$GNGGA,021304.000,,,,,0,00,1.9,,,,,,*44
$GPGSA,A,1,,,,,,,,,,,,,4.4,1.9,3.9*32
$BDGSA,A,1,,,,,,,,,,,,,4.4,1.9,3.9*23
$GNRMC,021304.000,V,,,,,,,170919,,,N*50
!AIVDM,1,1,,B,D03sl3@@LNfp00N000,4*20
$GNGGA,021305.000,,,,,0,00,1.9,,,,,,*45
$GNRMC,021305.000,V,,,,,,,170919,,,N*51
!AIVDM,1,1,,B,16:b`c@P0m86qV6=;W7l7gwp1P06,0*11
$GNGGA,021306.000,,,,,0,00,1.9,,,,,,*46
$GPGSA,A,1,,,,,,,,,,,,,4.4,1.9,3.9*32
$BDGSA,A,1,,,,,,,,,,,,,4.4,1.9,3.9*23
$GNRMC,021306.000,V,,,,,,,170919,,,N*52
!AIVDM,1,1,,A,16:ECHPP01`6h1P=>K`N4?v<2@4<,0*56
$GNGGA,021307.000,2307.2689,N,11319.2507,E,6,07,1.4,118.8,M,0.0,M,,*78
$GNRMC,021307.000,A,2307.2689,N,11319.2507,E,25.37,86.95,170919,,,E*7D
!AIVDM,1,1,,B,B6:fpU00@r1l:K3CK?JRSwP6SP06,0*6D
!AIVDM,1,1,,A,15Sh?v0000`7d5f=:mqEvJT<0855,0*32
$GNGGA,021308.000,2307.2804,N,11319.2649,E,6,10,1.1,27.7,M,0.0,M,,*44
$GPGSA,A,3,17,19,02,06,09,,,,,,,,2.9,1.1,2.7*3F
$BDGSA,A,3,13,12,08,10,02,,,,,,,,2.9,1.1,2.7*27
$GPGSV,3,1,09,02,33,294,39,05,22,218,,06,50,352,33,09,27,098,35*77
$GPGSV,3,2,09,12,21,316,,17,58,071,30,19,61,036,39,23,14,064,*7D
$GPGSV,3,3,09,28,30,170,*4F
$BDGSV,2,1,06,02,48,236,42,06,26,161,,08,49,000,29,10,53,219,28*6F
$BDGSV,2,2,06,12,48,350,31,13,48,320,31*68
$GNRMC,021308.000,A,2307.2804,N,11319.2649,E,25.11,86.99,170919,,,E*78
$GNGGA,021309.000,2307.2803,N,11319.2722,E,6,11,1.0,23.3,M,0.0,M,,*4E
$GNRMC,021309.000,A,2307.2803,N,11319.2722,E,18.22,92.97,170919,,,E*77
!AIVDM,1,1,,A,3815DU5P02`7Mjr==IQb;wv>0Dg:,0*0A
!AIVDM,1,1,,B,369rr=001c87Dd@==a=l;kVD218A,0*11
$GNGGA,021310.000,2307.2794,N,11319.2790,E,6,11,1.0,-22.6,M,0.0,M,,*67
$GPGSA,A,3,17,19,02,06,28,09,,,,,,,2.8,1.0,2.6*34
$BDGSA,A,3,13,12,08,10,02,,,,,,,,2.8,1.0,2.6*26
$GNRMC,021310.000,A,2307.2794,N,11319.2790,E,28.09,96.59,170919,,,E*7B
!AIVDM,1,1,,B,403sl31v>HR=:87B5:==o=i000S:,0*7A
$GNGGA,021311.000,2307.2794,N,11319.2790,E,6,11,1.0,-22.6,M,0.0,M,,*66
$GNRMC,021311.000,A,2307.2794,N,11319.2790,E,28.09,96.59,170919,,,E*7A
!AIVDM,1,1,,B,403sl3Av>HR=;`6OJn=>ONi020S:,0*26
!AIVDM,1,1,,B,403sl3Qv>HR=;`6N3p=<G>i02@7=,0*39
$GNGGA,021312.000,2307.2804,N,11319.2933,E,6,11,1.0,-24.7,M,0.0,M,,*63
$GPGSA,A,3,17,19,02,06,28,09,,,,,,,2.8,1.0,2.6*34
$BDGSA,A,3,13,12,08,10,02,,,,,,,,2.8,1.0,2.6*26
$GNRMC,021312.000,A,2307.2804,N,11319.2933,E,22.52,87.36,170919,,,E*75
!AIVDM,1,1,,A,16:Qcs0001`7cIL=;2Hh<JTJ087J,0*63
$GNGGA,021313.000,2307.2796,N,11319.2997,E,6,12,1.0,-24.1,M,0.0,M,,*6D
$GPGSV,3,1,09,02,33,294,39,05,22,218,35,06,50,352,34,09,27,098,36*75
$GPGSV,3,2,09,12,21,316,28,17,58,071,34,19,61,036,30,23,14,064,*7A
$GPGSV,3,3,09,28,30,170,25*48
$BDGSV,2,1,06,02,48,236,37,06,26,161,16,08,49,000,29,10,53,219,24*66
$BDGSV,2,2,06,12,48,350,31,13,48,320,27*6F
$GNRMC,021313.000,A,2307.2796,N,11319.2997,E,21.64,90.12,170919,,,E*78
!AIVDM,1,1,,A,168uRS0P00871Ff===bLUgvJ0<7l,0*59
$GNGGA,021314.000,2307.2611,N,11319.3000,E,6,12,1.0,6.7,M,0.0,M,,*79
$GPGSA,A,3,17,19,02,06,28,09,,,,,,,2.6,1.0,2.4*38
$BDGSA,A,3,13,12,08,06,10,02,,,,,,,2.6,1.0,2.4*2C
$GNRMC,021314.000,A,2307.2611,N,11319.3000,E,19.68,86.78,170919,,,E*7B
$GNGGA,021315.000,2307.3093,N,11319.3133,E,1,12,1.0,1.5,M,0.0,M,,*76
$GNRMC,021315.000,A,2307.3093,N,11319.3133,E,20.34,87.34,170919,,,A*78
!AIVDM,1,1,,A,16:V4R@P0086Qu2=>MIh0?vN0<0q,0*36
!AIVDM,1,1,,B,403su2Qv>HR=>`6=a<=CHAA02L5=,0*60
$GNGGA,021316.000,2307.2892,N,11319.3181,E,1,12,1.0,-13.7,M,0.0,M,,*68
$GPGSA,A,3,17,19,02,06,28,09,,,,,,,2.6,1.0,2.4*38
$BDGSA,A,3,13,12,08,06,10,02,,,,,,,2.6,1.0,2.4*2C
$GNRMC,021316.000,A,2307.2892,N,11319.3181,E,18.83,87.26,170919,,,A*7E
$GNGGA,021317.000,2307.2969,N,11319.3264,E,6,12,1.0,-25.1,M,0.0,M,,*60
$GNRMC,021317.000,A,2307.2969,N,11319.3264,E,17.54,90.25,170919,,,E*76
!AIVDM,1,1,,B,16:V4R0P0086QtN=>Me00?vR00Rv,0*39
!AIVDM,1,1,,B,369rr=0OiU87DkR==`oDOCjR20t0,0*2C
!AIVDM,1,1,,B,86:V4Ph0J06`,0*57
!AIVDM,1,1,,B,16:ECHPP01`6h1P=>KWv4?vR20SB,0*5D
!AIVDM,1,1,,A,16:bbIHP0387Dp@==W<M4gvR2T@l,0*29
!AIVDM,1,1,,A,D03sl31TPNfp00N000,4*5A
!AIVDO,1,1,,,B68rO000cr1cuH3CclTpKw`VSP06,0*0E
$GNGGA,021318.000,2307.2838,N,11319.3277,E,6,12,1.0,-27.1,M,0.0,M,,*6A
$GPGSA,A,3,17,19,02,06,28,09,,,,,,,2.6,1.0,2.4*38
$BDGSA,A,3,13,12,08,06,10,02,,,,,,,2.6,1.0,2.4*2C
$GPGSV,3,1,09,02,33,294,44,05,22,218,32,06,50,352,31,09,27,098,37*7C
$GPGSV,3,2,09,12,21,316,26,17,58,071,33,19,61,036,40,23,14,064,*74
$GPGSV,3,3,09,28,30,170,39*45
$BDGSV,2,1,07,01,,,03,02,48,236,32,06,26,161,28,08,49,000,27*58
$BDGSV,2,2,07,10,53,219,20,12,48,350,26,13,48,320,36*57
$GNRMC,021318.000,A,2307.2838,N,11319.3277,E,14.38,102.15,170919,,,E*4E
$GNGGA,021319.000,2307.2849,N,11319.3314,E,1,12,1.0,-42.8,M,0.0,M,,*64
$GNRMC,021319.000,A,2307.2849,N,11319.3314,E,12.90,119.38,170919,,,A*48
$GNGGA,021320.000,2307.2522,N,11319.3256,E,6,12,1.0,-34.8,M,0.0,M,,*6F
$GPGSA,A,3,17,19,02,06,28,09,,,,,,,2.6,1.0,2.4*38
$BDGSA,A,3,13,12,08,06,10,02,,,,,,,2.6,1.0,2.4*2C
$GNRMC,021320.000,A,2307.2522,N,11319.3256,E,12.72,124.79,170919,,,E*46
!AIVDO,1,1,,,B68rO000Or1cuD3CcHa=wwb6SP06,0*2C
!AIVDM,1,1,,A,403sl31v>HR=D87B5>==o=i00@<A,0*67
$GNGGA,021321.000,2307.2494,N,11319.3266,E,1,12,1.0,-39.6,M,0.0,M,,*65
$GNRMC,021321.000,A,2307.2494,N,11319.3266,E,11.26,131.21,170919,,,A*47
!AIVDM,1,1,,B,B6:fpTh0;:1ek8SBtaO8owb6SP06,0*4D
!AIVDM,1,1,,A,403sl3Av>HR=E`6OJn=>ONi020S:,0*5B
$GNGGA,021322.000,2307.2550,N,11319.3307,E,6,12,1.0,-47.7,M,0.0,M,,*66
$GPGSA,A,3,17,19,02,06,28,09,,,,,,,2.6,1.0,2.4*38
$BDGSA,A,3,13,12,08,06,10,02,,,,,,,2.6,1.0,2.4*2C
$GNRMC,021322.000,A,2307.2550,N,11319.3307,E,7.04,124.20,170919,,,E*7D
!AIVDM,1,1,,B,B68rO000Or1cuD3CcHa=wwb6SP06,0*6C
$GNGGA,021323.000,2307.2868,N,11319.3490,E,6,12,1.0,-164.7,M,0.0,M,,*58
$GPGSV,3,1,09,02,33,294,43,05,22,218,31,06,50,352,42,09,27,098,37*7C
$GPGSV,3,2,09,12,21,316,26,17,58,071,32,19,61,036,39,23,14,064,*7B
$GPGSV,3,3,09,28,30,170,41*4A
$BDGSV,2,1,07,01,,,03,02,48,236,20,06,26,161,30,08,49,000,21*54
$BDGSV,2,2,07,10,53,219,20,12,48,350,26,13,48,320,27*57
$GNRMC,021323.000,A,2307.2868,N,11319.3490,E,9.21,109.03,170919,,,E*74
!AIVDM,1,1,,B,16:Qcs0001`7cIR=;2IP<JTh0FDm,0*4F
!AIVDM,1,1,,A,403sl3iv>HR=G`5nhV=Fw8i020S:,0*7F
!AIVDM,1,1,,A,403suw1v>HR=G`8>>l=>40i02@>?,0*60
$GNGGA,021324.000,2307.2894,N,11319.3587,E,6,12,1.0,-104.7,M,0.0,M,,*5D
$GPGSA,A,3,17,19,02,06,28,09,,,,,,,2.6,1.0,2.4*38
$BDGSA,A,3,13,12,08,06,10,02,,,,,,,2.6,1.0,2.4*2C
$GNRMC,021324.000,A,2307.2894,N,11319.3587,E,3.85,142.24,170919,,,E*79
!AIVDM,1,1,,A,16:V4QhP0086Qln=>N9P0?vh0<0;,0*7F
$GNGGA,021325.000,2307.2914,N,11319.3596,E,6,12,1.0,-177.0,M,0.0,M,,*56
$GNRMC,021325.000,A,2307.2914,N,11319.3596,E,2.53,203.97,170919,,,E*75
!AIVDM,1,1,,A,403su3iv>HR=H85Ck`=2s<A004@l,0*36
!AIVDM,1,1,,A,B6:fmR@05R1kNH3CLbW<Kh4TSP00,0*0F
$GNGGA,021326.000,2307.2973,N,11319.3646,E,6,12,1.0,-198.9,M,0.0,M,,*52
$GPGSA,A,3,17,19,02,06,28,09,,,,,,,2.6,1.0,2.4*38
$BDGSA,A,3,13,12,08,06,10,02,,,,,,,2.6,1.0,2.4*2C
$GNRMC,021326.000,A,2307.2973,N,11319.3646,E,11.07,75.49,170919,,,E*7A
!AIVDM,1,1,,A,16:V4PhP0086r>f=>>FP0?vl0<00,0*07
!AIVDM,1,1,,A,16:ECHPP00`6h10=>KVf4?vl2<2U,0*6A
$GNGGA,021327.000,2307.3063,N,11319.3717,E,6,12,1.0,-211.8,M,0.0,M,,*5C
$GNRMC,021327.000,A,2307.3063,N,11319.3717,E,8.24,99.98,170919,,,E*40
!AIVDM,1,1,,A,369rr=001R87DsV==`GTVkjn011P,0*00
!AIVDM,1,1,,B,B7cWMm5EbUEm8OTMQSkepEEMH5EC,0*0F
!AIVDM,2,1,3,A,55B;Cp02BNrW<HaCF21<P4pLP4V09DhdE:222216D@L=C6H60MS@@j3kQp88,0*48
!AIVDM,2,2,3,A,88888888880,2*27
!AIVDM,1,1,,A,18J=Kl001Q87eB<=:=J=B:bj0HA7,0*38
$GNGGA,021328.000,2307.3288,N,11319.3777,E,6,12,1.0,-261.3,M,0.0,M,,*5E
$GPGSA,A,3,17,19,02,06,28,09,,,,,,,2.6,1.0,2.4*38
$BDGSA,A,3,13,12,08,06,10,02,,,,,,,2.6,1.0,2.4*2C
$GPGSV,3,1,09,02,33,294,41,05,22,218,35,06,50,352,41,09,27,098,39*77
$GPGSV,3,2,09,12,21,316,25,17,58,071,30,19,61,036,36,23,14,064,*75
$GPGSV,3,3,09,28,30,170,27*4A
$BDGSV,2,1,08,02,48,236,20,03,,,40,06,26,161,19,07,,,38*6F
$BDGSV,2,2,08,08,49,000,24,10,53,219,36,12,48,350,36,13,48,321,27*6C
$GNRMC,021328.000,A,2307.3288,N,11319.3777,E,13.92,81.02,170919,,,E*73
$GNGGA,021329.000,2307.3143,N,11319.3820,E,6,12,1.0,-171.7,M,0.0,M,,*50
$GNRMC,021329.000,A,2307.3143,N,11319.3820,E,14.21,92.34,170919,,,E*73
!AIVDM,1,1,,A,16:4bdP00087QO@==22uvDhr0<?T,0*22
$GNGGA,021330.000,2307.3071,N,11319.3907,E,1,12,1.0,-81.3,M,0.0,M,,*61
$GPGSA,A,3,17,19,02,06,28,09,,,,,,,2.6,1.0,2.4*38
$BDGSA,A,3,13,12,08,06,10,02,,,,,,,2.6,1.0,2.4*2C
$GNRMC,021330.000,A,2307.3071,N,11319.3907,E,13.49,89.16,170919,,,A*78
!AIVDM,1,1,,B,403sl31v>HR=N`7B5@==o>102D:d,0*36
$GNGGA,021331.000,2307.2770,N,11319.3833,E,6,12,1.0,-14.3,M,0.0,M,,*6A
$GNRMC,021331.000,A,2307.2770,N,11319.3833,E,12.87,94.12,170919,,,E*77
!AIVDM,1,1,,B,403sl3Av>HR=O`6OJn=>ONi02<:1,0*3C
$GNGGA,021332.000,2307.2756,N,11319.3861,E,6,12,1.0,-12.8,M,0.0,M,,*67
$GPGSA,A,3,17,19,02,06,28,09,,,,,,,2.6,1.0,2.4*38
$BDGSA,A,3,13,12,08,06,10,02,,,,,,,2.6,1.0,2.4*2C
$GNRMC,021332.000,A,2307.2756,N,11319.3861,E,10.81,89.01,170919,,,E*7D
!AIVDM,1,1,,A,16:Qcs0000`7cIR=;2Ih<JU20>Dm,0*56
$GNGGA,021333.000,2307.2487,N,11319.3755,E,6,12,1.0,33.3,M,0.0,M,,*44
$GPGSV,3,1,09,02,33,294,39,05,22,218,19,06,50,352,29,09,27,098,38*79
$GPGSV,3,2,09,12,21,316,28,17,58,071,37,19,61,036,29,23,14,064,22*71
$GPGSV,3,3,09,28,30,170,27*4A
$BDGSV,3,1,09,02,48,236,43,03,,,32,06,26,161,21,07,,,25*68
$BDGSV,3,2,09,08,49,001,23,09,,,22,10,53,219,39,12,48,350,26*56
$BDGSV,3,3,09,13,48,321,33*5F
$GNRMC,021333.000,A,2307.2487,N,11319.3755,E,7.54,90.51,170919,,,E*48
$GNGGA,021334.000,2307.2337,N,11319.3740,E,1,12,1.0,46.9,M,0.0,M,,*44
$GPGSA,A,3,17,19,02,06,28,09,,,,,,,2.6,1.0,2.4*38
$BDGSA,A,3,13,12,08,06,10,02,,,,,,,2.6,1.0,2.4*2C
$GNRMC,021334.000,A,2307.2337,N,11319.3740,E,6.10,96.82,170919,,,A*4A
$GNGGA,021335.000,2307.2339,N,11319.3811,E,6,12,1.0,-134.5,M,0.0,M,,*52
$GNRMC,021335.000,A,2307.2339,N,11319.3811,E,12.41,91.92,170919,,,E*7D
$GNGGA,021336.000,2307.2406,N,11319.3879,E,1,12,1.0,-146.9,M,0.0,M,,*5A
$GPGSA,A,3,17,19,02,06,28,09,,,,,,,2.6,1.0,2.4*38
$BDGSA,A,3,13,12,08,06,10,02,,,,,,,2.6,1.0,2.4*2C
$GNRMC,021336.000,A,2307.2406,N,11319.3879,E,5.44,90.16,170919,,,A*41
$GNGGA,021337.000,2307.2821,N,11319.3282,E,6,12,1.0,86.1,M,0.0,M,,*43
$GNRMC,021337.000,A,2307.2821,N,11319.3282,E,11.10,89.11,170919,,,E*78
!AIVDM,1,1,,B,16:4bdP00087QO@==22uvDi<04@l,0*21
!AIVDM,1,1,,B,16:ECHPP01`6h10=>KVf4?w<2D2U,0*41
$GNGGA,021338.000,2307.2733,N,11319.3670,E,6,12,1.0,240.6,M,0.0,M,,*76
$GPGSA,A,3,17,19,02,06,28,09,,,,,,,2.6,1.0,2.4*38
$BDGSA,A,3,13,12,08,06,10,02,,,,,,,2.6,1.0,2.4*2C
$GPGSV,3,1,09,02,33,294,26,05,22,218,23,06,50,352,30,09,27,098,39*77
$GPGSV,3,2,09,12,21,316,29,17,58,071,26,19,61,036,30,23,14,064,22*78
$GPGSV,3,3,09,28,30,170,29*44
$BDGSV,3,1,09,02,48,236,43,03,,,23,06,26,161,24,07,,,31*68
$BDGSV,3,2,09,08,49,001,29,09,,,03,10,53,219,29,12,48,350,27*5F
$BDGSV,3,3,09,13,48,321,28*55
$GNRMC,021338.000,A,2307.2733,N,11319.3670,E,5.79,89.18,170919,,,E*41
$GNGGA,021339.000,2307.2745,N,11319.3678,E,6,12,1.0,218.0,M,0.0,M,,*75
$GNRMC,021339.000,A,2307.2745,N,11319.3678,E,10.35,100.62,170919,,,E*48
$GNGGA,021340.000,2307.2775,N,11319.3694,E,6,12,1.0,196.2,M,0.0,M,,*7D
$GPGSA,A,3,17,19,02,06,28,09,,,,,,,2.6,1.0,2.4*38
$BDGSA,A,3,13,12,08,06,10,02,,,,,,,2.6,1.0,2.4*2C
$GNRMC,021340.000,A,2307.2775,N,11319.3694,E,8.90,101.12,170919,,,E*77
!AIVDM,1,1,,A,B6:fpTh0;J1eik3Btmc9?wl6SP06,0*70
!AIVDM,1,1,,A,403sl31v>HR=``7B5B==o>A020S:,0*2A
$GNGGA,021341.000,2307.2765,N,11319.3764,E,1,12,1.0,207.6,M,0.0,M,,*7B
$GNRMC,021341.000,A,2307.2765,N,11319.3764,E,9.78,95.30,170919,,,A*46
!AIVDM,1,1,,A,403sl3Av>HR=a`6OJn=>ONi02L:B,0*12
!AIVDM,1,1,,A,403sl3Qv>HR=a`6N3p=<G>i020S:,0*73
$GNGGA,021342.000,2307.2807,N,11319.3934,E,1,12,1.0,170.9,M,0.0,M,,*74
$GPGSA,A,3,17,19,02,06,28,09,,,,,,,2.6,1.0,2.4*38
$BDGSA,A,3,13,12,08,06,10,02,,,,,,,2.6,1.0,2.4*2C
$GNRMC,021342.000,A,2307.2807,N,11319.3934,E,7.85,85.86,170919,,,A*45
$GNGGA,021343.000,2307.2818,N,11319.4035,E,1,12,1.0,186.4,M,0.0,M,,*70
$GPGSV,3,1,09,02,33,294,23,05,22,218,28,06,50,352,32,09,27,098,38*7A
$GPGSV,3,2,09,12,21,316,29,17,58,071,37,19,61,036,40,23,14,064,24*79
$GPGSV,3,3,09,28,30,170,31*4D
$BDGSV,2,1,08,02,48,236,23,03,,,23,06,26,161,25,07,,,29*66
$BDGSV,2,2,08,08,49,001,29,10,53,219,26,12,48,350,29,13,48,321,35*6C
$GNRMC,021343.000,A,2307.2818,N,11319.4035,E,5.30,94.68,170919,,,A*49
$GNGGA,021344.000,2307.2769,N,11319.4006,E,1,12,1.0,219.3,M,0.0,M,,*7C
$GPGSA,A,3,17,19,02,06,28,09,,,,,,,2.6,1.0,2.4*38
$BDGSA,A,3,13,12,08,06,10,02,,,,,,,2.6,1.0,2.4*2C
$GNRMC,021344.000,A,2307.2769,N,11319.4006,E,5.79,93.94,170919,,,A*4E
!AIVDM,1,1,,B,C6:beG@00B1jVU3COmhiOwv0V@bM0jC1QQf000000000S0`dR20P,0*7D
$GNGGA,021345.000,2307.2764,N,11319.3977,E,1,12,1.0,224.9,M,0.0,M,,*7C
$GNRMC,021345.000,A,2307.2764,N,11319.3977,E,5.46,94.15,170919,,,A*48
!AIVDM,1,1,,A,403su2Qv>HR=d`6=a<=CHAA024@l,0*65
$GNGGA,021346.000,2307.2885,N,11319.4138,E,1,12,1.0,157.1,M,0.0,M,,*74
$GPGSA,A,3,17,19,02,06,28,09,,,,,,,2.6,1.0,2.4*38
$BDGSA,A,3,13,12,08,06,10,02,,,,,,,2.6,1.0,2.4*2C
$GNRMC,021346.000,A,2307.2885,N,11319.4138,E,5.03,96.71,170919,,,A*4E
$GNGGA,021347.000,2307.2900,N,11319.4161,E,1,12,1.0,164.9,M,0.0,M,,*7D
$GNRMC,021347.000,A,2307.2900,N,11319.4161,E,6.10,99.91,170919,,,A*4F
!AIVDM,1,1,,A,369FfHE00086r@P=>BvufGoL0Dg:,0*02
!AIVDM,1,1,,A,16:ECHPP00`6h0h=>KVf4?wN2@Km,0*2D
!AIVDM,1,1,,A,B6:fPQ@0>21f9PSBrEe4dno3QP06,0*6B
!AIVDM,1,1,,B,16:bbIHP0387Dp4==WB0P?wN2d3w,0*24
!AIVDM,1,1,,A,16:6:3000087J40==TC45kEP08LB,0*0B
$GNGGA,021348.000,2307.2905,N,11319.4179,E,1,12,1.0,165.1,M,0.0,M,,*77
$GPGSA,A,3,17,19,02,06,28,09,,,,,,,2.6,1.0,2.4*38
$BDGSA,A,3,13,12,08,06,10,02,,,,,,,2.6,1.0,2.4*2C
$GPGSV,3,1,09,02,33,294,28,05,22,218,30,06,50,352,30,09,27,098,41*74
$GPGSV,3,2,09,12,21,316,21,17,58,071,37,19,61,036,31,23,14,064,25*76
$GPGSV,3,3,09,28,30,170,29*44
$BDGSV,3,1,09,01,,,36,02,48,236,23,03,,,26,06,26,161,22*6C
$BDGSV,3,2,09,07,,,31,08,49,001,26,10,53,219,28,12,48,350,30*58
$BDGSV,3,3,09,13,48,321,37*5B
$GNRMC,021348.000,A,2307.2905,N,11319.4179,E,3.23,116.12,170919,,,A*74
!AIVDO,1,1,,,B68rO0008:1d4QSCchU8Wwp6SP06,0*03
!AIVDM,1,1,,A,39NSM:U001`7aW`=;d=CNVAL0Dg:,0*03
$GNGGA,021349.000,2307.2877,N,11319.4188,E,1,12,1.0,171.7,M,0.0,M,,*7F
$GNRMC,021349.000,A,2307.2877,N,11319.4188,E,3.51,117.41,170919,,,A*7D
!AIVDM,1,1,,A,16:EH20P00`6J3@=;tUf4?wT24@l,0*68
$GNGGA,021350.000,2307.2876,N,11319.4200,E,1,12,1.0,174.7,M,0.0,M,,*70
$GPGSA,A,3,17,19,02,06,28,09,,,,,,,2.6,1.0,2.4*38
$BDGSA,A,3,13,12,08,06,10,02,,,,,,,2.6,1.0,2.4*2C
$GNRMC,021350.000,A,2307.2876,N,11319.4200,E,2.43,110.83,170919,,,A*7C
!AIVDM,1,1,,B,403sl31v>HR=j`7B5B==o>A028Mn,0*61
!AIVDO,1,1,,,B68rO0006:1d4d3Ccfi5Cwq6SP06,0*72
$GNGGA,021351.000,2307.2870,N,11319.4206,E,1,12,1.0,176.1,M,0.0,M,,*75
$GNRMC,021351.000,A,2307.2870,N,11319.4206,E,2.38,123.56,170919,,,A*79
!AIVDM,1,1,,B,403sl3Av>HR=k`6OJn=>ONi02@NN,0*6F
!AIVDM,1,1,,B,403sl3Qv>HR=k`6N3p=<G>i028Na,0*34
$GNGGA,021352.000,2307.2862,N,11319.4211,E,1,12,1.0,175.8,M,0.0,M,,*79
$GPGSA,A,3,17,19,02,06,28,09,,,,,,,2.6,1.0,2.4*38
$BDGSA,A,3,13,12,08,06,10,02,,,,,,,2.6,1.0,2.4*2C
$GNRMC,021352.000,A,2307.2862,N,11319.4211,E,1.71,112.70,170919,,,A*77
!AIVDM,1,1,,B,B68rO0006:1d4d3Ccfi5Cwq6SP06,0*32
$GNGGA,021353.000,2307.2856,N,11319.4218,E,1,12,1.0,174.5,M,0.0,M,,*7A
$GPGSV,3,1,09,02,33,295,30,05,22,218,29,06,50,352,30,09,27,098,39*7B
$GPGSV,3,2,09,12,21,316,21,17,58,071,38,19,61,037,31,23,14,064,25*78
$GPGSV,3,3,09,28,30,170,35*49
$BDGSV,3,1,09,01,,,36,02,48,236,18,03,,,38,06,26,161,24*6D
$BDGSV,3,2,09,07,,,39,08,49,001,22,10,53,219,24,12,48,351,26*5E
$BDGSV,3,3,09,13,48,321,38*54
$GNRMC,021353.000,A,2307.2856,N,11319.4218,E,1.77,98.38,170919,,,A*41
$GNGGA,021354.000,2307.2849,N,11319.4225,E,1,12,1.0,174.4,M,0.0,M,,*7C
$GPGSA,A,3,17,19,02,06,28,09,,,,,,,2.6,1.0,2.4*38
$BDGSA,A,3,13,12,08,06,10,02,,,,,,,2.6,1.0,2.4*2C
$GNRMC,021354.000,A,2307.2849,N,11319.4225,E,1.89,90.12,170919,,,A*47
!AIVDM,1,1,,B,ENl5BQt27W3h42h20WhHPh@@@@@D3ep06VTMp00003v010,4*51
$GNGGA,021355.000,2307.2844,N,11319.4232,E,1,12,1.0,173.3,M,0.0,M,,*76
$GNRMC,021355.000,A,2307.2844,N,11319.4232,E,1.52,139.61,170919,,,A*7D
$GNGGA,021356.000,2307.2836,N,11319.4237,E,1,12,1.0,171.2,M,0.0,M,,*76
$GPGSA,A,3,17,19,02,06,28,09,,,,,,,2.6,1.0,2.4*38
$BDGSA,A,3,13,12,08,06,10,02,,,,,,,2.6,1.0,2.4*2C
$GNRMC,021356.000,A,2307.2836,N,11319.4237,E,0.81,109.95,170919,,,A*79
$GNGGA,021357.000,2307.2834,N,11319.4240,E,1,12,1.0,169.1,M,0.0,M,,*7F
$GNRMC,021357.000,A,2307.2834,N,11319.4240,E,0.35,149.78,170919,,,A*72
!AIVDM,1,1,,B,16:ECHPP00`6h0h=>KWv4?wl28RA,0*50
$GNGGA,021358.000,2307.2834,N,11319.4241,E,1,12,1.0,168.8,M,0.0,M,,*79
$GPGSA,A,3,17,19,02,06,28,09,,,,,,,2.6,1.0,2.4*38
$BDGSA,A,3,13,12,08,06,10,02,,,,,,,2.6,1.0,2.4*2C
$GPGSV,3,1,09,02,33,295,31,05,22,218,28,06,50,352,30,09,27,098,36*74
$GPGSV,3,2,09,12,21,316,21,17,58,072,40,19,61,037,35,23,14,064,35*71
$GPGSV,3,3,09,28,30,170,28*45
$BDGSV,3,1,09,01,,,35,02,48,236,15,03,,,38,06,26,161,24*63
$BDGSV,3,2,09,07,,,35,08,49,001,24,10,53,219,27,12,48,351,26*57
$BDGSV,3,3,09,13,48,321,34*58
$GNRMC,021358.000,A,2307.2834,N,11319.4241,E,0.18,149.78,170919,,,A*73
$GNGGA,021359.000,2307.2829,N,11319.4253,E,1,12,1.0,165.9,M,0.0,M,,*7B
$GNRMC,021359.000,A,2307.2829,N,11319.4253,E,0.87,66.21,170919,,,A*4B
$GNGGA,021400.000,2307.2835,N,11319.4260,E,1,12,1.0,165.4,M,0.0,M,,*70
$GPGSA,A,3,17,19,02,06,28,09,,,,,,,2.6,1.0,2.4*38
$BDGSA,A,3,13,12,08,06,10,02,,,,,,,2.6,1.0,2.4*2C
$GNRMC,021400.000,A,2307.2835,N,11319.4260,E,1.57,134.18,170919,,,A*7D
!AIVDM,1,1,,A,403sl31v>HR>0`7B5D==o>Q024@p,0*32
$GNGGA,021401.000,2307.2839,N,11319.4266,E,1,12,1.0,165.8,M,0.0,M,,*77
$GNRMC,021401.000,A,2307.2839,N,11319.4266,E,1.81,111.17,170919,,,A*75
!AIVDM,1,1,,A,D03sl3B<TNfpbpN000,4*57
!AIVDM,2,1,4,A,53Tgu202<`MA=H5B220pT<u>0j22222222222216GpR8H6GaNOF2CTj0H888,0*40
!AIVDM,2,2,4,A,88888888880,2*20
$GNGGA,021402.000,2307.2852,N,11319.4268,E,1,12,1.0,158.5,M,0.0,M,,*74
$GPGSA,A,3,17,19,02,06,28,09,,,,,,,2.6,1.0,2.4*38
$BDGSA,A,3,13,12,08,06,10,02,,,,,,,2.6,1.0,2.4*2C
$GNRMC,021402.000,A,2307.2852,N,11319.4268,E,2.44,67.85,170919,,,A*44
!AIVDM,1,1,,B,D03sl30C@Nfp00N000,4*5F
!AIVDM,1,1,,B,H6:beGE6G?gwuh<h0000001AI440,0*7A
$GNGGA,021403.000,2307.2852,N,11319.4273,E,1,12,1.0,158.2,M,0.0,M,,*78
$GPGSV,3,1,09,02,33,295,29,05,23,218,29,06,50,352,30,09,27,097,40*73
$GPGSV,3,2,09,12,21,316,23,17,58,072,40,19,61,037,40,23,14,064,28*7D
