!AIVDM,1,1,,B,B6:l;5@0:22@<R3>6E6bgwP3QP06,0*33
!AIVDM,1,1,,B,16:EmwP04>88Tbf<n3l84VMl0812,0*00
!AIVDM,1,1,,B,177nSgPP00`9D;h<lO:v4?v22@13,0*6C
!AIVDM,1,1,,A,B6:bbKh00B2;rb3>QV8rDfPSQP06,0*71
!AIVDM,1,1,,A,B6:faKh00B2;rb3>QV8rDfPSQP06,0*71
!AIVDM,1,1,,A,403sl4Qv?2QB1892st<bWLA0081<,0*37
$GPRMC,011758,A,2230.8190,N,11350.6088,E,000.0,206.7,051219,,*19
!AIVDM,1,1,,A,1815GUh01l88gV@<mUreh;200D<:,0*7D
!AIVDM,1,1,,A,16:fl@wP01`8s<h<oirN4?v42498,0*40
!AIVDM,1,1,,B,B6:fr?h00B2BBiS=sSu:u2PSQP06,0*73
!AIVDM,1,1,,A,B6:fr?h00B2BBiS=sSu:u2PSQP06,0*70
!AIVDM,1,1,,A,177nU=@P?w<tSF0l4Q@>4?v60h1J,0*3B
!AIVDM,1,1,,A,19NSRbw000898Td<oaeP`8El0@1P,0*2A
!AIVDM,1,1,,A,169FWKPP4e894HF<noedIOv400S@,0*43
!AIVDM,1,1,,A,13ku:I@Ohe`8K:L<tUC2CQt200S0,0*75
!AIVDM,1,1,,A,177nSTPP0Q`9KW@<inEDrwv42H1l,0*40
$GPRMC,011759,A,2230.8190,N,11350.6088,E,000.0,228.2,051219,,*11
!AIVDM,1,1,,B,16:fmGwP0O`8WnP<ud77e?v420Sn,0*37
!AIVDM,1,1,,A,177nSU0P00`9``P<hg3N4?v62<9T,0*70
!AIVDM,1,1,,A,16:Ej80Olm89JK`<ma?0`0N2081t,0*4C
!AIVDM,1,1,,B,177nSPPP0s`9Hp0<iteangv62DJ<,0*07
!AIVDM,1,1,,B,177nP:gP0S89Fo4<lC8Lv?v82@2@,0*38
!AIVDM,1,1,,A,16:Cfu0P0089<q<<pq6MS?v62l3v,0*2A
!AIVDM,1,1,,A,177nTtAP05`9Bbh<lES6m?v62498,0*39
!AIVDM,1,1,,B,16:EL8POl@`8wP><k;HAtAT020S5,0*0B
!AIVDM,1,1,,A,18M<JN002=`8g>:<mM:Mhs3n0<;e,0*11
$GPRMC,011800,A,2230.8191,N,11350.6088,E,000.0,329.4,051219,,*15
!AIVDM,1,1,,A,16:4AF0001`8kb0<rOSv40j62<Tp,0*1E
!AIVDM,1,1,,B,16:Cp;0P0r88:Bb<r3M=TOv62498,0*79
$GPGGA,011800,2230.8191,N,11350.6088,E,1,08,000.9,086.1,M,-03.0,M,,*68
!AIVDM,1,1,,B,35R4i40003`8ISr<u;aq?rj:033Q,0*35
!AIVDM,1,1,,A,169G`t0OlG`9@E8<mK5U13t:0498,0*48
!AIVDM,1,1,,A,169GFF0PD7895I8<l4ma`Wd:0D;n,0*29
!AIVDM,1,1,,B,169FWKPP4g894DR<np=dKwv800S8,0*53
$AIVSD,70,2.9,14,14,050800,08,07,00,*45
!AIVDM,1,1,,A,169GCuPP0088V<j<oqslQOv80<80,0*00
!AIVDM,1,1,,B,B6:jo5@0<R2BKtS=e?o4cwQSQP06,0*74
$PSPC,1,0,100,,0,0*20
$PSPC,1,0,100,,0,0*20
!AIVDM,1,1,,B,D03su0@@LNfp00N000,4*3A
!AIVDM,1,1,,B,D03sl4P@LNfp00N000,4*37
!AIVDM,1,1,,A,D03sl2P0lNfp00N000,4*62
!AIVDM,1,1,,A,16:fivhP1>89BB0<n:=e4?v80d;G,0*39
$GPRMC,011801,A,2230.8191,N,11350.6088,E,000.0,000.1,051219,,*19
!AIVDM,1,1,,A,169G7sPP1m`9D<j<mgKFe?v82498,0*24
!AIVDM,1,1,,A,403sl2Qv?2QB4`9E54<noki02498,0*24
!AIVDM,1,1,,B,B6:fOw<H?R2C1j3=wlecCwRFkP06,0*08
!AIVDM,1,1,,B,B69KGh;89j2@vE3=kbrRf2CV1P06,0*1C
!AIVDM,1,1,,B,B6:EOR00022BaB3=k`FIErR3QP06,0*39
!AIVDM,1,1,,A,36:fSGPP00`9PHP<j0DN4?v:20Rk,0*6A
!AIVDM,1,1,,A,177nSk0P00`9HSh<i8uv4?v:2@3H,0*2B
!AIVDM,1,1,,A,177nRghP1O`9M4@<itaqm?v:2498,0*42
!AIVDM,1,1,,A,B6:fqEP0022>4jS>Bjn?0@23QP06,0*68
!AIVDM,1,1,,A,36;?mV100088KCV<wUMQaJ680DNJ,0*14
!AIVDM,1,1,,A,16:fO@?P00`8j:@<pPcf4?v:283Q,0*63
$AIVSD,70,2.9,14,14,050800,08,07,00,*45
!AIVDM,1,1,,A,177nSQ0P00`9Qoh<j6`W=?v:2@4h,0*23
!AIVDM,1,1,,B,B69FeOP0<j2:f63=ti0b?wRSQP??,0*1D
$GPRMC,011802,A,2230.8192,N,11350.6089,E,000.0,008.1,051219,,*10
!AIVDM,1,1,,B,16;5I`001`88`bJ<q;:=Jbh<0<??,0*20
$PSPC,1,0,100,,0,0*20
$PSPC,1,0,100,,0,0*20
$PSPC,1,0,100,,0,0*20
$PSPC,1,0,100,,0,0*20
$PSPC,1,0,100,,0,0*20
$PSPC,1,0,100,,0,0*20
!AIVDM,1,1,,A,169G6T0P1A88Rw@<rscnFwv<2d3w,0*11
!AIVDM,1,1,,A,169G6T0P1A88Rw@<rscnFwv<2d3w,0*11
!AIVDM,1,1,,A,169G6T0P1A88Rw@<rscnFwv<2d3w,0*11
!AIVDM,1,1,,A,169FWKPP4h894@n<npdLKgv<0<80,0*6D
!AIVDM,1,1,,A,H69GJa566DeiohqPPPPPPP886870,0*5F
!AIVDM,1,1,,B,169GFF0PD8895B@<l4MaWob>0<;m,0*00
!AIVDM,1,1,,B,177nS@wP00`9b;6<hkmN4?v<2498,0*22
!AIVDM,1,1,,A,169@FkP01n`8NuJ<tAIFLU2<0@3u,0*44
!AIVDM,1,1,,B,B69Ff4h08B2>f4S=me4LwwRSQP06,0*18
!AIVDM,1,1,,B,376tT:5001`97LF<p;LI:4:80Dg:,0*3A
!AIVDM,1,1,,B,177nSthP0@`9BJh<iORPogv<2@45,0*05
!AIVDM,1,1,,A,16:D17PP0089<K<<q1500?v<0826,0*23
$AIVSD,70,2.9,14,14,050800,08,07,00,*45
$GPRMC,011803,A,2230.8192,N,11350.6089,E,000.1,017.8,051219,,*17
!AIVDM,1,1,,B,H69GRd0LtpM8tpL000000000000,2*54
$PSPC,1,0,1,0,0*0C
$PSPC,1,0,100,,0,0*20
!AIVDM,1,1,,A,169GbH`P0088Kcp<sv9p;gv<2D3w,0*49
!AIVDM,1,1,,A,169GbH`P0088Kcp<sv9p;gv<2D3w,0*49
$GPGSA,A,3,13,02,24,21,29,30,05,15,,,,,1.5,0.9,1.2*30
!AIVDM,1,1,,B,B6:E?oP0022B`23=t=;>VH33QP06,0*65
!AIVDM,1,1,,A,16:flfgP00`9>O0<om:f4?v>2<7k,0*2B
!AIVDM,1,1,,A,169?Ra@04J2Abo3>FjMACwS73P06,0*0F
!AIVDM,1,1,,A,B69?Ra@04J2Abo3>FjMACwS73P06,0*0F
!AIVDM,1,1,,A,16:ED:gP0088gV0<ps`AsOv:0@4P,0*6C
!AIVDM,1,1,,B,H69GRd560000000000000010t6:0,0*59
$GPGGA,011803,2230.8192,N,11350.6089,E,1,08,000.9,086.1,M,-03.0,M,,*69
$GPRMC,011804,A,2230.8192,N,11350.6089,E,000.1,026.7,051219,,*1D
!AIVDM,1,1,,A,16:EmwP04=88TT0<n2B84FJ800S>,0*6A
!AIVDM,1,1,,B,C68rO1P06R2Ao=3>:W2P?wv06bV`NJVv`:V`00000000KV@j?I0P,0*46
!AIVDM,1,1,,B,168wUBPP00884gj<raJBg?v>2498,0*73
!AIVDM,1,1,,A,C6:EOR00022BaB3=k`DMlGS2l@2O0V@:L?0jNc1SUi10K2@8S1P7,0*34
!AIVDM,1,1,,B,B6:lBsP00B2=?b3>KoJ@KwSSQP06,0*6E
!AIVDM,1,1,,A,169G`t0PDH`9@MB<mJCm2CnB00S9,0*33
!AIVDM,1,1,,B,169FWKPP4g894<t<nq<LIOv@0D80,0*70
!AIVDM,1,1,,B,16:EIc?P0188jR@<q4kSpgwf0`57,0*74
!AIVDM,1,1,,B,169@nBPP00`8pTh<t04f4?v@2D=G,0*78
!AIVDM,1,1,,B,169UBuPP1;88hf6<ld8uahR<0Dv?,0*68
!AIVDM,1,1,,A,B6:fOjP00B2COH3=dt<tE8SSQP06,0*63
!AIVDM,1,1,,B,C6:lJaP0022BGu3>9O8sSwSR@2C0<c0@b31gQS0@2O10S0HETRP7,0*30
!AIVDM,1,1,,A,35SrP>1001`9Ckl<lKnnHPn>8000,0*29
!AIVDM,1,1,,B,B6:fON0P01`9;WP<oW6v4?v@285D,0*59
!AIVDM,1,1,,B,16:foN0P01`9;WP<oW6v4?v@285D,0*59
!AIVDM,1,1,,A,16:ICDPk0088jkN<riMuigvT4P00,0*76
$GPRMC,011805,A,2230.8192,N,11350.6090,E,000.1,038.6,051219,,*1A
!AIVDM,1,1,,B,177nSH5P0V`9CbP<l>P5k?v@2==D,0*55
!AIVDM,1,1,,B,177nSH5P0V`9CbP<l>P5k?v@2==D,0*55
!AIVDM,1,1,,B,177nSH5P0V`9CbP<l>P5k?v@2==D,0*55
!AIVDM,1,1,,B,18MARV001T`8Um@<r9Q==:d@0D<B,0*53
!AIVDM,1,1,,A,16:fe9PP1C`9DEh<i<2rpgvB20SS,0*6B
!AIVDM,1,1,,A,H6:bbfPPDpLQDW7KKH000000000,2*73
!AIVDM,1,1,,A,18I9oV0226`91I@<du`FPE<D0<BN,0*67
!AIVDM,1,1,,A,C6:fl@h0022>kJ3=tWG7kwTR@bC0@b30@2L?1eUW1110S4P76S07,0*57
!AIVDM,1,1,,A,177nU>hP?w<tSF0l4Q@>4?wv0T98,0*17
!AIVDM,1,1,,B,16;AlAPP0088k7H<pHHqrgv@20S:,0*14
!AIVDM,1,1,,A,16:E7FP04i`8pHn<p2WGfV8D0@5n,0*15
!AIVDM,1,1,,B,B6:faRh0?22@<k3>8P=DOwT3QP06,0*0A
!AIVDM,1,1,,A,16:fn0?P00`8jch<pnqv4?vB2<?<,0*62
$GPRMC,011806,A,2230.8192,N,11350.6090,E,000.1,052.9,051219,,*1A
!AIVDM,1,1,,A,177nSc0P00`9GEP<i5p>4?vD2498,0*32
!AIVDM,1,1,,A,B6:DGMP02j26qO3>cHWAN`4SQP06,0*5A
!AIVDM,1,1,,A,169FWKPP4f89494<nqbtG?vD0<7E,0*29
!AIVDM,1,1,,B,16:flBgP00`8r0P<od6v4?vD2@6N,0*69
!AIVDM,1,1,,B,19NSRbw000898Tb<oaeQL8DB0@6P,0*2A
$GPRMC,011807,A,2230.8191,N,11350.6090,E,000.0,067.5,051219,,*13
!AIVDM,1,1,,B,177nTdPP00`9Au@<lF1f4?vF20RN,0*03
!AIVDM,1,1,,A,B6:bbNh00B2BBG3=s2aFE5N021Mk,0*3A
$GPGGA,011807,2230.8191,N,11350.6090,E,1,08,000.9,086.0,M,-03.0,M,,*67
!AIVDM,1,1,,B,B6:bbNh00B2BBG3=s2aFE5N021Mk,0*39
$GPGSV,4,1,13,02,44,117,20,05,40,036,44,06,04,127,,12,00,196,27*73
$GPGSV,4,4,13*7B
$GPGSV,4,4,13*7B
$GPGSV,4,4,13*7B
!AIVDM,1,1,,A,16:DbQPP1689AT0<nRoUhgv>2T98,0*55
!AIVDM,2,1,7,B,576tT:82DroAI95GJ20pEN18DpuLr2222222221@R`pRJ6sW0>Tj1Bkm,0*24
!AIVDM,2,2,7,B,H88888888888880,2*50
!AIVDM,1,1,,B,403sl4Qv?2QB;892st<bWLA00H73,0*47
!AIVDM,1,1,,A,B69GIS009J2C:vS>3gr;cwUVSP06,0*1A
!AIVDM,1,1,,A,B6:fjBh0BB2?023>HwuGE5USQP06,0*00
$GPRMC,011808,A,2230.8191,N,11350.6090,E,000.0,094.1,051219,,*14
!AIVDM,1,1,,A,177`j?002N89<Hp<m3qpRnnJ00S5,0*46
!AIVDM,1,1,,A,15@bl60000`9Bkh<lgq@00rF087?,0*70
!AIVDM,1,1,,A,169G`t0PDI`9@Ud<mISm0ClJ087C,0*01
!AIVDM,1,1,,B,C6:fOjP0022COHS=dt=:5=5RhB2L><ce111111111110S08GU307,0*07
!AIVDM,1,1,,A,B6:lDkh0?B2CE?S=oBAfeHUSQP06,0*4D
!AIVDM,1,1,,A,C6:fOjP0022COHS=dt=:5=5RhB2L><ce111111111110S08GU307,0*04
!AIVDM,1,1,,A,B69GMn00022B>`S=olJtV65SQP06,0*71
!AIVDM,1,1,,B,169FWKPP4g8945J<nr9LHgvH0H7N,0*1D
!AIVDM,1,1,,A,169GFF0Ol989574<l3laTWdJ0<;l,0*5A
!AIVDM,1,1,,A,169A5cS001895vd<p5BGGFvJ087P,0*65
!AIVDM,1,1,,B,1815GUh01l88gUD<mVseh;2D087V,0*14
$GPRMC,011809,A,2230.8190,N,11350.6090,E,000.1,123.4,051219,,*1D
!AIVDM,1,1,,B,16:Ej8004k89JS2<md8@a0LD0498,0*6B
!AIVDM,1,1,,A,E>ldCi?;Pb2a@22`:4@HrGK6P0044b3T6Jde@00003v01P,4*0C
!AIVDM,1,1,,B,B6:bbfP00B2BdOS=t?3Bj`v021Mk,0*79
!AIVDM,1,1,,B,C6:`IN00>R2C4U3>3dwIBeV2@bB@2BHNL>Oi11111110S0DFRT07,0*35
!AIVDM,1,1,,A,C6:`IN00>R2C4U3>3dwIBeV2@bB@2BHNL>Oi11111110S0DFRT07,0*36
!AIVDM,1,1,,B,16:EDL?P00`8B5h<t6g>4?vJ2498,0*6A
$GPGSA,A,3,13,02,24,21,29,30,05,15,,,,,1.5,0.9,1.2*30
!AIVDM,1,1,,B,16:Cfu0P0189<qT<pq4aEgvH2`84,0*1B
!AIVDM,1,1,,B,16:EmwPOl=88TLH<n0NH3VJF00S>,0*39
!AIVDM,1,1,,A,16:9qv3P00`9RUP<ib8>4?vJ20RS,0*4D
!AIVDM,1,1,,B,B6:lGpP0@:2C;g3=n<;PwwTVSP06,0*37
!AIVDM,1,1,,A,177nRvPP0789P8F<isA<8OvJ2PS?,0*6B
!AIVDM,1,1,,A,B:KhlR@00B2@eT3=m3:Rn46SQP06,0*02
!AIVDM,1,1,,B,B:KhlR@00B2@eT3=m3:Rn46SQP06,0*01
$GPRMC,011810,A,2230.8189,N,11350.6090,E,000.1,142.1,051219,,*1F
!AIVDM,1,1,,A,H6:bbO1UDE<P4tMD4pQDwK;7H00,2*46
!AIVDM,1,1,,A,15Qw5j001h`8P84<t2?MH:VF0`8E,0*41
!AIVDM,1,1,,B,177nTtAP03`9Bc0<lEP6KgvL2H8G,0*60
!AIVDM,1,1,,A,B68rO1P09r2Ao>S>:VvUwwV6SP06,0*28
!AIVDM,1,1,,A,177nRT@P04`9RIP<ivniwgvL2H8N,0*7B
!AIVDM,1,1,,A,16;5I`001`88``<<q<4=JrfL0D??,0*75
!AIVDM,1,1,,B,16:Dcq>P0089@qn<o0wSwOvJ20S9,0*55
$AIVSD,70,2.9,14,14,050800,08,07,00,*45
!AIVDM,1,1,,A,E>ldChw;Pb2a@22`:4@HrGK6P0044b4<6JfT000003v01P,4*69
!AIVDM,1,1,,A,169FWKPP4f8941b<nraLJOvL0498,0*41
!AIVDM,1,1,,B,B69GLjP0:R2;`V3>;abb>873QP06,0*6C
$PSPC,1,0,100,,0,0*20
$PSPC,1,0,100,,0,0*20
!AIVDM,1,1,,B,16:fivhP1>89B>h<n;0=9?vL0UH@,0*76
!AIVDM,1,1,,A,B69GLjP0:R2;`V3>;abb>873QP06,0*6F
$GPGGA,011810,2230.8188,N,11350.6090,E,1,08,000.9,085.6,M,-03.0,M,,*6C
!AIVDM,1,1,,B,177nSQ0P01`9Qod<j6`o=?vL2<?v,0*0A
!AIVDM,1,1,,B,169GCuPP0088V<p<oqskPOvN00RA,0*7E
!AIVDM,1,1,,B,10`:DoOP00899QR<pHMqawvN2<=k,0*3F
$GPRMC,011811,A,2230.8188,N,11350.6090,E,000.1,154.5,051219,,*1C
!AIVDM,1,1,,B,169@FkP01m`8Nwd<t@BVJm2N0D80,0*74
!AIVDM,1,1,,B,16:fSGPP00`9PHP<j0Dv4?vN2498,0*1B
!AIVDM,1,1,,A,18M<JN002=`8g<6<mNmehK4D0895,0*20
!AIVDM,1,1,,B,C6:fn003wk?8mP=18D3Q00=2jb;08NL?0>b2L@bOSWUhS4T75T07,0*48
!AIVDM,1,1,,A,177nSthP0B`9BKh<iOdA5wvN2899,0*63
!AIVDM,1,1,,B,16:4AF0001`8kb@<rOSv40jN289<,0*30
!AIVDM,1,1,,A,16:EmwPOl>88TJ@<mwtp3FJJ00S;,0*68
!AIVDM,1,1,,B,16:HVL001W88gs2<m5m=iK4L089I,0*1C
$AIVSD,70,2.9,14,14,050800,08,07,00,*45
!AIVDM,1,1,,A,B6:EBT00022?;23>?AB;=g7SQP06,0*0E
$GPRMC,011812,A,2230.8187,N,11350.6090,E,000.1,162.1,051219,,*11
!AIVDM,1,1,,A,B6:fUSh0022D<kS=h>n=kwWW1P06,0*63
$PSPC,1,0,100,,0,0*20
$PSPC,1,0,100,,0,0*20
!AIVDM,1,1,,B,B68rO1P09b2Ao>S>:VvRKwW6SP06,0*01
!AIVDM,1,1,,A,C6:fWc@0022BV03>8hC>wwv0@b2@2L?eeh0000000000S0DFSS0P,0*41
!AIVDM,1,1,,A,169G`t004J`9@f@<mHmlv3jR00S=,0*01
!AIVDM,1,1,,B,169G6T0P1B88S1N<rrmVG?vP2T98,0*3F
!AIVDM,1,1,,B,16;4O2001m`8ISD<vfQVT5:N0@9g,0*1A
!AIVDM,1,1,,B,169FWKPP4f893t2<nsHtKwvP0<7N,0*15
!AIVDM,1,1,,A,169GFF0049894v4<l3DqTGfR0<;l,0*0F
!AIVDM,1,1,,B,B6:lHpP00B2BE;3=r@=Gq683QP06,0*2E
$AIVSD,70,2.9,14,14,050800,08,07,00,*45
$GPRMC,011813,A,2230.8187,N,11350.6090,E,000.1,166.8,051219,,*1D
$GPGSV,4,1,13,02,44,117,17,05,40,036,44,06,04,127,,12,00,196,28*78
$PSPC,1,0,100,,0,0*20
$PSPC,1,0,100,,0,0*20
$PSPC,1,0,100,,0,0*20
$PSPC,1,0,100,,0,0*20
$PSPC,1,0,100,,0,0*20
!AIVDM,1,1,,B,16:Cbb8P0088TuN<osRmDgvP2@9t,0*79
!AIVDM,1,1,,B,16:fO@?P00`8j:@<pPcf4?vR28:B,0*12
!AIVDM,1,1,,A,16;co9wP00`8qWP<oVMN4?vR2@:F,0*01
!AIVDM,1,1,,B,16:flfgP00`9>O0<om:f4?vR28:I,0*6F
!AIVDM,1,1,,B,16:EL@000288IT6<u=JphoLT0D>A,0*22
!AIVDM,1,1,,A,16:EL8PPDA`8wwn<k>JiuQNP2D;b,0*46
!AIVDM,1,1,,B,H6:fM=iUDE4TpMUD4pQDwWS7P00,2*41
!AIVDM,1,1,,A,16:E7FPOli`8pAH<p077iV>T08:O,0*40
!AIVDM,1,1,,B,16:EmwP04>88TFt<mw;H3FJP0<:2,0*75
!AIVDM,1,1,,B,16:D17PP0089<K8<q1600?vR0<1e,0*1D
$GPRMC,011814,A,2230.8186,N,11350.6090,E,000.1,167.7,051219,,*15
!AIVDM,1,1,,A,B6:bbO000B2BBE3=sWAJm8v021Mk,0*35
!AIVDM,1,1,,B,169G`t004J`9@jV<mHNTtSjV0@:k,0*2A
$GPGGA,011814,2230.8186,N,11350.6090,E,1,08,000.9,085.0,M,-03.0,M,,*60
!AIVDM,1,1,,A,168wUBPP00884gf<raJBg?vR2498,0*10
!AIVDM,1,1,,A,15@0lV000T89FUT<lG9u6b`V0H:s,0*42
!AIVDM,1,1,,A,B6:`Hm@0;j2BPu3>:<QD3w`3QP06,0*57
!AIVDM,1,1,,B,169GFF004:894qP<l35IU7fV0<;k,0*57
!AIVDM,1,1,,B,177`j?002N89<BR<m2u`QnnV00SB,0*10
!AIVDM,1,1,,A,16:foN0P01`9;WP<oW7f4?vT28;=,0*28
$GPRMC,011815,A,2230.8186,N,11350.6090,E,000.1,165.7,051219,,*16
!AIVDM,1,1,,B,16:Ejr?001`9>GP<pD1@058T2498,0*2C
!AIVDM,1,1,,A,16:Ej80PDk89J`D<mfI0W0HR0<:b,0*4B
!AIVDM,1,1,,A,3:L1H@1P01`8qSh<ocMv4?vV2Ddr,0*68
!AIVDM,1,1,,B,177nU>hP?w<tSF0l4Q@>4?wv0d:F,0*59
$AITMP,+40,HI,20120413,MB,0*7B
!AIVDM,1,1,,B,16:==H0P1288thL<hapeTK4T0@>L,0*3E
!AIVDM,1,1,,A,16:EmwPPD>88TDj<mvbH3VJT0498,0*37
!AIVDM,1,1,,B,16:fn0?P00`8jch<pnq>4?vV2498,0*37
!AIVDM,1,1,,A,177nSH5P0V`9Cdh<l>6EVOvV2==D,0*25
!AIVDM,1,1,,A,16:Vh=@P00899Jp<okQv4?wp1P06,0*7E
!AIVDM,1,1,,A,C6:DDTP08b2CItS=sQ`mpcN0jb:l@b@2BDbMSSWj0000e2H93300,0*5B
!AIVDM,1,1,,A,C6:DDTP08b2CItS=sQ`mpcN0jb:l@b@2BDbMSSWj0000e2H93300,0*5B
!AIVDM,1,1,,A,368rOoUP01`99nR<p>fhIOvV2000,0*49
!AIVDM,1,1,,A,368rOoUP01`99nR<p>fhIOvV2000,0*49
$GPRMC,011816,A,2230.8186,N,11350.6091,E,000.1,163.6,051219,,*13
!AIVDM,1,1,,B,16:E7FP04i`8p?P<owO7jn>`0<6l,0*06
!AIVDM,1,1,,B,16:E7FP04i`8p?P<owO7jn>`0<6l,0*06
$GPGSA,A,3,13,02,24,21,29,30,05,15,,,,,1.5,0.9,1.2*30
!AIVDM,1,1,,A,16:flBgP01`8r0P<od6v4?v`2498,0*42
!AIVDM,1,1,,A,D03sl4QQdNfp00N000,4*0C
!AIVDM,1,1,,A,377nS@?P00`9`kP<hgE>4?v`2023,0*53
!AIVDM,1,1,,A,169GFF004:894lr<l2n9Uofb0H<3,0*06
!AIVDM,1,1,,A,169G`t004K`9@nr<mH7lskjb00S9,0*09
!AIVDM,1,1,,A,18MARV001S`8Ui<<r:i=?bd`0<<C,0*17
!AIVDM,1,1,,B,B6:D98000J26Bt3?:aw=RTN021Mk,0*26
!AIVDM,1,1,,A,19NSRbw000898Tb<oaei?pDT0L<8,0*52
$GPRMC,011817,A,2230.8187,N,11350.6091,E,000.1,161.6,051219,,*11
!AIVDM,1,1,,B,16:Ej80PDk89Ja4<mfehUhHT08<I,0*08
!AIVDM,1,1,,A,16:fmvHP00`8c4h<u?3N4?v`2498,0*08
!AIVDM,1,1,,B,169@WGP001896m@<p>Hm09HV00SQ,0*72
!AIVDM,1,1,,B,18M<JN002=`8g;8<mOhMhs2P0L;e,0*0A
!AIVDM,1,1,,B,H6:D981<QDqTW?7<00000000000,2*48
!AIVDM,1,1,,A,B69GJa00=22=Q73>2gLehU:7QP06,0*27
!AIVDM,1,1,,B,C6:fd:h00J2BW83=s>4e@TN0jb:vjbLvjBL>wSUV0000S3064R00,0*1C
!AIVDM,1,1,,A,C6:fM=h05b2CEA3>=GD4d3v0jb:RBL>jb2L@bOkiSh00S3h64S00,0*38
!AIVDM,1,1,,B,C6:fodP00B2=sP3>@tfVJ59Rjb:jBL>8:@bOieWW1110S3P65Q07,0*4B
!AIVDM,1,1,,B,177nSgPP02`9D;@<lO<>4?vb28<k,0*75
!AIVDM,1,1,,A,16:EL8POlA`903d<k>lQsANT2498,0*5D
!AIVDM,1,1,,B,B6:fOvqH?22=aOS>7GduKwbjh8>M,0*3A
$GPGGA,011817,2230.8187,N,11350.6090,E,1,08,000.9,084.7,M,-03.0,M,,*64
!AIVDM,1,1,,A,177nSU0P00`9``P<hg4>4?vb20Sw,0*16
!AIVDM,1,1,,B,B6:l?a@0;B2AVPS=pas8Wwb3QP06,0*67
!AIVDM,1,1,,A,C6:jn9h0022:vu3>NmMtGwb2jb:l@NL>V@2L@bOQWW10S4442U07,0*02
!AIVDM,1,1,,B,169A5cS001895vT<p5?73Fvd0D;o,0*4E
$GPRMC,011818,A,2230.8187,N,11350.6090,E,000.1,161.5,051219,,*1C
!AIVDM,1,1,,B,169A5cS001895vT<p5?73Fvd0D;o,0*4E
!AIVDM,1,1,,A,38I9oV01j5`91LB<dsrnQm>f02ii,0*0D
!AIVDM,1,1,,A,B6:fn003wk?8mP=18D3Q00@SQP06,0*73
!AIVDM,1,1,,B,B69FfC005j2?<33=`wBncwbSQP06,0*41
!AIVDM,1,1,,B,169G`t004K`9@sB<mGhls3jf0@=C,0*4F
!AIVDM,1,1,,A,B6:fmS00Bj2;oT3?C6Ajkh34SP00,0*7F
!AIVDM,1,1,,A,B6:fmS00Bj2;oT3?C6Ajkh34SP00,0*7F
!AIVDM,1,1,,B,15Qw5j001g`8P54<t39MBrVV0d<O,0*1F
$GPRMC,011819,A,2230.8187,N,11350.6091,E,000.1,162.0,051219,,*1A
!AIVDM,1,1,,A,16:Ej80PDk89Jc8<mgdhT@Fb0@=U,0*41
!AIVDM,1,1,,A,177nTtAP03`9Bc0<lENmvwvd20SD,0*33
!AIVDM,1,1,,B,E>ldChw;Pb2a@22`:4@HrGK6P0044b4<6JfT000003v01P,4*6A
!AIVDM,1,1,,A,B6:fn@@0022>eh3=rIb>Iic3QP06,0*4D
!AIVDM,1,1,,B,E>ldCi?;Pb2a@22`:4@HrGK6P0044b3T6Jde@00003v01P,4*0F
!AIVDM,1,1,,A,16:EmwP04>88TAL<mupp3VLb0@=w,0*22
!AIVDM,1,1,,A,16:Cfu0P0189<q`<pq1KqOvd2`=v,0*74
!AIVDM,1,1,,B,16:E4HPP00899S@<orqMr?vf0@>1,0*35
!AIVDM,1,1,,B,B6:V4jP0=22Bu`3>5GwCKwcSQP06,0*29
!AIVDM,1,1,,A,169GbH`P0088Kcv<sv8p;gvd2D3w,0*16
$GPRMC,011820,A,2230.8187,N,11350.6091,E,000.1,161.0,051219,,*13
!AIVDM,2,1,1,A16:E7FPOlh`8p;L<ov?Wln@j0<6k,0*5C
 L000Q2b@8C1fhI>P00000,0*04
!AIVDM,2,2,1,A,000000000000000,2*25
!AIVDM,1,1,,B,16:E7FPOlh`8p;L<ov?Wln@j0<6k,0*5C
!AIVDM,1,1,,A,16:EDL?P00`8B5h<t6gv4?vf20SQ,0*0A
!AIVDM,2,1,9,B,569A5cP25Rs<8T5V220d4r1@4r1<4r0P4v2222002Q8jE6Kd0ATj1C`6,0*3D
!AIVDM,2,2,9,B,R1C`88888888880,2*6E
!AIVDM,1,1,,A,377`j?002N89<=6<m29HR6lj064S,0*7B
!AIVDM,1,1,,A,177nTjhP1D`9MQ0<k>Sd>Ovh2@>F,0*44
!AIVDM,1,1,,A,16:Dcq>P0089@qb<o0vkwOvf2@>E,0*2E
!AIVDM,1,1,,A,B6:ij`P0>B2BB03>2uAN;h44SP00,0*00
!AIVDM,1,1,,A,B69G>9c003?8mP=18D003wPN1P06,0*0C
$AIVSD,70,2.9,14,14,050800,08,07,00,*45
!AIVDM,1,1,,B,169FWKPP4d893hn<ntn<Lgvh0D7b,0*45
$PSPC,1,0,1,0,0*0C
$PSPC,1,0,100,,0,0*20
!AIVDM,1,1,,B,16;5I`001`88`UN<q=8uI:fh08>U,0*0C
!AIVDM,1,1,,B,B6:DNJP0022BfRS=r9QaQD;SQP06,0*62
!AIVDM,1,1,,B,16:Ej8004l89Jcj<mh1PS0Fd0D:c,0*21
!AIVDM,1,1,,A,16:fSGPP00`9PHP<j0Ef4?vh20Rh,0*10
$GPRMC,011821,A,2230.8186,N,11350.6091,E,000.1,161.6,051219,,*15
!AIVDM,1,1,,B,C6:D98000J26Bt3?:b3A>WN0V@bLjCWSV00000000000S08G5R00,0*5E
!AIVDM,1,1,,A,169@FkP01m`8O2p<t?6FGU2j0@>j,0*75
!AIVDM,1,1,,A,169GCuPP0088V<f<oqtj>Ovj0<80,0*30
!AIVDM,1,1,,B,16=q?7@01p`8NTr<tGg6BU4`0<<P,0*1A
!AIVDM,1,1,,A,403sl2Qv?2QBH`9E54<noki020S:,0*34
!AIVDM,1,1,,B,B69JeJ;8AC?8mP=18D0s?w`N1P06,0*04
!AIVDM,1,1,,B,B6:fM=h05j2CEAS>=I43@2v021Mk,0*00
!AIVDM,1,1,,A,16;4O2001m`8IUP<veI6QU8f0@>t,0*2B
!AIVDM,1,1,,B,C6:bg=P04S?8mP=18D0Cswd2jb:V@2N>b2L@bOWeQe10S3h33S07,0*72
!AIVDM,1,1,,B,B6:bbO000B2BBF3=sW1N9;N021Mk,0*2E
$GPGGA,011821,2230.8186,N,11350.6091,E,1,08,000.9,084.1,M,-03.0,M,,*67
!AIVDM,1,1,,B,377GN25000899J8<p0u4uT:j0000,0*2E
!AIVDM,1,1,,A,B6:fM=h05j2CEAS>=I43@2v021Mk,0*03
!AIVDM,1,1,,A,B6:bbO000B2BBFS=sW1N1;N021Mk,0*45
!AIVDM,1,1,,A,16:fURHP0q89=<2<obfKOgvh0d3v,0*2A
$AIVSD,70,2.9,14,14,050800,08,07,00,*45
!AIVDM,1,1,,A,169G7sPP1m`9D?t<mdhnfOvj2<?v,0*50
!AIVDM,1,1,,A,177nRghP1T`9Lk0<it49igvj20SG,0*77
$GPRMC,011822,A,2230.8186,N,11350.6091,E,000.1,163.8,051219,,*1A
$PSPC,1,0,1,0,0*0C
$PSPC,1,0,100,,0,0*20
!AIVDM,1,1,,A,16:fO@?P00`8j:@<pPcf4?vl2@?K,0*5B
!AIVDM,1,1,,A,16:hqumP00899fD<p>eP0?vl0<1U,0*6A
!AIVDM,1,1,,A,169G6T0P1A88S3j<rqwFGgvl2PS=,0*1F
!AIVDM,1,1,,B,16:G@P002788Vw@<qTgVDP0l0<?P,0*28
!AIVDM,1,1,,A,16:Cqq000088aU4<tT43tJdl00RQ,0*76
!AIVDM,1,1,,A,B6:iVH@0@j2CmB3=fE5LI9dSQP06,0*0F
!AIVDM,1,1,,B,169GFF0PD;894W8<l28qVo`n0D;k,0*21
!AIVDM,1,1,,B,B6:iVH@0@j2CmB3=fE5LI9dSQP06,0*0C
!AIVDM,1,1,,B,177nS@wP00`9b:n<hkkv4?vl2H?c,0*34
!AIVDM,2,1,8,B,56:R@BP2:=<09Hh?F20PDpN0QDV3:2222222220DL8A@@75=0EPVDH88,0*1F
!AIVDM,2,2,8,B,888888888888880,2*2F
!AIVDM,1,1,,B,177nSthP0A`9BLP<iOnQR?vl2@?i,0*65
!AIVDM,1,1,,A,16:ED:gP0088gV0<psbhMgvh08?h,0*48
$AIVSD,70,2.9,14,14,050800,08,07,00,*45
!AIVDM,1,1,,B,B6:kUPh0;B2BiQ3=dM?:Kwe3QP06,0*23
$GPRMC,011823,A,2230.8186,N,11350.6091,E,000.1,163.6,051219,,*15
!AIVDM,1,1,,B,C6:`6th0022CVH3>4B093wv0J30l@Nc0DB2O1R000000N0D>0U0P,0*6C
$PSPC,1,0,100,,0,0*20
$PSPC,1,0,100,,0,0*20
!AIVDM,1,1,,B,B6:lJaP0022BGuS>9O<sSwe3QP06,0*2D
!AIVDM,1,1,,B,177nUQ@P1C`9`UP<hhbQlOvn20SL,0*09
!AIVDM,1,1,,B,B6:iSl004226BQS?9ovK5t=SQP06,0*03
!AIVDM,1,1,,B,16;co9wP00`8qWP<oVN>4?vn20Rr,0*61
!AIVDM,1,1,,A,B6:lJaP0022BGuS>9O<sSwe3QP06,0*2E
$GPGSV,4,1,13,02,44,117,21,05,40,036,42,06,04,127,*4C
$GPGSV,4,4,13*7B
$GPGSV,4,4,13*7B
$GPGSV,4,4,13*7B
!AIVDM,1,1,,B,177nST@P00`9Jq@<ik;v4?vn20SQ,0*2F
!AIVDM,1,1,,B,177nST@P00`9Jq@<ik;v4?vn20SQ,0*2F
!AIVDM,1,1,,B,177nSC0P?w<tSF0l4Q@>4?wv0h@J,0*00
!AIVDM,1,1,,A,16:Ejr?00189>GN<pD0P05:n2@@K,0*3E
!AIVDM,1,1,,A,16:EL@000388IT2<u=H`nGJp0@@N,0*4F
$GPRMC,011824,A,2230.8185,N,11350.6091,E,000.1,163.0,051219,,*17
!AIVDM,1,1,,A,18M<JN002>`8g9r<mPluhs2f00RU,0*72
!AIVDM,1,1,,A,177nT@PP13`9PR0<isos9Ovp20Rn,0*70
!AIVDM,1,1,,A,169G`t004L`9A8B<mFclrCjr00S9,0*0A
!AIVDM,1,1,,B,15@0lV000T89FT:<lGPM::`r00Sg,0*0A
!AIVDM,1,1,,B,16:foN0P01`9;WP<oW8>4?vp2@@e,0*03
!AIVDM,1,1,,A,177nSDUP0b`9DG0<l4Omb?vp28@g,0*63
!AIVDM,1,1,,A,B6:jpeh03R2CQ3S>1T<<GweW1P06,0*50
!AIVDM,1,1,,A,16:DbQPP1389AbR<nQUErOvn0PSA,0*5A
!AIVDM,1,1,,B,B6:fNOP00b2BjD3=nkp03wf4kP06,0*00
$GPGSA,A,3,13,02,24,21,29,30,05,15,,,,,1.5,0.9,1.2*30
!AIVDM,1,1,,B,16:fouTP01`9Pd@<iuVN4?vp2H@p,0*33
!AIVDM,1,1,,A,B6:fPJ00Aj2DI53=Uro:rR=3QP06,0*60
!AIVDM,1,1,,A,B6:Vl:h0022BRUS=qj0VCwf71P06,0*54
!AIVDM,1,1,,A,16:ICDPk0088jkP<riMuigvP4`A3,0*2E
$GPRMC,011825,A,2230.8185,N,11350.6091,E,000.1,164.3,051219,,*12
!AIVDM,1,1,,A,B6:k`v@0022PIP3>3>lhswf3QP06,0*4E
$GPGGA,011825,2230.8185,N,11350.6091,E,1,08,000.9,083.5,M,-03.0,M,,*63
!AIVDM,1,1,,B,177nTdPP01`9Au@<lF2v4?vr2498,0*3C
!AIVDM,1,1,,A,ENl5B9tUPTh32W3h6Ph:7bh@@@@44aQM6K9`p00003v010,4*1F
!AIVDM,1,1,,A,16:DDOPOlR893ov<k8KqJG`t00S;,0*7A
!AIVDM,1,1,,B,16:ED?g00188l3h<q0qDOJ2n00S<,0*39
!AIVDM,1,1,,B,16:EIc?P0188jR@<q4kT6OvR0U9`,0*46
!AIVDM,1,1,,A,16:EL8P04A`90Br<k@KAq1Rl2HAM,0*73
!AIVDM,2,1,6,B,569GbHP000022222220`Tr0QDV3;7R222222221?0`s:72dD09Qk8888,0*4C
!AIVDM,2,2,6,B,888888888888880,2*21
!AIVDM,1,1,,A,16:fe9PP1D`9D6@<i<BrnOvr20S9,0*2B
!AIVDM,1,1,,A,16:fn0?P00`8jch<pnpf4?vr2@AS,0*2E
$GPRMC,011826,A,2230.8185,N,11350.6091,E,000.1,164.6,051219,,*14
!AIVDM,1,1,,B,177`j?002N89<8L<m1MpRFlv08Ae,0*6B
!AIVDM,1,1,,B,B69GNVbp8B2D4c3=POulaM8V1P06,0*53
!AIVDM,1,1,,A,177nSc0P00`9GE0<i5oN4?vt2@Aj,0*53
!AIVDM,1,1,,B,16:flBgP01`8r0P<od6v4?vt20SM,0*4E
!AIVDM,1,1,,B,B6:bbNh00B2BBJ3=s2ED53N021Mk,0*64
!AIVDM,1,1,,A,16:D3dPP0388IdV<u7lI=?vv08Aq,0*11
!AIVDM,1,1,,A,169FWKPP4c893Qf<nvl<Qwvt00S=,0*2E
!AIVDM,1,1,,B,16:V3:0P0m`994P<lNaougvt20SL,0*63
!AIVDM,1,1,,A,B69FbcK0822<ad3=nj5eqGf61P06,0*0D
!AIVDM,1,1,,B,169GFF004<894N@<l1WqT7Vv00Rw,0*4E
!AIVDM,1,1,,B,C6:fn2P0022<V5S>3GU=cwfR@bC0<:L?0LB2M1iee110S4T75T07,0*61
!AIVDM,1,1,,B,18I9oV0wB5`91Nh<draFRU>v0DBO,0*20
!AIVDM,1,1,,B,18MARV001S`8Ueh<r;j=?bdt0498,0*2C
$GPRMC,011827,A,2230.8185,N,11350.6091,E,000.1,163.5,051219,,*11
!AIVDM,1,1,,A,B6:>RM00022C2<S=i2VJqsg3QP06,0*59
!AIVDM,1,1,,A,B6:cJm00<R2CH4S=irETa@g3QP06,0*59
!AIVDM,1,1,,B,B6:cJm00<R2CH4S=irETa@g3QP06,0*5A
!AIVDM,1,1,,A,169>cq000288isJ<rKG:kQa008BH,0*77
!AIVDM,1,1,,B,13v6Lp801F`8K3T<uOMV1TfT8<G5,0*6C
!AIVDM,1,1,,A,B69FlFs07B2<oa3=lFAgqIrV1P06,0*48
!AIVDM,1,1,,A,B6:Cmw00022A;83=gH8gPV>SQP06,0*51
!AIVDM,1,1,,B,B6:Cmw00022A;83=gH8gPV>SQP06,0*52
!AIVDM,1,1,,A,B6:l;5@0:B2@9R3>6FBbKwgSQP06,0*49
!AIVDM,1,1,,A,16:EmwP04=88T9f<mt5p4FJp0HBf,0*52
$GPRMC,011828,A,2230.8185,N,11350.6091,E,000.1,161.1,051219,,*18
!AIVDM,1,1,,A,169@WGP001896m@<p>Hl>9Fr08Bq,0*6D
!AIVDM,1,1,,B,16:E?Q0P00886AP<s0Alngvv08C0,0*54
!AIVDM,1,1,,B,169GbH`P0088Kcr<sv98;gvv28C0,0*01
!AIVDM,1,1,,B,B6:jhi000B2CJJ3=d7<bbM@3QP06,0*5B
!AIVDM,1,1,,B,16:fmvHP00`8c4h<u?3N4?w020RL,0*41
!AIVDM,1,1,,B,169FWKPP4c893Qf<nvl<Qww00498,0*03
$GPGGA,011828,2230.8185,N,11350.6091,E,1,08,000.9,083.1,M,-03.0,M,,*6A
!AIVDM,1,1,,A,169GFF004<894Ir<l1FIR7W20498,0*32
$GPGSV,4,1,13,02,44,117,26,05,40,036,43,06,04,127,,12,00,196,26*73
$GPGSV,4,4,13*7B
$GPRMC,011829,A,2230.8185,N,11350.6091,E,000.0,158.6,051219,,*15
$GPRMC,011829,A,2230.8185,N,11350.6091,E,000.0,158.6,051219,,*15
!AIVDM,1,1,,A,H6:`6thl61`PuF0`T4v34000000,2*03
$GPRMC,011829,A,2230.8185,N,11350.6091,E,000.0,158.6,051219,,*15
!AIVDM,1,1,,B,B6;cn0P00R2>S;3=vPw>6Th3QP06,0*6E
!AIVDM,1,1,,B,B6:Vbn@06B2B143>TK47d6h3QP06,0*5F
!AIVDM,1,1,,B,B6:bbO000B2BBG3=sVmO5<N021Mk,0*78
!AIVDM,1,1,,B,169GCuPP0088V<d<oqtQQww228Cb,0*2B
!AIVDM,1,1,,A,B6:ECsP00B2BNpS=riq;Lt@3QP06,0*32
!AIVDM,1,1,,B,B6:`IN00>R2C3rS>40oGVd@3QP06,0*57
!AIVDM,1,1,,B,B6:ECsP00B2BNpS=riq;Lt@3QP06,0*31
!AIVDM,1,1,,B,B6:ECsP00B2BNpS=riq;Lt@3QP06,0*31
!AIVDM,1,1,,B,377;Au5000`97bD<onC8ND=00Dg:,0*3C
!AIVDM,1,1,,A,16:D1j0P1489DO<<n0OTJOw20498,0*6B
!AIVDM,1,1,,B,16:EmwP04=88T7R<msTp46Jt00S8,0*4E
!AIVDM,1,1,,B,C6:fr7h0BJ2D@n3=`gIGu6N0l@B@2L?WUh0000000000S0<GS3P0,0*66
!AIVDM,1,1,,B,18M<JN002>`8g8l<mQgMhK2r0@D0,0*73
$GPRMC,011830,A,2230.8185,N,11350.6091,E,000.0,154.2,051219,,*15
!AIVDM,1,1,,B,16:fivhP1>89B9@<n<P=8?w20l;H,0*02
!AIVDM,1,1,,B,10`:DoOP00899Qb<pHKaeOw62@D;,0*09
!AIVDM,1,1,,B,16:CgA0P0089BsV<nQG7Wgw40L7p,0*40
!AIVDM,1,1,,B,H6:fUSm66Deihijhhhhhhh0Hg<30,0*07
!AIVDM,1,1,,B,16:Dcq>P0089@qd<o0w3wOw22498,0*29
$AIVSD,70,2.9,14,14,050800,08,07,00,*45
!AIVDM,1,1,,B,169G`t0PDH`9AEF<mEblo3a608DD,0*26
!AIVDM,1,1,,B,169GFF004<894CB<l0sqPoW608DG,0*57
$PSPC,1,0,1,0,0*0C
$PSPC,1,0,100,,0,0*20
!AIVDM,1,1,,A,B6:jo;Hh<B2BIhS=1RW57whSQP06,0*4A
!AIVDM,1,1,,A,B69G7W;003?8mP=18D003wPN1P06,0*33
$GPGSA,A,3,13,02,24,21,29,30,05,15,,,,,1.5,0.9,1.2*30
$GPRMC,011831,A,2230.8186,N,11350.6091,E,000.0,143.2,051219,,*11
!AIVDM,1,1,,A,177nS@wP00`9b:t<hkmN4?w620Rs,0*4D
!AIVDM,1,1,,B,403sl2Qv?2QBR`9E54<noki02498,0*41
!AIVDM,1,1,,B,16:DDOP04O893ah<k7RIM7a808Dh,0*0B
!AIVDM,1,1,,A,B6:fOw5L?j2C2E3=wDMcswiFkP06,0*19
!AIVDM,1,1,,A,16;5I`001`88`RD<q>CuHJe60L?@,0*36
!AIVDM,1,1,,B,H69KGk1UDFm=DVmUG777WJ22220,2*46
!AIVDM,1,1,,A,C6:lBsP00R2=?U3>KoJNOwhRVc0@b2C0@bO1SWcci110S0DIRS07,0*73
!AIVDM,1,1,,B,16:fURHP0r89=DL<odFeKOw42l3v,0*5F
!AIVDM,1,1,,A,B6:lPb@0=B2Bts3=rvMO5;iSQP06,0*75
!AIVDM,1,1,,A,38Hvr25000897<><osv=jl;20Dg:,0*2F
!AIVDM,1,1,,A,ENl5BVdU4PW3T0TT0W3R0Wh;Hh@D48Qw6G?1H00000N010,4*75
!AIVDM,1,1,,B,?04DOeARU57qP00,2*17
!AIVDM,1,1,,A,16:EmwPOl>88T5H<ms3p3nM00D:1,0*1E
!AIVDM,1,1,,B,B6:lPb@0=B2Bts3=rvMO5<ASQP06,0*59
$AIVSD,70,2.9,14,14,050800,08,07,00,*45
$GPRMC,011832,A,2230.8186,N,11350.6091,E,000.0,133.6,051219,,*11
!AIVDM,1,1,,B,16:DbQPP1189Adl<nQ4mvOw62hE:,0*20
$PSPC,1,0,1,0,0*0C
$PSPC,1,0,100,,0,0*20
!AIVDM,1,1,,B,177nSQ0P00`9QoR<j6aG=?w62@FK,0*57
$GPGGA,011832,2230.8186,N,11350.6091,E,1,08,000.9,082.8,M,-03.0,M,,*6A
!AIVDM,1,1,,A,169GFF004<894A6<l0jqP7W:0L;m,0*4E
!AIVDM,1,1,,B,B6:jw9@0022BklS=rkNH;wiSQP06,0*4A
!AIVDM,1,1,,A,16:QuF001N88u?V<gu1nSmA808EP,0*31
!AIVDM,1,1,,B,169FWKPP4c893G@<o0Ft`Ow80<7s,0*5A
!AIVDM,1,1,,A,169G`t0PDG`9AIj<mEFTlkW:0@EQ,0*1B
!AIVDM,1,1,,A,B69Ff4h0722>g8S=ms`D;wiSQP06,0*54
$AIVSD,70,2.9,14,14,050800,08,07,00,*45
!AIVDM,1,1,,A,16:EL;8P0088g@d<s01jFgw62498,0*41
!AIVDM,1,1,,B,16:flfgP00`9>O@<om;>4?w828Eh,0*73
$GPRMC,011833,A,2230.8186,N,11350.6091,E,000.0,094.0,051219,,*1A
!AIVDM,1,1,,A,16;co9wP00`8qW@<oVN>4?w82<5c,0*5F
!AIVDM,1,1,,B,16:EL@000388IT4<u=Fo9oI<08El,0*24
$PSPC,1,0,100,,0,0*20
$PSPC,1,0,100,,0,0*20
!AIVDM,1,1,,A,B6:fpCP0022Bs@3=m@dKGwj3QP06,0*7E
!AIVDM,1,1,,B,16:=UNQP00`8mo@<s12MSOw:0@Er,0*32
!AIVDM,1,1,,B,16:D17PP0089<Jn<q17h0?w:0@Cv,0*67
!AIVDM,1,1,,B,16:ED:gP0088gV0<psbusww60HF3,0*75
!AIVDM,1,1,,A,177nSC0P?w<tSF0l4Q@>4?wv0PSH,0*2A
!AIVDM,1,1,,A,169G3m0P01899Pj<orl`Cww:08F=,0*45
!AIVDM,1,1,,B,16:hqumP01899fB<p>eP0?w:00S@,0*42
!AIVDM,2,1,8,B,56=q?7D2;u:?A8EJ220L5>0<uE84LF222222221@98F?572`0=j2p22i,0*4A
!AIVDM,2,2,8,B,p88888888888880,2*67
$GPRMC,011834,A,2230.8187,N,11350.6091,E,000.0,032.6,051219,,*16
!AIVDM,1,1,,B,B6:Cw?P04R2=Tk3>0C`;owjTkP06,0*68
!AIVDM,1,1,,A,15@0lV000T89FRv<lGle::a>0HFM,0*5D
!AIVDM,1,1,,A,B6:bbNh00R2BBK3=s29DU3v021Mk,0*52
$GPGSV,4,1,13,02,44,117,22,05,40,036,42,06,04,127,*4F
$GPGSV,4,4,13*7B
$GPGSV,4,4,13*7B
$GPGSV,4,4,13*7B
!AIVDM,1,1,,B,169GFF004=894<R<l0PqOWW>0498,0*3B
!AIVDM,2,1,9,A,577;Au82Ea:5I98WR2104<THT>0EP<DhhDp<F217V`mJW6q?0EDj1Bkm,0*30
!AIVDM,2,2,9,A,H88888888888880,2*5D
!AIVDM,1,1,,A,177nS@?P00`9`kh<hgDf4?w<20Sc,0*5C
$GPRMC,011835,A,2230.8187,N,11350.6091,E,000.0,018.0,051219,,*19
!AIVDM,1,1,,A,169UBuPP1<88hbF<lf`uchQ:0<vp,0*72
!AIVDM,1,1,,B,137K;h0vhu`9RFD<je;<4qS@0@G0,0*3F
!AIVDM,1,1,,B,16:fn0?P00`8jch<pnpf4?w>20S`,0*31
!AIVDM,1,1,,A,16:ED?g00188l3h<q0qDtJ5:0@G9,0*33
!AIVDM,1,1,,B,177nU>hP?w<tSF0l4Q@>4?wv0hG:,0*54
!AIVDM,1,1,,A,177nSK0P00`9aJ@<hnHv4?w>2<;@,0*00
!AIVDM,1,1,,A,177nSK0P00`9aJ@<hnHv4?w>2<;@,0*00
!AIVDM,1,1,,A,B6:Dh4P0=B2AiL3=jtC46Lk3QP06,0*7B
!AIVDM,1,1,,A,16:EmwPPD>88T0t<mr2846K808GD,0*7D
!AIVDM,1,1,,B,16:Ejr?000`9>GN<pD0P05=>2HGE,0*32
$GPGGA,011835,2230.8187,N,11350.6091,E,1,08,000.9,082.2,M,-03.0,M,,*66
!AIVDM,1,1,,B,16:EL8P04B`90VL<kBGAt1S820Rw,0*56
!AIVDM,1,1,,A,B6:Dh4P0=B2AiL3=jtC46Lk3QP06,0*78
!AIVDM,1,1,,B,B6:Dh4P0=B2AiL3=jtC46Lk3QP06,0*78
!AIVDM,1,1,,A,18M<JN002>`8g7b<mRaugc360498,0*2F
$GPRMC,011836,A,2230.8187,N,11350.6091,E,000.0,012.7,051219,,*17
!AIVDM,1,1,,A,16:fouTP01`9Pd@<iuWf4?w@2498,0*65
!AIVDM,1,1,,A,169G`t0PDF`9ARl<mDhlfkUB0D;4,0*7F
!AIVDM,1,1,,A,16;Anv?P0h`8jhh<sC3=5?w@2<=g,0*2D
!AIVDM,1,1,,A,35A1MD100189Dg6<l8ie;@U>0000,0*39
!AIVDM,1,1,,A,169GFF004>89484<l0>qOGWB08Gm,0*7C
!AIVDM,1,1,,A,B6:DGMP02226q43>cKRo>CCSQP06,0*75
!AIVDM,1,1,,A,36:DUa5000`99`L<osa8OIQT0Dg:,0*73
!AIVDM,1,1,,B,169FWKPP4b893@p<o1ILcOw@0498,0*6C
$AITMP,+40,HI,20120413,MB,0*7B
!AIVDM,1,1,,B,B69G>u;H03?8mP=18D003wPN1P06,0*63
!AIVDM,1,1,,B,H6:bbO56?F10200h00000078:860,0*04
$GPRMC,011837,A,2230.8187,N,11350.6091,E,000.0,014.5,051219,,*12
!AIVDM,1,1,,B,B69FbMs0Dj2<FCS>TRaUQAU61P06,0*2C
!AIVDM,1,1,,A,16:fmvHP00`8c4h<u?2v4?w@2@H7,0*1A
!AIVDM,1,1,,B,C69GMn00022B>`3=olIOm8l2jb:V@2N>b2L@bOUeee10S3h33S07,0*5B
!AIVDM,1,1,,A,C69GMn00022B>`3=olIOm<l2jb:V@2N>b2L@bOUeee10S3h33S07,0*5C
!AIVDM,1,1,,A,13v6Lp801D`8K70<uNa644hp8@HA,0*08
!AIVDM,1,1,,A,16:flBgP00`8r0P<od6v4?wB2D>l,0*43
$GPGSA,A,3,13,02,24,21,29,30,05,15,,,,,1.5,0.9,1.2*30
!AIVDM,1,1,,B,169@WGP001896m@<p>HmKaE>0498,0*33
!AIVDM,1,1,,A,403sl4Qv?2QBa`92st<bWLA020S:,0*51
$GPRMC,011838,A,2230.8187,N,11350.6091,E,000.0,013.4,051219,,*1B
!AIVDM,1,1,,A,16:E7FP04h`8op`<opd7oV?D0498,0*03
!AIVDM,1,1,,B,169A5cS000895v@<p5>l6VuF0<;m,0*4F
!AIVDM,1,1,,A,B5S=MJ5000`972T<pB4834CD0000,0*46
!AIVDM,1,1,,B,B6:fjBh0BR2?3NS>HReFq5lSQP06,0*35
!AIVDM,1,1,,B,B6:fjBh0BR2?3NS>HReFq5lSQP06,0*35
!AIVDM,1,1,,A,177nSU0P00`9``P<hg3N4?wD2L9P,0*77
!AIVDM,1,1,,B,169GFF004?8941J<kwm9OGWF08Hs,0*47
!AIVDM,1,1,,B,16:V3:0P0n`992@<lMwowwwD2HHt,0*1B
!AIVDM,1,1,,A,B69G5GJp;22D3c3=H1r6acW61P06,0*7C
!AIVDM,2,1,2,B,56:E@;T000000000001UDD@tpLMD4pLtpO3SKR1J6@f?:vCE0:Tj1C`6,0*26
!AIVDM,2,2,2,B,R1C`88888888880,2*65
!AIVDM,1,1,,B,169G`t004E`9AWL<mDNldSUF0498,0*2C
!AIVDM,1,1,,B,B6:lDkh0?R2CEDS=nj9fuHlSQP06,0*5D
!AIVDM,1,1,,B,16:9qv3P00`9RUP<ib6>4?wD2<O1,0*3C
!AIVDM,1,1,,A,B6:lDkh0?R2CEDS=nj9fuHlSQP06,0*5E
!AIVDM,1,1,,B,16:C1GSP0288LjP<tC;3Dgw@0d6F,0*69
$GPRMC,011839,A,2230.8188,N,11350.6091,E,000.0,015.4,051219,,*13
!AIVDM,1,1,,A,B6:lGpP0@b2C;q3=ni01SwlVSP06,0*59
!AIVDM,1,1,,B,C6:fPJ00Aj2DGeS=V:C=BTDRl@NL>@2L?kSe11111110S0HF3S07,0*52
$GPGGA,011839,2230.8188,N,11350.6091,E,1,08,000.9,081.8,M,-03.0,M,,*6C
!AIVDM,1,1,,B,16:Cp;0P0q88:<n<r5q=AgwF00Sj,0*40
!AIVDM,1,1,,A,38HwHq5001`99R`<oueGbak@0Dg:,0*78
!AIVDM,1,1,,B,16:EL8P04C`90jF<kCQ1u1SD2@IW,0*30
!AIVDM,1,1,,B,E>ldChw;Pb2a@22`:4@HrGK6P0044b4<6JfT000003v01P,4*6A
!AIVDM,2,1,4,A,53==?F42>;TgTP7CWW@<l60<Ln08iDF1LP4hF217Kq6D<74c0NSFD2ip,0*56
!AIVDM,2,2,4,A,888888888888880,2*20
!AIVDM,1,1,,B,16:>7CPP1R`8bmP<m<AoCOwF20S>,0*27
!AIVDM,1,1,,B,E>ldCi?;Pb2a@22`:4@HrGK6P0044b3T6Jde@00003v01P,4*0F
!AIVDM,1,1,,B,16:E7FP04h`8on`<op4Gon?H08Io,0*21
$GPRMC,011840,A,2230.8188,N,11350.6092,E,000.0,027.9,051219,,*12
!AIVDM,1,1,,A,3815AFmw@0898dr<olK2lQGF2000,0*13
!AIVDM,1,1,,B,15R4i40002`8IS6<u;RpsbmJ0DDa,0*5B
$AIVSD,70,2.9,14,14,050800,08,07,00,*45
!AIVDM,1,1,,B,169FWKPP4W893<2<o2=<d?wH0HJ:,0*12
!AIVDM,1,1,,A,169GFF004@893tp<kwTIOWWJ0<;q,0*63
$PSPC,1,0,1,0,0*0C
$PSPC,1,0,100,,0,0*20
!AIVDM,1,1,,B,16:E4HPP00899Q0<ornur?wF0DgU,0*78
!AIVDM,1,1,,A,16;4O2001m`8Ibl<vbsVLU9F00S3,0*1B
!AIVDM,1,1,,B,C6:CmDP00B2BE83=v?d03wv0jNbHB2LDB2OV00000000N0D=SQ0P,0*74
$GPRMC,011841,A,2230.8188,N,11350.6092,E,000.1,035.9,051219,,*11
!AIVDM,1,1,,B,B6:bbO000B2BBHS=sVeJ58N021Mk,0*1E
!AIVDM,1,1,,B,16;5I`001`88`ON<q?HuIbeJ0<?@,0*0D
!AIVDM,1,1,,A,403sl2Qv?2QBd`9E54<noki028JU,0*66
!AIVDM,1,1,,A,16:CgA0P0089Bs`<nQGG:gwJ0@JV,0*41
!AIVDM,1,1,,A,16:CgA0P0089Bs`<nQGG:gwJ0@JV,0*41
!AIVDM,1,1,,A,16:4AF0001`8kb@<rOSv40kJ2498,0*3E
!AIVDM,1,1,,B,16:QuF001N88uA6<gt8FUUAJ0@Ja,0*06
!AIVDM,1,1,,B,H69KGk4N6DeiphjiiiqnPP0h7120,0*59
!AIVDM,1,1,,B,368uU:g01688JU6<t`J<o:mJ01r0,0*14
!AIVDM,1,1,,B,B6:lGpP0@b2C;q3=nj@1Owm6SP06,0*54
!AIVDM,1,1,,A,177nTjhP1D`9MDh<k?nd;OwJ2DDu,0*5E
!AIVDM,1,1,,A,10`:DoOP00899Qp<pHJ9mwwL2@Jt,0*4A
!AIVDM,1,1,,B,16:E7FP04g`8olb<ooLGo6?L0498,0*3D
!AIVDM,1,1,,B,16=q?7@01q`8NdV<tE8FBU5D0@Jw,0*2A
!AIVDM,1,1,,B,16=q?7@01q`8NdV<tE8FBU5D0@Jw,0*2A
$AIVSD,70,2.9,14,14,050800,08,07,00,*45
$GPRMC,011842,A,2230.8189,N,11350.6092,E,000.1,030.9,051219,,*16
$PSPC,1,0,1,0,0*0C
$PSPC,1,0,100,,0,0*20
!AIVDM,1,1,,A,169G6T0P1B88S8H<rpBFF?wL2T98,0*12
!AIVDM,1,1,,B,B69Fbws003?8mP=18D003wPN1P06,0*0C
!AIVDM,1,1,,A,B6:kRW@00B2A?lS>Rf:SJ2nSQP06,0*56
!AIVDM,2,1,1,B,52vhenh00002222222222222222222222222220Nwwwww4000wp88888,0*6D
!AIVDM,2,2,1,B,888888888888888,2*2E
!AIVDM,1,1,,B,169G`t0PDC`9AhN<mCrlaSQN0<;5,0*32
!AIVDM,1,1,,B,16:EL;8P0088g@b<s03RFgwJ2@KF,0*7A
!AIVDM,1,1,,A,169G7sPP1n`9DB@<mb66p?wL28KI,0*14
$GPGGA,011842,2230.8189,N,11350.6092,E,1,08,000.9,081.2,M,-03.0,M,,*68
!AIVDM,1,1,,A,16:Cbb8P0088Tu8<osT5DgwL2@KP,0*19
!AIVDM,1,1,,B,36;=5l500088KN0<t6p@05AJ0E0:,0*70
$AIVSD,70,2.9,14,14,050800,08,07,00,*45
!AIVDM,2,1,2,A,56:V4@h000022222220MD4r1UDr3:0P4v222221J4p`6@4000:888888,0*75
!AIVDM,2,2,2,A,888888888888888,2*2E
$GPRMC,011843,A,2230.8189,N,11350.6092,E,000.1,029.8,051219,,*1E
$PSPC,1,0,1,0,0*0C
$PSPC,1,0,100,,0,0*20
!AIVDM,1,1,,A,36:`6tm00089>IP<pA80T?v00000,0*68
!AIVDM,1,1,,B,16:DDOP04U893<r<k5k9RWiP0@Kr,0*6F
!AIVDM,1,1,,A,ENl5BU<U4PW3T0TT0W3R0Wh;Jh@D47vU6GNDP00000N010,4*3A
!AIVDM,1,1,,B,H69GRM1<PV1@4V37SSR22222220,2*74
!AIVDM,1,1,,B,16:E7FPOlg`8oj`<onlWo6?P0<6m,0*62
!AIVDM,1,1,,A,16:hqumP01899fB<p>e00?wN0<5b,0*1D
!AIVDM,1,1,,B,B6:DqGP0:R2@em3>=lc4vMoSQP06,0*60
$GPRMC,011844,A,2230.8189,N,11350.6092,E,000.1,030.0,051219,,*19
!AIVDM,1,1,,B,169GM1UP1d`9FBH<n7epd79N28MK,0*3D
!AIVDM,1,1,,A,15TJrL1vP0`9Cn0<lc1h01GN00RJ,0*1B
!AIVDM,1,1,,B,B6:k?Q@0Aj28W1S>h>ibSwoSQP06,0*76
!AIVDM,1,1,,B,C6:E8100022>n5S>AGoENbnRjb:V@2N>b2L@bOWUSS10S3H6SS07,0*2F
!AIVDM,1,1,,B,B6:`Hm@0;j2BSB3>9ruB;woSQP06,0*68
!AIVDM,1,1,,A,169GFF004A893n4<kw:IOoaR0@LO,0*71
!AIVDM,1,1,,A,169G`t0PDB`9Am4<mCaTWkMR0L;5,0*1A
!AIVDM,1,1,,B,16:fouTP01`9Pd@<iu`>4?wP2HLQ,0*79
!AIVDM,1,1,,A,C6:E8100022>n5S>AGoENbnRjb:V@2N>b2L@bOWUSS10S3H6SS07,0*2C
$GPGSV,4,1,13,02,44,117,21,05,40,036,42,06,04,127,,12,00,196,28*7B
$GPGSV,4,4,13*7B
$GPGSV,4,4,13*7B
$GPGSV,4,4,13*7B
!AIVDM,1,1,,B,15@0lV000S89FQP<lH<e9raR0HLh,0*2B
$GPRMC,011845,A,2230.8189,N,11350.6092,E,000.1,024.3,051219,,*1E
!AIVDM,1,1,,B,36:=1<000=`8Kq:<t56t`7IR0Rk1,0*34
!AIVDM,1,1,,A,16:V3:0P0p`990@<lMWH2?wR2@Lp,0*10
!AIVDM,1,1,,A,C6:fr7h0Bb2DBW3=`MmIa7v0l@B@2L?WUh0000000000S0<GS3P0,0*5B
!AIVDM,1,1,,A,16:Ejr?00089>GN<pD0P05=R2498,0*7A
$GPGSA,A,3,13,02,24,21,29,30,05,15,,,,,1.5,0.9,1.2*30
!AIVDM,1,1,,A,36:fn0?P00`8jch<pnpf4?wR20Dk,0*40
!AIVDM,1,1,,B,16;AlAPP0088k6n<pH@93?wP20S9,0*78
!AIVDM,1,1,,A,16:EL8PPDC`90t8<kDO1u1QN20S9,0*56
!AIVDM,1,1,,A,16:EL8PPDC`90t8<kDO1u1QN20S9,0*56
!AIVDM,1,1,,B,177nTdPP03`9AtP<lF1f4?wR28MC,0*1E
$GPRMC,011846,A,2230.8190,N,11350.6092,E,000.1,018.7,051219,,*1E
!AIVDM,1,1,,A,16:fPap003`9;40<ns3::PAT2HMJ,0*43
!AIVDM,1,1,,A,16:E7FPOlf`8ohT<on=7o6EV08ML,0*45
!AIVDM,2,1,9,B,56:hqul000000000000MD4pNm4T4ro33<000000t10=336vdk2Tj1KBk,0*65
!AIVDM,2,2,9,B,mKAhCQh00000008,2*63
!AIVDM,1,1,,B,16:ED?g00188l3h<q0nlOr5P0D@k,0*3F
!AIVDM,1,1,,B,169G`t0PDB`9Aqf<mCIDU3KV08MS,0*53
$GPGGA,011846,2230.8190,N,11350.6092,E,1,07,001.1,081.3,M,-03.0,M,,*63
!AIVDM,1,1,,A,169FWKPP4e8932L<o3n<fOwT08MU,0*77
!AIVDM,1,1,,B,13v6Lp801D`8K:8<uMo62Di:88M`,0*62
!AIVDM,1,1,,B,169GFF004A893iP<kvqIOoaV0<;q,0*6A
!AIVDM,1,1,,B,ENl5BVL54PW3T0TT0W3R0Wh;K@@D47Hl6GM7H00000N010,4*6C
!AIVDM,1,1,,B,18MARV001S`8UWP<r=l=?beT0@Mr,0*4D
!AIVDM,1,1,,B,15TJrL1w01`9Cn0<lc1001GV0L2B,0*2C
!AIVDM,1,1,,B,19NSRbw000898Td<oaeSdHET08Mu,0*47
$GPRMC,011847,A,2230.8190,N,11350.6092,E,000.1,016.5,051219,,*13
!AIVDM,1,1,,B,16:flBgP01`8r0P<od6v4?wT2HMw,0*33
!AIVDM,1,1,,B,16;Anv?P0g`8jfh<sCPu0?wT2D=i,0*63
!AIVDM,1,1,,B,B69GJa00=22=Te3>2oTg@Uq7QP06,0*02
!AIVDM,1,1,,B,16:DDOPOlU89332<k5?aT7m`0498,0*15
!AIVDM,1,1,,B,177nU=@P?w<tSF0l4Q@>4?v60PS:,0*12
!AIVDM,1,1,,A,B6:l?a@0;22ATJS=ps?5swq3QP06,0*68
!AIVDM,1,1,,B,B6:Vbnh00B2BFbS=t35;ptq3QP06,0*29
!AIVDM,1,1,,A,36:E@;QP00`8m<@<oV6v4?wV2Dvr,0*72
!AIVDM,1,1,,A,18M<JN002=`8g5N<mTE=fs5L00S2,0*61
!AIVDM,1,1,,B,403su0Av?2QBk`6t<:<eIei02@NN,0*1C
!AIVDM,1,1,,A,B6:fn003wk?8mP=18D3Q0013QP06,0*62
$GPRMC,011848,A,2230.8190,N,11350.6092,E,000.1,016.5,051219,,*1C
!AIVDM,1,1,,B,177nSU0P00`9``P<hg2v4?w`28Nd,0*5E
!AIVDM,1,1,,B,169FWKPP4a892wL<o4GLgOw`08Nh,0*61
!AIVDM,1,1,,B,1815GUh01l88gNh<mdNejc5`08Nk,0*11
!AIVDM,1,1,,A,16:fmUh00088rKP<on2Jp8r01P06,0*5C
!AIVDM,1,1,,A,177nQ?0P01`9Ao@<lFJf4?w`2DT`,0*25
!AIVDM,1,1,,A,B6:bbO000B2BBI3=sVaHI6v021Mk,0*30
!AIVDM,1,1,,A,169G`t0PDB`9AvN<mC:lQkEb0<;5,0*56
!AIVDM,2,1,1,B,53v6Lp82EAiu<m04001@P`DiH5800000000000153Rd@@72d0?4i@E4R,0*62
!AIVDM,2,2,1,B,@C0000000000000,2*25
!AIVDM,1,1,,A,169A5cS001895v<<p5?=?Vwb08Nq,0*23
!AIVDM,1,1,,B,16:fbQPP1089Ahh<nP8F3wwT2`Nv,0*5F
!AIVDM,1,1,,B,16:DbQPP1089Ah3=sVaHI6v021Mk,0*33
!AIVDM,1,1,,B,B6:bbO000B2BBI3=sVaHI6v021Mk,0*33
!AIVDM,1,1,,B,B6:kbu@0022<iHS>BA<241pSQP06,0*0B
$GPRMC,011849,A,2230.8190,N,11350.6092,E,000.1,013.9,051219,,*14
!AIVDM,1,1,,A,16:D1j0P1589DbN<n02D;ww`0498,0*43
!AIVDM,1,1,,B,16:Dcq>P0089@qd<o0vkwOw`2498,0*22
!AIVDM,1,1,,B,36:EL=U00388HaT<ubsb@Gad0Dub,0*6E
!AIVDM,1,1,,A,B6:V4jP0=j2BtA3>5hCEKwr3QP06,0*3E
 `00000N010,4*1B
!AIVDM,1,1,,A,B6:V4jP0=j2BtA3>5hCEKwr3QP06,0*3E
!AIVDM,1,1,,A,16:9qv3P00`9RUP<ib6>4?wb2<O2,0*1A
!AIVDM,1,1,,B,16:EDL?P00`8B5@<t6g>4?wb2HOM,0*14
$GPGGA,011849,2230.8191,N,11350.6092,E,1,07,001.1,081.1,M,-03.0,M,,*6F
!AIVDM,1,1,,A,168uqL0000`8HMF<ufBt>7mb0HO`,0*02
!AIVDM,1,1,,B,B69Fr1rpCR2Fc33=1fAS1>K61P06,0*04
$GPRMC,011850,A,2230.8191,N,11350.6092,E,000.1,010.7,051219,,*10
!AIVDM,1,1,,B,16:fivhP1?89B3@<n>3M5Owb0`Oi,0*6C
!AIVDM,1,1,,A,36:E7FPOle`8od@<om07qnIf00SA,0*33
$GPGSV,4,1,13,02,44,117,18,05,40,036,43,06,04,127,,12,00,196,27*7F
$GPGSV,4,4,13*7B
$GPGSV,4,4,13*7B
$GPGSV,4,4,13*7B
!AIVDM,1,1,,A,15Qw5j001g`8OpT<t6p=?JW`0d<O,0*68
!AIVDM,1,1,,A,15Qw5j001g`8OpT<t6p=?JW`0d<O,0*68
!AIVDM,1,1,,B,169G`t0PDB`9B3D<mBtTN3Ef0<;5,0*2D
!AIVDM,1,1,,A,16:FWKPP4`892tL<o4rdhOwd0498,0*5D
!AIVDM,1,1,,A,169FWKPP4`892tL<o4rdhOwd0498,0*5D
$AIVSD,70,2.9,14,14,050800,08,07,00,*45
!AIVDM,1,1,,A,B6:CmB000:2BE?3=v;s=gws6SP06,0*59
$PSPC,1,0,1,0,0*0C
$PSPC,1,0,100,,0,0*20
$GPRMC,011851,A,2230.8191,N,11350.6092,E,000.1,010.9,051219,,*1F
!AIVDM,1,1,,B,16:HVL001W88gm8<m:9uds3b08PG,0*60
!AIVDM,1,1,,B,169G7sPP1n`9DBn<ma4Vp?wd2498,0*7F
!AIVDM,1,1,,B,16:DDOPPDV892pv<k4fqaokh0<9=,0*01
!AIVDM,1,1,,B,36:@4HQP00887wR<r>m=Lwwf2000,0*3D
!AIVDM,1,1,,B,16:fURHP0o89=At<oeMePwwd2d3v,0*0E
!AIVDM,1,1,,A,B6:fMjh0022BGl3=t1HV4NK3QP06,0*78
!AIVDM,1,1,,B,16:4AF0000`8kb@<rOSv40mf2DTp,0*43
!AIVDM,1,1,,B,16:EL8P04B`915l<kEMisiO`28Pe,0*32
!AIVDM,1,1,,A,16:E4HPP00899Q0<ornur?wb0498,0*1C
!AIVDM,1,1,,B,16:CgA0P0089Bsd<nQGG7Owf0@Pj,0*69
!AIVDM,1,1,,A,16:G@P002788W:h<qPq6Ch1d0498,0*6D
!AIVDM,1,1,,B,16:E7FPOle`8oar<olJGt6Kh0498,0*48
$AIVSD,70,2.9,14,14,050800,08,07,00,*45
$GPRMC,011852,A,2230.8191,N,11350.6092,E,000.1,010.4,051219,,*11
$GPGSA,A,3,13,02,24,21,29,05,15,,,,,,1.8,1.1,1.4*31
$PSPC,1,0,100,,0,0*20
$PSPC,1,0,100,,0,0*20
!AIVDM,1,1,,B,36:fpUAP01`8gGP<pR8N4?wh2DWr,0*4E
!AIVDM,1,1,,B,177nSQ0P01`9QoH<j6aW=?wf2<?v,0*34
!AIVDM,1,1,,A,C6:fM=P00B2=k?S>>b>TmFKRjb:V@2N>b2L@bO1UWee0S3`4SS07,0*78
!AIVDM,1,1,,A,169GFF004B893SP<kv49P7Wj0HQ7,0*70
!AIVDM,1,1,,B,169G6T0P1B88S:b<roL6GOwh2hQ5,0*54
!AIVDM,1,1,,A,B6:iVH@0@j2Cop3=eo9JQ8KSQP06,0*2A
!AIVDM,1,1,,B,16:fNp@P0289=BB<nm:<IOwh0L0j,0*68
!AIVDM,1,1,,A,169v:Q?P008990f<oqQi1wwh0498,0*42
!AIVDM,1,1,,A,16:EL;8P0088g@b<s03RFgwh2D3w,0*16
!AIVDM,1,1,,A,B6:kUPh0;j2BgUS=dho:kwt3QP06,0*26
!AIVDM,1,1,,B,16:Cbb8P0088Tun<osW9owwh2498,0*32
!AIVDM,1,1,,B,16:WjQ0P0088HM0<ta=Ltn5f0hQH,0*71
$AIVSD,70,2.9,14,14,050800,08,07,00,*45
$GPRMC,011853,A,2230.8191,N,11350.6092,E,000.1,006.5,051219,,*16
!AIVDM,1,1,,A,;03sl4Qv?2QBp892tJ<bWNQ00000,0*57
!AIVDM,1,1,,A,B6:fM=h05R2CE=3>=UWOBjv021Mk,0*7E
$PSPC,1,0,1,0,0*0C
$PSPC,1,0,100,,0,0*20
!AIVDM,1,1,,A,B69FdTs88R2A7u3>JVPd0QR61P06,0*56
!AIVDM,2,1,4,A,568rOoT000000000000MD4pN14T4r3334000000t18<33vv=034j1C`6,0*3A
!AIVDM,2,2,4,A,R1C`00000000000,2*60
!AIVDM,2,1,4,A,568rOoT000000000000MD4pN14T4r3334000000t18<33vv=034j1C`6,0*3A
!AIVDM,2,2,4,A,R1C`00000000000,2*60
$GPGGA,011853,2230.8191,N,11350.6092,E,1,07,001.1,080.9,M,-03.0,M,,*6D
!AIVDM,1,1,,B,177Il29PF@89RQd<jPqJDoud08Qi,0*3D
!AIVDM,1,1,,A,16:EL8PPDC`91;d<kF3isAOf2D;n,0*69
!AIVDM,1,1,,A,18I9oV00j4`91UL<dnlVQU?l0000,0*12
!AIVDM,1,1,,A,36:=1<000=`8KpF<t5><UGGj0Rt1,0*66
!AIVDM,1,1,,A,B6:fNOP00:2Bj?3=nld03wtTkP06,0*41
!AIVDM,1,1,,A,369@>E100188`7P<tdv2P:ej0Dnb,0*53
!AIVDM,1,1,,A,16:E7FP04e`8oWL<oklWvFKl0L6m,0*01
!AIVDM,1,1,,A,C6:Vbn@0522B1JS>TTd8L7tRjb:V@2N>b2L@bOUUii10S302RSP7,0*31
$GPRMC,011854,A,2230.8191,N,11350.6092,E,000.1,002.0,051219,,*10
!AIVDM,1,1,,A,15@0lV000S89FPD<lHP=5ran0HR7,0*78
!AIVDM,1,1,,B,16:D17PP0089<Jl<q17@0?wl0498,0*5B
!AIVDM,1,1,,B,16:Ejr?001`9>GN<pD0P05=j2<1r,0*52
!AIVDM,1,1,,B,16:==H0P1188tcD<hdPMSK5h0498,0*0E
!AIVDM,1,1,,B,169G`t0PDB`9B=2<mBS4GkCn08RD,0*51
!AIVDM,1,1,,B,169GFF0PDC893Nr<kujaOoUn0L;t,0*34
!AIVDM,1,1,,B,33ku:I@Ohv`8KTd<tVS2sRWj00vh,0*07
!AIVDM,1,1,,A,16:ED?g00188l3h<q0nlJJ7j08RV,0*6A
!AIVDM,1,1,,B,B6:iVH@0@j2CouS=en=Ja8L3QP06,0*1E
$GPRMC,011855,A,2230.8190,N,11350.6092,E,000.0,357.5,051219,,*17
!AIVDM,1,1,,A,16:foN0P01`9;W@<oW:f4?wl2@Rc,0*43
!AIVDM,1,1,,B,?04DOeAiu`21P00,2*1C
!AIVDM,1,1,,A,ENl4Ghw3ah;TW2@30a6hHHh@@@@D4DMs6Eic@00003v000,4*4B
!AIVDM,1,1,,A,;04SGSAv?2QBr8:JqF<lb8o00000,0*2F
$GPGSV,4,1,13,02,44,117,26,05,40,036,44,06,04,127,,12,00,196,26*74
$GPGSV,4,4,13*7B
$GPGSV,4,4,13*7B
$GPGSV,4,4,13*7B
!AIVDM,1,1,,A,177nTdPP03`9AtP<lF0v4?wn20Sn,0*0B
!AIVDM,1,1,,A,177`j?002N89;e:<luGHMVh00DBF,0*22
!AIVDM,1,1,,A,16:flBgP00`8r0P<od6v4?wn2L>m,0*66
!AIVDM,1,1,,B,16:E7FP04e`8oTt<ok?806J0049<,0*48
$GPRMC,011856,A,2230.8190,N,11350.6092,E,000.0,345.6,051219,,*14
!AIVDM,1,1,,A,16:EIc?P0088jRh<q4kTHOwP0t@L,0*65
!AIVDM,1,1,,A,B69GNVbp8B2D4L3=P>umqN8V1P06,0*1C
!AIVDM,2,1,1,A,56:Emw`2FV7d985b221PTr0P4V0hT4pN2222220`1`K1972b051VKBVd,0*0A
!AIVDM,2,2,1,A,fKt>H8888888880,2*32
!AIVDM,1,1,,A,36:=OCUP00`8g20<rL?N4?v02Do:,0*0D
!AIVDM,1,1,,B,B6:bbO000B2BBIS=sVMMU:v021Mk,0*6A
!AIVDM,1,1,,B,B6:fOd@01B2Bg`S=ssaGe:uSQP06,0*64
$GPGGA,011856,2230.8190,N,11350.6091,E,1,08,000.9,080.7,M,-03.0,M,,*62
!AIVDM,1,1,,B,16:fN0@00189:th<odMdWr<01P06,0*06
$GPRMC,011857,A,2230.8190,N,11350.6091,E,000.0,305.3,051219,,*17
!AIVDM,1,1,,A,C6:fMF@0022BLN3=rH6n>4P2jb:V@2N>b2L@bOUWUU10S2d53RP7,0*22
!AIVDM,1,1,,B,169@WGP000896m@<p>HpB9En00Sl,0*14
!AIVDM,1,1,,A,16:fmvHP00`8c4h<u?2v4?v22DBc,0*33
!AIVDM,1,1,,B,B69FlFs0722<o`3=l75jqKrV1P06,0*30
!AIVDM,1,1,,A,177nU=@P?w<tSF0l4Q@>4?v60d3w,0*08
!AIVDM,1,1,,B,16:EmwP04>88SWb<mlJp8nOl049<,0*38
!AIVDM,1,1,,B,177nSgPP00`9D;h<lO<v4?v22<PM,0*09
!AIVDM,1,1,,B,B6:l;5@0:B2@6bS>6H6cOwPSQP06,0*5D
!AIVDM,1,1,,A,403sl4Qv?2QC1892st<bWLA0049<,0*32
!AIVDM,1,1,,B,16:fnB0P01`9Ggh<iH7>4?v22@1?,0*05
$GPRMC,011858,A,2230.8190,N,11350.6091,E,000.0,292.2,051219,,*16
$GPRMC,011858,A,2230.8190,N,11350.6091,E,000.0,292.2,051219,,*16
!AIVDM,1,1,,A,1815GUh01l88gMl<meM=jc400@1A,0*33
!AIVDM,1,1,,B,169G`t004B`9BFl<mB:TCCB60@1J,0*0D
$GPGSA,A,3,13,02,24,21,29,30,05,15,,,,,1.5,0.9,1.2*30
!AIVDM,1,1,,A,33ku:I@Oi0`8KVp<tV`30R`200qA,0*65
!AIVDM,1,1,,A,169FWKPP4T892h2<o74Ld?v40@1W,0*58
!AIVDM,2,1,1,A,56:fN0@000022222221UDE<P4tMD4pQDw;;3V2165@86540007888888,0*0C
!AIVDM,2,2,1,A,88888888888?p88,2*62
!AIVDM,1,1,,B,E>ldCi?;Pb2a@22`:4@HrGK6P0044b3T6Jde@00003v01P,4*0F
!AIVDM,1,1,,A,C6:>RM00022C2<S=i2VJqsQ242O0jc0<:L?0DBM11110`2H4RQP7,0*49
!AIVDM,1,1,,B,E>ldChw;Pb2a@22`:4@HrGK6P0044b4<6JfT000003v01P,4*6A
!AIVDM,1,1,,A,B6;:0lP00:2;lf3>WS6q?wQ73P00,0*65
$GPRMC,011859,A,2230.8190,N,11350.6091,E,000.0,295.7,051219,,*15
!AIVDM,1,1,,B,169A5cS001895v><p5>7eW08081q,0*10
!AIVDM,1,1,,A,177nSU0P00`9``P<hg2N4?v6281r,0*5B
!AIVDM,1,1,,B,16:9qv3P00`9RUP<ib5f4?v6281u,0*2A
!AIVDM,1,1,,B,ENl4Gi?3ah;TW2@30a6hHI@@@@@D4F3H6Dif000003v000,4*1B
!AIVDM,1,1,,B,B6:Vbn@04j2B1M3>TVH7t613QP06,0*24
!AIVDM,1,1,,A,B6:`IN00>j2C2bS>4NODJaQ3QP06,0*28
!AIVDM,1,1,,B,177nQ?0P02`9Ao@<lFHv4?v6249<,0*21
!AIVDM,1,1,,A,16:Dcq>P0089@qb<o0w3wOv42<3v,0*67
!AIVDM,1,1,,B,16:EL8PPDC`91EB<kG31o1H02D;p,0*48
!AIVDM,1,1,,A,177nTtAP03`9Bch<lEFm>?v620S0,0*45
!AIVDM,1,1,,B,16:Cp;0P0r88:8p<r71e9gv620S0,0*12
!AIVDM,1,1,,A,18M<JN002=`8g3J<mV:ehK40082I,0*1F
$GPRMC,011900,A,2230.8190,N,11350.6091,E,000.0,293.0,051219,,*19
!AIVDM,1,1,,A,16:4AF0002`8kb0<rOSv40j6282M,0*42
!AIVDM,1,1,,A,B6:Cw?P0522=U:3>0L4;KwQTkP06,0*1E
!AIVDM,1,1,,B,16:E7FP04f`8oP0<oj4H26H:00Rw,0*5F
!AIVDM,2,1,4,A,56:R6GT000000000001PTr0L4pN1ADv3J22222162@D666sg0<S@H6R3,0*44
!AIVDM,2,2,4,A,mH10Cp888888880,2*37
$GPGGA,011900,2230.8190,N,11350.6091,E,1,08,000.9,080.5,M,-03.0,M,,*62
!AIVDM,1,1,,B,15R4i40002`8IRj<u;O8OrlSQP06,0*17
!AIVDM,1,1,,A,B6:fQ1h0<R2E3TS=FpiQe>0SQP06,0*17
!AIVDM,1,1,,A,16:EDL?P00`8B5h<t6ff4?v820SV,0*42
!AIVDM,1,1,,B,169FWKPP4`892dv<o7W<ggv80D80,0*09
!AIVDM,1,1,,B,177nSU@P?w<tSF0l4Q@>4?wv0`2e,0*33
$AIVSD,70,2.9,14,14,050800,08,07,00,*45
!AIVDM,1,1,,A,16:CgA0P0089BsV<nQIP0?v80<7v,0*6E
!AIVDM,1,1,,B,B6:jo5@0<R2BGM3=enG6kwQSQP06,0*52
$PSPC,1,0,1,0,0*0C
$PSPC,1,0,100,,0,0*20
!AIVDM,1,1,,B,D03su0@@LNfp00N000,4*3A
$GPRMC,011901,A,2230.8190,N,11350.6091,E,000.0,294.9,051219,,*16
!AIVDM,1,1,,A,16:fivhP1>89AwP<n>rM6Ov80`31,0*04
!AIVDM,1,1,,A,169G7sPP1m`9DCn<mWkFngv820SR,0*18
!AIVDM,1,1,,A,403sl2Qv?2QC4`9E54<noki020S:,0*49
!AIVDM,1,1,,B,B6:fOw:@?j2C2q3=vkidowRFkP06,0*07
!AIVDM,1,1,,A,177nTjhP1D`9M8h<kA5t>Ov:249<,0*27
!AIVDM,1,1,,A,177nSk0P00`9HSh<i8sv4?v:2<gB,0*0F
!AIVDM,2,1,3,A,577`j?42>dmqI8MO:20l4E9<f1<4hTp62222221:NAL>M73`0Phk`4j2,0*10
!AIVDM,2,2,3,A,wPk`3Qh`8888880,2*61
!AIVDM,1,1,,B,B6:lPb@0=B2BveS=rUmOq<RSQP9<,0*08
!AIVDM,1,1,,A,16:fO@?P00`8j:@<pPcf4?v:249<,0*08
!AIVDM,1,1,,B,H6:Vl:hPDpLQDW??:2222222220,2*59
!AIVDM,1,1,,A,16:Cbb8P0088Tuf<os`Iowv:283P,0*43
$AIVSD,70,2.9,14,14,050800,08,07,00,*45
$GPRMC,011902,A,2230.8190,N,11350.6091,E,000.0,305.4,051219,,*11
!AIVDM,1,1,,A,10`:DoOP00899Qv<pHHamOv<2H3W,0*0D
!AIVDM,1,1,,A,36:>fmQ1P088aCj<tIUSfJd60P00,0*7D
$PSPC,1,0,1,0,0*0C
$PSPC,1,0,100,,0,0*20
!AIVDM,1,1,,A,169G6T0P1A88S<v<rnUVFOv<2`3c,0*56
!AIVDM,1,1,,A,ENl4GiO3ah;TW2@30a6hHIh@@@@D4>o@6E7H800003v000,4*15
!AIVDM,1,1,,A,369;685P00`7g90<rkK>4?v<2DNJ,0*10
!AIVDM,1,1,,B,169G`t0OlC`9BPh<mAiDBCF>083h,0*2C
!AIVDM,1,1,,B,16:EL;8P0388g@b<s04RTwv:20S;,0*18
!AIVDM,1,1,,B,169v:Q?P008991h<oqLi1wv<0<;Q,0*65
!AIVDM,1,1,,A,16:fNp@P0289=B2<nm9shwv<0L1b,0*12
!AIVDM,1,1,,A,16:D17PP0089<Jj<q16h0?v<049<,0*22
$AIVSD,70,2.9,14,14,050800,08,07,00,*45
$GPRMC,011903,A,2230.8190,N,11350.6091,E,000.0,315.7,051219,,*12
$PSPC,1,0,1,0,0*0C
$PSPC,1,0,100,,0,0*20
!AIVDM,1,1,,A,16:hqumP01899f><p>d00?v>0<3a,0*14
!AIVDM,1,1,,A,16:flfgP00`9>O0<om;>4?v>284I,0*57
!AIVDM,1,1,,B,?04DOeAR`T4aP00,2*50
!AIVDM,1,1,,A,16:ED:gP0088gV0<psbtiOv:0<8e,0*04
$GPGGA,011903,2230.8191,N,11350.6090,E,1,08,000.9,080.5,M,-03.0,M,,*61
!AIVDM,1,1,,B,16:E7FP04f`8oJr<ohpp2nH@0@4e,0*5F
$GPRMC,011904,A,2230.8191,N,11350.6090,E,000.0,319.5,051219,,*1B
!AIVDM,1,1,,B,15@0lV000R89FO6<lHmu5r`@0<?i,0*0A
!AIVDM,1,1,,A,H6:bbO1UDE<P4tMD4pQDwK;7H00,2*46
!AIVDM,1,1,,B,168wUBPP00884gl<raJBg?v>20S9,0*1A
!AIVDM,1,1,,A,169GFF004C8938H<ktCqIWPB00S>,0*1A
!AIVDM,1,1,,B,169FWKPP4a892W><o8dtk?v@0@55,0*27
!AIVDM,1,1,,A,16:Ejr?00089>GT<pD1@05<@249<,0*66
!AIVDM,1,1,,B,16:E8QP000899v@<pUl;6pB01P06,0*47
!AIVDM,1,1,,A,137K;h0w@t`9R9H<jfMd2qPB0L>v,0*7E
!AIVDM,1,1,,B,16:foN0P01`9;W@<oW;v4?v@249<,0*3C
$GPRMC,011905,A,2230.8191,N,11350.6090,E,000.0,320.6,051219,,*13
!AIVDM,1,1,,B,ENl5B<N64h<4W@80Th@@@@@@@@@456R>6AjWH00003v010,4*6F
!AIVDM,1,1,,B,16;Anv?P0f`8jc0<sDIds?vB2D=l,0*61
!AIVDM,1,1,,A,177nSDUP0a`9DOP<l2vUeOvB2D7c,0*45
!AIVDM,1,1,,B,18MARV001S`8UQT<r?ae?bb@0@5W,0*56
!AIVDM,1,1,,B,369GEGU000`8mq0<s1V>44NB2Dob,0*2C
$GPGSV,4,1,13,02,43,118,30,05,40,036,43,06,04,127,,12,00,196,25*7F
$GPGSV,4,4,13*7B
$GPGSV,4,4,13*7B
$GPGSV,4,4,13*7B
!AIVDM,1,1,,A,36:4Ou5000`8hK@<s7qVmbjB0DG:,0*58
!AIVDM,1,1,,B,177nTdPP01`9At@<lF0N4?vB2H5r,0*0D
$GPRMC,011906,A,2230.8191,N,11350.6090,E,000.0,321.5,051219,,*12
!AIVDM,1,1,,B,16:fouTP01`9PdP<iubf4?vB2@60,0*33
!AIVDM,1,1,,A,16:fe9PP1C`9CWh<i=2K4?vB2L6P,0*40
!AIVDM,1,1,,B,169G`t004G`9BbV<mAElC3FF0865,0*56
!AIVDM,1,1,,B,H6:ij`PMDTL4pM@T4qTuG7KK800,2*70
!AIVDM,2,1,3,A,56:E8QP000022222220hT`TpOF222222222222160Hw9972T07V2@CQi,0*21
!AIVDM,2,2,3,A,hCQp88888888888,2*25
!AIVDM,1,1,,A,169FWKPP4`892Rj<o9SLkwvD086A,0*39
$GPGSA,A,3,13,02,24,21,29,05,15,,,,,,1.8,1.1,1.4*31
!AIVDM,1,1,,A,169>cq000188is<<rKHJg1HF086E,0*37
!AIVDM,1,1,,B,B6:ETuP0CB2F`33<rgkBj`53QP06,0*71
!AIVDM,1,1,,A,B69FbMs0DR2<H53>SrISu?U61P06,0*5C
!AIVDM,1,1,,B,16:flBgP00`8r0P<od6>4?vD2<>n,0*75
!AIVDM,1,1,,B,19NSRbw000898Td<oaf2q`DD0<<3,0*3A
$GPRMC,011907,A,2230.8192,N,11350.6090,E,000.1,326.4,051219,,*17
!AIVDM,1,1,,A,E>l4va<3e@3PW3hII0000000000D4FTK6KMR@10888Uf00,4*52
$GPGGA,011907,2230.8192,N,11350.6090,E,1,07,001.1,080.1,M,-03.0,M,,*64
!AIVDM,1,1,,B,16:DDOP04a892@6<k2iaaWhH0<9?,0*56
!AIVDM,1,1,,A,B6:E20000J2Bnb3=pmG6NNv021Mk,0*28
!AIVDM,1,1,,A,169@WGP000896m@<p>HqpaDB00RR,0*6E
!AIVDM,1,1,,A,B6:fpQh00B2B=93=o7CBJ`53QP06,0*0D
!AIVDM,1,1,,A,16:EmwPPD>88SKn<mipH8nL@086s,0*5F
!AIVDM,1,1,,B,16:EL8POlC`91St<kHfikAH@2L;q,0*50
!AIVDM,1,1,,A,E>ldCi?;Pb2a@22`:4@HrGK6P0044b3T6Jde@00003v01P,4*0C
!AIVDM,1,1,,B,B6:E20000J2Bnb3=pmG6NNv021Mk,0*2B
!AIVDM,1,1,,B,403sl4Qv?2QC;892st<bWLA00D>A,0*31
$GPRMC,011908,A,2230.8192,N,11350.6090,E,000.1,333.1,051219,,*19
!AIVDM,1,1,,A,H6:E201UDE4TpMUD4pQDwO;;H00,2*2F
!AIVDM,1,1,,B,177nTGPP0L`9Pp0<ilwkn?vF287;,0*1E
!AIVDM,1,1,,A,B6:bbO000B2BBJS=sVEFi5N021Mk,0*62
!AIVDM,1,1,,A,169G`t004H`9BgR<mA84CSHJ049<,0*16
!AIVDM,1,1,,A,C6:EGcP0H3?8mP=18D0QKwU2jb:8NL>>b2L6@bCSUkW0e3<D6U07,0*60
!AIVDM,1,1,,B,C6:EGcP0H3?8mP=18D0QKwU2jb:8NL>>b2L6@bCSUkW0e3<D6U07,0*63
!AIVDM,2,1,8,B,56:E8QP000022222220hT`TpOF222222222222160Hw9972T07V2@CQi,0*29
!AIVDM,2,2,8,B,hCQp88888888888,2*2D
!AIVDM,1,1,,B,B6:bd0h0022>PoS>C0N9mfN021Mk,0*0D
!AIVDM,1,1,,A,169GFF004C892u<<ksRaHGPJ087O,0*20
!AIVDM,1,1,,B,16:fl@wP01`8s<P<oiqv4?vH287Q,0*57
!AIVDM,1,1,,A,B6:lDkh0?R2CEc3=n@eeQGV3QP06,0*1D
!AIVDM,1,1,,A,16:V3:0P0r`98rh<lLGH4?vH287T,0*52
!AIVDM,1,1,,B,1815GUh01l88gL@<mfo=jc4H049<,0*45
$GPRMC,011909,A,2230.8193,N,11350.6090,E,000.1,338.9,051219,,*1A
!AIVDM,1,1,,B,177nSTPP01`9Kh@<ilsf4?vH2H7e,0*77
!AIVDM,1,1,,A,177nQ?0P01`9Ao@<lFGf4?vH2DTV,0*37
!AIVDM,1,1,,A,B6:lGpP0@J2C;q3=oCH0;wUVSP06,0*72
!AIVDM,1,1,,B,16:Dcq>P0089@qV<o0vkwOvH2D3v,0*0D
!AIVDM,1,1,,A,B6:bg=P04S?8mP=18D0CswVSQP06,0*68
!AIVDM,2,1,2,A,569FudP000009AL`001<PF0L4pN3F0P4t000000l1pD7371g0;4j1H2k,0*0F
!AIVDM,2,2,2,A,m@0000000000008,2*03
!AIVDM,1,1,,B,16:EDL?P00`8B5h<t6ff4?vJ20S=,0*58
!AIVDM,1,1,,B,16:Cfu0P0189<q><pqIHmgvH2T9<,0*30
!AIVDM,1,1,,B,H6:E2056?F10200ojjn0007H<870,0*22
!AIVDM,1,1,,A,16:EL8POlC`91WN<kI:Qi1HD2L;q,0*7E
!AIVDM,1,1,,A,16:E7FP04g`8oCF<og7H2nHL088:,0*37
!AIVDM,1,1,,B,16:EmwP04>88SIR<miH88VLD0<:7,0*4A
$GPRMC,011910,A,2230.8193,N,11350.6090,E,000.1,345.4,051219,,*15
!AIVDM,1,1,,B,36:8;9Q001`8R7h<ubeN4:hJ2Dbr,0*5F
!AIVDM,1,1,,B,177nTtAP04`9Bd@<lEETpwvL2DEI,0*33
!AIVDM,1,1,,B,B6:lGpP0@J2C;q3=oD`0?wV6SP06,0*39
!AIVDM,1,1,,B,B6:DEe00022Cc63>16hGcwVSQP06,0*1A
!AIVDM,1,1,,A,16:E4HPP00899R@<os3ur?vJ049<,0*1E
!AIVDM,1,1,,B,169G`t004H`9BlP<m@qlDCHN0<;8,0*11
!AIVDM,1,1,,B,16:CgA0P0089BsP<nQKoOOvL088S,0*03
!AIVDM,1,1,,B,169GFF004C892rt<ksHqH7RN0H8W,0*77
$AIVSD,70,2.9,14,14,050800,08,07,00,*45
!AIVDM,1,1,,A,169FWKPP4W892NF<o:GtlOvL00S6,0*3C
!AIVDM,1,1,,B,B69GLjP0:B2;Rn3>;cvdj:73QP06,0*30
!AIVDM,1,1,,A,B69GLjP0:B2;Rn3>;cvdj:73QP06,0*33
$PSPC,1,0,100,,0,0*20
$PSPC,1,0,100,,0,0*20
$GPGGA,011910,2230.8194,N,11350.6090,E,1,07,001.1,079.8,M,-03.0,M,,*6B
!AIVDM,1,1,,A,16:G@P002788WBh<qN56E@0L00Sf,0*78
!AIVDM,1,1,,B,10`:DoOP00`99RH<pHI9n?vN288o,0*70
$GPRMC,011911,A,2230.8194,N,11350.6090,E,000.1,350.2,051219,,*11
!AIVDM,1,1,,B,B6:DeuP0022>wUS>Ak`i8W73QP06,0*51
!AIVDM,1,1,,B,169@FkP01m`8OBt<t94FDE0N0@8v,0*29
$GPGSV,4,1,13,02,43,118,27,05,39,036,41,06,04,128,,12,00,196,27*78
$GPGSV,4,4,13*7B
$GPGSV,4,4,13*7B
$GPGSV,4,4,13*7B
!AIVDM,1,1,,B,16:fSGPP00`9PH@<j0Dv4?vN20RW,0*0B
!AIVDM,1,1,,A,B6:DeuP0022>wUS>Ak`i8W73QP06,0*52
!AIVDM,1,1,,A,18M<JN002=`8g1<<m`9uhc4F049<,0*62
!AIVDM,1,1,,A,177nSthP0?`9BS0<iPH2H?vN249<,0*22
!AIVDM,1,1,,A,16=q?7@01p`8No4<tARVBU0F00SM,0*6B
!AIVDM,1,1,,A,C6:E20000J2BnaS=pmK1nKN0jb:RBL>jb2L@bOgUUd00S3d643P0,0*64
!AIVDM,1,1,,B,16:Cbb8P0088Tuf<os`aowvL2<3w,0*3D
!AIVDM,1,1,,B,16:E7FPOlg`8o@t<ofQ`2VJP0D6o,0*6C
!AIVDM,1,1,,A,33ku:I@Oi4`8Kg0<tVj3=2nL0000,0*37
!AIVDM,1,1,,B,H6:HVL001W88gj4<m<O=gc4L049<,0*77
!AIVDM,1,1,,B,16:HVL001W88gj4<m<O=gc4L049<,0*77
$AIVSD,70,2.9,14,14,050800,08,07,00,*45
$GPRMC,011912,A,2230.8194,N,11350.6090,E,000.1,352.0,051219,,*12
!AIVDM,1,1,,B,8>p?pWiWhAPPRQC`j=VHI0,4*48
!AIVDM,1,1,,A,C6;clJ@0022<pa3>FRfdB9W2jb:8NL>>b2L@bOSeii10S447S6P7,0*6D
$PSPC,1,0,100,,0,0*20
$PSPC,1,0,100,,0,0*20
!AIVDM,1,1,,B,13E8Wj0P03`8QAN<qMFASOvt28An,0*3E
!AIVDM,1,1,,A,169G`t0OlI`9BqN<m@d4DCJR0D;8,0*1C
!AIVDM,1,1,,A,169G`t0OlI`9BqN<m@d4DCJR0D;8,0*1C
!AIVDM,1,1,,B,16;4O2001l`8Ikp<vW96LU8L0<<J,0*02
!AIVDM,1,1,,B,169FWKPP4`892K@<o:r<kOvP089j,0*53
!AIVDM,1,1,,A,16:EL;8P0088g@b<s04RTwvN249<,0*05
!AIVDM,1,1,,B,16:fNp@P0389=An<nm8K6?vP0<0;,0*24
!AIVDM,1,1,,A,33==7R5P00`96N0<ow?3v?vL0Dc:,0*41
$AIVSD,70,2.9,14,14,050800,08,07,00,*45
$GPRMC,011913,A,2230.8195,N,11350.6090,E,000.1,350.3,051219,,*13
!AIVDM,1,1,,A,169v:Q?P008991f<oqOA1wvP0D;P,0*56
$PSPC,1,0,100,,0,0*20
$PSPC,1,0,100,,0,0*20
$GPGSA,A,3,13,02,24,21,29,05,15,,,,,,1.8,1.1,1.4*31
!AIVDM,1,1,,B,16:fO@?P00`8j:@<pPcf4?vR249<,0*63
!AIVDM,1,1,,B,16:R@BP01k88HV8<w?MFVEDT049<,0*29
!AIVDM,1,1,,A,16;co9wP01`8qW@<oVMN4?vR2<5b,0*47
!AIVDM,1,1,,B,16:flfgP00`9>O0<om;v4?vR249<,0*04
!AIVDM,1,1,,A,16:EL8POlC`91hV<kJ>ihQLN2@:K,0*3E
!AIVDM,1,1,,B,16:hqumP00899fB<p>cP0?vR0HQq,0*67
!AIVDM,1,1,,A,16:E7FPOlg`8o>N<oes`2nJT049<,0*1A
!AIVDM,1,1,,B,16:EmwP04>88SE0<mhF`6nLL08:Q,0*2F
!AIVDM,1,1,,B,16:D17PP0089<Jv<q15P0?vR088V,0*0F
$GPRMC,011914,A,2230.8195,N,11350.6089,E,000.1,346.4,051219,,*1C
!AIVDM,1,1,,B,B6:DqGP0:R2@ce3>>4;4BM8SQP06,0*0E
!AIVDM,1,1,,A,16:DbQPP0s89Aoh<nNR5qgvR2p:a,0*38
!AIVDM,1,1,,A,B6:`Hm@0;R2BUbS>9WmFkw`SQP06,0*73
!AIVDM,1,1,,B,169G`t0OlI`9BvH<m@MDESJV0<;7,0*25
!AIVDM,1,1,,A,169UBuPP1;88hUf<likeh0RP08=i,0*1A
$GPGGA,011914,2230.8196,N,11350.6089,E,1,08,001.1,080.2,M,-03.0,M,,*66
!AIVDM,1,1,,A,169FWKPP4W892G0<o;fdlgvT08:o,0*7B
!AIVDM,1,1,,B,177`j?002N89;Lj<lrhHKFfV0LBI,0*09
!AIVDM,1,1,,B,169GFF004C892iv<krmqIGTV08;0,0*31
!AIVDM,1,1,,A,16:ED?g00188l3h<q0nlBJ2P0D@f,0*03
!AIVDM,1,1,,A,16:foN0P02`9;W@<oW=>4?vT249<,0*66
$GPRMC,011915,A,2230.8196,N,11350.6089,E,000.1,343.0,051219,,*1F
!AIVDM,1,1,,B,16:Ejr?000`9>GT<pD1@05:T20RR,0*2E
!AIVDM,1,1,,B,16:Ejr?000`9>GT<pD1@05:T20RR,0*2E
!AIVDM,1,1,,B,33ku:I@Oi4`8Khp<tVlSB2rR00rh,0*7A
!AIVDM,1,1,,B,16:V3:0P0p`98q@<lKw`5OvV28;F,0*16
!AIVDM,1,1,,A,16:EIc?P0088jS0<q4kR0?v@0t@N,0*21
!AIVDM,1,1,,A,16:EmwP04>88SBh<mgmp6VLP00S>,0*6D
!AIVDM,1,1,,B,16:EL8POlB`91hV<kJ>ijANN2D;s,0*11
!AIVDM,1,1,,A,177nSH5P0a`9Cr@<l<1mvwvV28;`,0*3E
!AIVDM,1,1,,A,B6:fr7h0C22DEO3=WuUJe8v021Mk,0*13
!AIVDM,1,1,,A,16;AlAPP0088k6t<pHDI3?vT2D3w,0*4A
$GPRMC,011916,A,2230.8197,N,11350.6089,E,000.2,339.9,051219,,*1A
!AIVDM,1,1,,B,16:E7FP04f`8o;r<oeEp36L`08;m,0*14
!AIVDM,1,1,,B,16:E7FP04f`8o;r<oeEp36L`08;m,0*14
!AIVDM,1,1,,A,16:flBgP00`8r0@<od5f4?v`20Sa,0*77
!AIVDM,1,1,,A,D03sl4QQdNfp00N000,4*0C
!AIVDM,1,1,,A,177nSn0P00`9Hw6<iG:@0?vV2<<u,0*74
!AIVDM,1,1,,A,169GFF004C892c<<krL9IoTb0D<0,0*7C
!AIVDM,1,1,,A,369G`t004I`9C3><m@>DFSJb00V1,0*12
$GPGSV,4,1,13,02,43,118,34,05,39,036,44,06,04,128,,12,00,195,24*7F
$GPGSV,4,4,13*7B
$GPGSV,4,4,13*7B
$GPGSV,4,4,13*7B
!AIVDM,1,1,,B,169FWKPP4W892G0<o;fdlgv`0@<<,0*61
!AIVDM,2,1,3,B,56:fn@D000000000000QDV0HDlN0pT4r3KOR22168p=>6t000;P00000,0*2F
!AIVDM,2,2,3,B,000000000000000,2*24
!AIVDM,2,1,4,B,56:EGcP000033333331UDD@tpLMD4p<QDW7;W>1J6H`=:40008p88888,0*05
!AIVDM,2,2,4,B,888888888888888,2*2B
$GPRMC,011917,A,2230.8197,N,11350.6088,E,000.2,339.2,051219,,*11
!AIVDM,1,1,,A,16:fmvHP00`8c4h<u?2v4?v`20Sq,0*16
!AIVDM,1,1,,A,177nTdPP01`9At@<lEw>4?vb2@<N,0*27
!AIVDM,1,1,,A,16;Anv?P0g`8j`@<sDstr?vb2@<Q,0*23
!AIVDM,1,1,,B,18M<JN002=`8g06<ma4Mhc4R0H<S,0*5C
!AIVDM,1,1,,B,B69GKsP0022Bod3=peC@2V:3QP06,0*7C
!AIVDM,1,1,,A,B6:DDTP08B2CNWS=sRlntcv021Mk,0*77
!AIVDM,1,1,,A,B69GJa00=22=WkS>2u`fdU87QP06,0*2E
!AIVDM,1,1,,B,E>ldCi?;Pb2a@22`:4@HrGK6P0044b3T6Jde@00003v01P,4*0F
!AIVDM,1,1,,B,ENl5BE<3bPW3e47bh;q@@@@@@@@D4V>Q6Ci?`00003v010,4*75
!AIVDM,1,1,,B,169@WGP000896m@<p>HqC9DV0H<l,0*3A
!AIVDM,1,1,,B,B6:fn003wk?8mP=18D3Q00@3QP06,0*10
!AIVDM,1,1,,A,16:EL8POlB`91n<<kJnAjAPT20S9,0*54
!AIVDM,1,1,,B,B6:fOvqH>j2=ip3>7@dtSwbbh49<,0*58
$GPGGA,011917,2230.8197,N,11350.6089,E,1,07,001.1,080.4,M,-03.0,M,,*6D
$GPRMC,011918,A,2230.8197,N,11350.6089,E,000.2,341.3,051219,,*11
!AIVDM,1,1,,B,169A5cS000895v4<p5?6M70d0@<w,0*7C
!AIVDM,1,1,,A,B6:fn003wk?8mP=18D3Q00@3QP06,0*13
!AIVDM,1,1,,A,18I9oV0vR3`91cd<dkDFOU<f0<BB,0*53
!AIVDM,1,1,,B,E>ldChw;Pb2a@22`:4@HrGK6P0044b4<6JfT000003v01P,4*6A
!AIVDM,2,1,2,B,56:Dcq000003O37O620p4r0L4pN37V222222221M0Hw:831F0:R5@CQp,0*20
!AIVDM,2,2,2,B,45H888888888080,2*5C
!AIVDM,1,1,,B,177nRGgP1M`9OdH<j0JsB?vd249<,0*2D
!AIVDM,1,1,,A,1815GUh01l88gK0<mgmeh;6d0D<:,0*6D
!AIVDM,1,1,,A,169G13PP00`8GwT<t`Jt>wvb1d00,0*7F
!AIVDM,1,1,,B,177nQ?0P02`9Ao@<lFJ>4?vd28=J,0*47
!AIVDM,2,1,8,A,56:EGcP000033333331UDD@tpLMD4p<QDW7;W>1J6H`=:40008p88888,0*0A
!AIVDM,2,2,8,A,888888888888888,2*24
$GPRMC,011919,A,2230.8198,N,11350.6089,E,000.2,344.2,051219,,*1B
$AITMP,+40,HI,20120413,MB,0*7B
!AIVDM,1,1,,A,16:Dcq>P0089@qT<o0vCwOvd2<3v,0*70
!AIVDM,1,1,,B,B6:Vn600a22DeJS=W1c@?wb3QP06,0*5A
!AIVDM,1,1,,B,B6:V4jP0=B2Brp3>69oBCwc3QP06,0*42
!AIVDM,1,1,,A,377nTtAP04`9BdP<lEDE0?vf2JO@,0*1D
$GPGSA,A,3,13,02,24,21,29,05,15,,,,,,1.8,1.1,1.4*31
!AIVDM,1,1,,B,16:fmGwP11`8Wmh<u`Intwvf28>0,0*60
$GPRMC,011920,A,2230.8199,N,11350.6088,E,000.2,346.1,051219,,*10
!AIVDM,1,1,,B,16:E7FP04f`8o6t<od9`4FLj08><,0*5B
!AIVDM,1,1,,A,16:CgA0P0089BsR<nQJp;gvh0@>?,0*76
!AIVDM,1,1,,A,ENl5BELSbPW3e47bh;qh@@@@@@@D4VJh6D5E000003v010,4*72
!AIVDM,1,1,,A,16:fSGPP00`9PH@<j0Ef4?vh2L3e,0*10
!AIVDM,1,1,,A,177`j?002N89;Gh<lqs8J6fj08>E,0*22
!AIVDM,1,1,,A,177nTjhP1C`9LuP<kBAd>Ovh2<Du,0*5D
!AIVDM,1,1,,A,16:Cmw0000894dP<nuPjcir01P06,0*71
!AIVDM,1,1,,B,B6:fQKP00B2<`=3>7D:Pj3cSQP06,0*2C
!AIVDM,1,1,,A,B69G6rP00229013>N@F0an;SQP06,0*15
!AIVDM,1,1,,A,169G`t004I`9C=0<m?glHCLj0L;5,0*1B
!AIVDM,1,1,,A,16:V3:0P0o`98oh<lKf`=gvh249<,0*47
!AIVDM,1,1,,A,16:fivhP1?89Aqh<n@PM:Ovh0PRL,0*17
$AIVSD,70,2.9,14,14,050800,08,07,00,*45
!AIVDM,1,1,,B,16:fmv0P00`8cr@<uEgN4?vh2<>D,0*48
!AIVDM,1,1,,B,177nSPPP0v`9H;0<is1amgvh2@>U,0*5E
!AIVDM,1,1,,A,16:fURHP0r89=>J<og5eM?vf2`>S,0*51
$PSPC,1,0,1,0,0*0C
$PSPC,1,0,100,,0,0*20
!AIVDM,1,1,,B,16:>7CPP1P`8bhP<m7toAgvh249<,0*77
!AIVDM,1,1,,B,16:Ej80PDm89KP0<n3U@mhVf0@>c,0*00
!AIVDM,2,1,5,B,56:Ejc0000022222220QDT`Tq4T4w;WV222222160a;9932>08lj1Bkm,0*60
!AIVDM,2,2,5,B,H88888888888880,2*52
$GPRMC,011921,A,2230.8199,N,11350.6089,E,000.2,347.2,051219,,*12
!AIVDM,1,1,,A,169@FkP01l`8OFb<t7m6EE0j0<80,0*01
!AIVDM,1,1,,B,15R4i40002`8IRn<u;MnWJll0H>l,0*53
!AIVDM,1,1,,B,169v:Q?P0089912<oqbi1wvh0H>q,0*14
!AIVDM,1,1,,A,16:Cqq000188aU4<tT3CGJ`j0<5w,0*7C
$GPGGA,011921,2230.8200,N,11350.6089,E,1,07,001.1,080.5,M,-03.0,M,,*64
!AIVDM,1,1,,A,16:EL8POlB`91wf<kKnAniRf2H?1,0*16
!AIVDM,1,1,,B,H6:fM=iUDE4TpMUD4pQDwWS7P00,2*41
!AIVDM,1,1,,A,B6:ij`P0>22BF83>29IKGh4TSP00,0*21
!AIVDM,1,1,,A,16:Cbb8P0088Tud<os`aowvj20S:,0*3B
!AIVDM,1,1,,A,C6:ECsP0022BNnS=rii;Lt<Rjb:V@2N>b2L@bOWSiS10S3D542P7,0*07
!AIVDM,1,1,,B,C6:ECsP0022BNnS=rii;Lt<Rjb:V@2N>b2L@bOWSiS10S3D542P7,0*04
!AIVDM,1,1,,A,169G7sPP1n`9DEH<mU7VqOvj28?>,0*18
$AIVSD,70,2.9,14,14,050800,08,07,00,*45
$AIVSD,70,2.9,14,14,050800,08,07,00,*45
!AIVDM,2,1,4,B,56:Cmw0000033333331`PtpN0LtpN360P4v2221J<P`LL400004j1C`6,0*20
!AIVDM,2,2,4,B,R1CQp8888888888,2*12
!AIVDM,1,1,,A,16:fO@?P01`8j:P<pPcf4?vl2<6g,0*13
!AIVDM,1,1,,B,16:G@P002788WG0<qLIVFh0l08?L,0*7D
$PSPC,1,0,100,,0,0*20
$PSPC,1,0,100,,0,0*20
!AIVDM,1,1,,B,169G`t004I`9CAp<m?PlHkLn0<;5,0*4F
!AIVDM,1,1,,B,36:DJAQ000899WB<ot45>aLj0000,0*46
!AIVDM,1,1,,A,177nSk0P00`9HSh<i8sv4?vl2@?a,0*5E
!AIVDM,1,1,,A,169FWKPP4`892<L<o=`Lj?vl0@?d,0*73
!AIVDM,1,1,,A,16:ED:gP0088gUh<psbtogvh049<,0*73
!AIVDM,1,1,,B,16:EL;8P0088g@d<s062Twvl2@?h,0*66
!AIVDM,1,1,,A,16:flfgP00`9>O0<om;v4?vl249<,0*39
$GPRMC,011923,A,2230.8200,N,11350.6088,E,000.2,349.6,051219,,*18
