$GNGGA,083206.000,2307.2693,N,11318.8277,E,1,06,2.7,108.4,M,0.0,M,,*7B
$GPGSA,A,3,29,24,02,,,,,,,,,,3.5,2.7,2.3*3F
$BDGSA,A,3,11,09,05,,,,,,,,,,3.5,2.7,2.3*2D
$GNRMC,083206.000,A,2307.2693,N,11318.8277,E,1.35,182.10,100919,,,A*7A
$GNGGA,083207.000,2307.2703,N,11318.8312,E,1,06,2.7,105.2,M,0.0,M,,*7B
$GPGSV,2,1,08,02,16,144,31,05,25,077,,13,34,033,,15,63,354,*70
$GPGSV,2,2,08,20,18,306,,21,38,319,,24,48,165,31,29,33,226,37*7F
$BDGSV,2,1,06,01,,,32,02,,,29,05,25,256,36,09,60,268,23*60
$BDGSV,2,2,06,10,05,190,31,11,42,205,36*64
$GNRMC,083207.000,A,2307.2703,N,11318.8312,E,2.56,20.11,100919,,,A*4F
$GNGGA,083208.000,2307.2728,N,11318.8324,E,1,06,2.7,102.1,M,0.0,M,,*7C
$GPGSA,A,3,29,24,02,,,,,,,,,,3.5,2.7,2.3*3F
$BDGSA,A,3,11,09,05,,,,,,,,,,3.5,2.7,2.3*2D
$GNRMC,083208.000,A,2307.2728,N,11318.8324,E,3.54,20.48,100919,,,A*43
$GNGGA,083209.000,2307.2743,N,11318.8334,E,1,06,2.7,98.0,M,0.0,M,,*42
$GNRMC,083209.000,A,2307.2743,N,11318.8334,E,5.58,11.90,100919,,,A*43
$GNGGA,083210.000,2307.2737,N,11318.8320,E,1,06,2.7,99.4,M,0.0,M,,*49
$GPGSA,A,3,29,24,02,,,,,,,,,,3.5,2.7,2.3*3F
$BDGSA,A,3,11,09,05,,,,,,,,,,3.5,2.7,2.3*2D
$GNRMC,083210.000,A,2307.2737,N,11318.8320,E,2.51,8.53,100919,,,A*74
!AIVDM,1,1,,B,16:fm?0P00`6f`D=>JG<4P4B2@7H,0*75
$GNGGA,083211.000,2307.2751,N,11318.8321,E,1,06,2.7,99.0,M,0.0,M,,*4D
$GNRMC,083211.000,A,2307.2751,N,11318.8321,E,3.28,16.47,100919,,,A*41
!AIVDM,1,1,,B,403sl3Av>E8P;`6OJn=>ONi02@72,0*30
$GNGGA,083212.000,2307.2747,N,11318.8294,E,1,06,2.7,100.1,M,0.0,M,,*76
$GPGSA,A,3,29,24,02,,,,,,,,,,3.5,2.7,2.3*3F
$BDGSA,A,3,11,09,05,,,,,,,,,,3.5,2.7,2.3*2D
$GPGSV,2,1,08,02,16,144,33,05,25,077,,13,34,033,,15,63,354,*72
$GPGSV,2,2,08,20,18,306,,21,38,319,,24,48,165,31,29,33,226,37*7F
$BDGSV,2,1,06,01,,,32,02,,,29,05,25,256,36,09,60,268,23*60
$BDGSV,2,2,06,10,05,190,31,11,42,205,36*64
$GNRMC,083212.000,A,2307.2747,N,11318.8294,E,2.49,4.34,100919,,,A*7B
$GNGGA,083213.000,2307.2756,N,11318.8291,E,1,06,2.7,98.5,M,0.0,M,,*46
$GNRMC,083213.000,A,2307.2756,N,11318.8291,E,3.05,7.89,100919,,,A*73
$GNGGA,083214.000,2307.2742,N,11318.8284,E,1,06,2.7,98.0,M,0.0,M,,*45
$GPGSA,A,3,29,24,02,,,,,,,,,,3.5,2.7,2.3*3F
$BDGSA,A,3,11,09,05,,,,,,,,,,3.5,2.7,2.3*2D
$GNRMC,083214.000,A,2307.2742,N,11318.8284,E,1.32,338.47,100919,,,A*7E
$GNGGA,083215.000,2307.2729,N,11318.8277,E,1,06,2.7,99.0,M,0.0,M,,*44
$GNRMC,083215.000,A,2307.2729,N,11318.8277,E,0.34,342.37,100919,,,A*73
$GNGGA,083216.000,2307.2739,N,11318.8279,E,1,06,2.7,97.7,M,0.0,M,,*41
$GPGSA,A,3,29,24,02,,,,,,,,,,3.5,2.7,2.3*3F
$BDGSA,A,3,11,09,05,,,,,,,,,,3.5,2.7,2.3*2D
$GNRMC,083216.000,A,2307.2739,N,11318.8279,E,0.95,49.33,100919,,,A*48
$GNGGA,083217.000,2307.2737,N,11318.8276,E,1,06,2.7,97.1,M,0.0,M,,*47
$GPGSV,2,1,08,02,16,144,32,05,25,077,,13,34,033,,15,63,354,*73
$GPGSV,2,2,08,20,18,306,,21,38,319,,24,48,165,32,29,33,226,37*7C
$BDGSV,2,1,06,01,,,32,02,,,30,05,25,256,36,09,60,268,23*68
$BDGSV,2,2,06,10,05,190,31,11,42,205,36*64
$GNRMC,083217.000,A,2307.2737,N,11318.8276,E,0.79,5.29,100919,,,A*79
$GNGGA,083218.000,2307.2738,N,11318.8274,E,1,06,2.7,96.8,M,0.0,M,,*4D
$GPGSA,A,3,29,24,02,,,,,,,,,,3.5,2.7,2.3*3F
$BDGSA,A,3,11,09,05,,,,,,,,,,3.5,2.7,2.3*2D
$GNRMC,083218.000,A,2307.2738,N,11318.8274,E,0.84,341.09,100919,,,A*78
$GNGGA,083219.000,2307.2735,N,11318.8268,E,1,06,2.7,97.0,M,0.0,M,,*45
$GNRMC,083219.000,A,2307.2735,N,11318.8268,E,0.44,207.46,100919,,,A*7D
$GNGGA,083220.000,2307.2726,N,11318.8299,E,1,06,2.7,90.9,M,0.0,M,,*4D
$GPGSA,A,3,29,24,02,,,,,,,,,,3.5,2.7,2.3*3F
$BDGSA,A,3,11,09,05,,,,,,,,,,3.5,2.7,2.3*2D
$GNRMC,083220.000,A,2307.2726,N,11318.8299,E,1.19,210.63,100919,,,A*73
!AIVDM,1,1,,A,16:fm?0P01`6f`B=>JG<4P4V2<5`,0*33
$GNGGA,083221.000,2307.2714,N,11318.8297,E,1,06,2.7,91.8,M,0.0,M,,*43
$GNRMC,083221.000,A,2307.2714,N,11318.8297,E,2.41,198.55,100919,,,A*75
$GNGGA,083222.000,2307.2724,N,11318.8305,E,1,06,2.7,93.0,M,0.0,M,,*43
$GPGSA,A,3,29,24,02,,,,,,,,,,3.5,2.7,2.3*3F
$BDGSA,A,3,11,09,05,,,,,,,,,,3.5,2.7,2.3*2D
$GPGSV,2,1,08,02,16,144,32,05,25,077,,13,34,033,,15,63,354,*73
$GPGSV,2,2,08,20,18,306,,21,38,319,,24,48,165,30,29,33,226,37*7E
$BDGSV,2,1,06,01,,,32,02,,,30,05,25,256,36,09,60,268,22*69
$BDGSV,2,2,06,10,05,190,31,11,42,205,36*64
$GNRMC,083222.000,A,2307.2724,N,11318.8305,E,0.73,188.96,100919,,,A*72
$GNGGA,083223.000,2307.2710,N,11318.8305,E,1,06,2.7,93.7,M,0.0,M,,*42
$GNRMC,083223.000,A,2307.2710,N,11318.8305,E,1.73,197.56,100919,,,A*77
$GNGGA,083224.000,2307.2736,N,11318.8319,E,1,06,2.7,93.2,M,0.0,M,,*49
$GPGSA,A,3,29,24,02,,,,,,,,,,3.5,2.7,2.3*3F
$BDGSA,A,3,11,09,05,,,,,,,,,,3.5,2.7,2.3*2D
$GNRMC,083224.000,A,2307.2736,N,11318.8319,E,1.16,32.34,100919,,,A*40
$GNGGA,083225.000,2307.2737,N,11318.8311,E,1,06,2.7,97.7,M,0.0,M,,*40
$GNRMC,083225.000,A,2307.2737,N,11318.8311,E,1.02,343.42,100919,,,A*79
$GNGGA,083226.000,2307.2730,N,11318.8309,E,1,06,2.7,97.5,M,0.0,M,,*4F
$GPGSA,A,3,29,24,02,,,,,,,,,,3.5,2.7,2.3*3F
$BDGSA,A,3,11,09,05,,,,,,,,,,3.5,2.7,2.3*2D
$GNRMC,083226.000,A,2307.2730,N,11318.8309,E,0.26,291.65,100919,,,A*78
$GNGGA,083227.000,2307.2736,N,11318.8307,E,1,06,2.7,98.6,M,0.0,M,,*4A
$GPGSV,2,1,08,02,16,144,33,05,25,077,,13,34,033,,15,63,354,*72
$GPGSV,2,2,08,20,18,306,,21,38,319,,24,48,165,30,29,33,226,38*71
$BDGSV,2,1,06,01,,,32,02,,,30,05,25,256,36,09,60,268,22*69
$BDGSV,2,2,06,10,05,190,31,11,42,205,35*67
$GNRMC,083227.000,A,2307.2736,N,11318.8307,E,1.36,160.66,100919,,,A*7F
$GNGGA,083228.000,2307.2738,N,11318.8307,E,1,06,2.7,99.0,M,0.0,M,,*4C
$GPGSA,A,3,29,24,02,,,,,,,,,,3.5,2.7,2.3*3F
$BDGSA,A,3,11,09,05,,,,,,,,,,3.5,2.7,2.3*2D
$GNRMC,083228.000,A,2307.2738,N,11318.8307,E,0.47,166.06,100919,,,A*79
$GNGGA,083229.000,2307.2724,N,11318.8305,E,1,06,2.7,99.0,M,0.0,M,,*42
$GNRMC,083229.000,A,2307.2724,N,11318.8305,E,0.98,179.31,100919,,,A*7F
!AIVDO,1,1,,,B68rO0002J1cF`SCcUAh7wfVSP06,0*52
!AIVDM,1,1,,B,36:fm?0Oh0`6f`D=>JGL4c>r20pA,0*77
$GNGGA,083230.000,2307.2721,N,11318.8305,E,1,06,2.7,99.2,M,0.0,M,,*4D
$GPGSA,A,3,29,24,02,,,,,,,,,,3.5,2.7,2.3*3F
$BDGSA,A,3,11,09,05,,,,,,,,,,3.5,2.7,2.3*2D
$GNRMC,083230.000,A,2307.2721,N,11318.8305,E,0.25,358.62,100919,,,A*73
$GNGGA,083231.000,2307.2722,N,11318.8305,E,1,06,2.7,99.1,M,0.0,M,,*4C
$GNRMC,083231.000,A,2307.2722,N,11318.8305,E,0.37,347.87,100919,,,A*77
!AIVDO,1,1,,,B68rO0000r1cF`SCcU;IKwgVSP06,0*4E
 ($GNGGA,083232.000,2307.2728,N,11318.8305,E,1,06,2.7,98.6,M,0.0,M,,*43
$GPGSA,A,3,29,24,02,,,,,,,,,,3.5,2.7,2.3*3F
$BDGSA,A,3,11,09,05,,,,,,,,,,3.5,2.7,2.3*2D
$GPGSV,2,1,08,02,16,144,32,05,25,077,,13,34,033,,15,63,354,*73
$GPGSV,2,2,08,20,18,306,,21,38,319,,24,48,165,31,29,33,226,38*70
$BDGSV,2,1,06,01,,,32,02,,,30,05,25,256,36,09,60,268,22*69
$BDGSV,2,2,06,10,05,190,31,11,42,205,36*64
$GNRMC,083232.000,A,2307.2728,N,11318.8305,E,0.54,23.87,100919,,,A*4A
$GNGGA,083233.000,2307.2745,N,11318.8310,E,1,06,2.7,98.1,M,0.0,M,,*4A
$GNRMC,083233.000,A,2307.2745,N,11318.8310,E,1.70,34.31,100919,,,A*48
!AIVDM,1,1,,B,B68rO0000r1cF`SCcU;IKwgVSP06,0*0E

i¨PGNGGA,083234.000,2307.2756,N,11318.8314,E,1,06,2.7,98.1,M,0.0,M,,*4B
$GPGSA,A,3,29,24,02,,,,,,,,,,3.5,2.7,2.3*3F
$BDGSA,A,3,11,09,05,,,,,,,,,,3.5,2.7,2.3*2D
$GNRMC,083234.000,A,2307.2756,N,11318.8314,E,2.31,16.82,100919,,,A*47
$GNGGA,083235.000,2307.2765,N,11318.8316,E,1,06,2.7,98.1,M,0.0,M,,*48
$GNRMC,083235.000,A,2307.2765,N,11318.8316,E,2.53,9.43,100919,,,A*73
$GNGGA,083236.000,2307.2769,N,11318.8317,E,1,06,2.7,97.8,M,0.0,M,,*40
$GPGSA,A,3,29,24,02,,,,,,,,,,3.5,2.7,2.3*3F
$BDGSA,A,3,11,09,05,,,,,,,,,,3.5,2.7,2.3*2D
$GNRMC,083236.000,A,2307.2769,N,11318.8317,E,2.02,9.96,100919,,,A*71
$GNGGA,083237.000,2307.2765,N,11318.8318,E,1,06,2.7,96.9,M,0.0,M,,*42
$GPGSV,2,1,08,02,16,144,32,05,25,077,,13,34,033,,15,63,354,*73
$GPGSV,2,2,08,20,18,306,,21,38,319,,24,48,165,30,29,33,226,37*7E
$BDGSV,2,1,06,01,,,32,02,,,29,05,25,256,36,09,60,268,22*61
$BDGSV,2,2,06,10,05,190,32,11,42,205,37*66
$GNRMC,083237.000,A,2307.2765,N,11318.8318,E,1.03,0.12,100919,,,A*74
$GNGGA,083238.000,2307.2763,N,11318.8318,E,1,06,2.7,96.3,M,0.0,M,,*41
$GPGSA,A,3,29,24,02,,,,,,,,,,3.5,2.7,2.3*3F
$BDGSA,A,3,11,09,05,,,,,,,,,,3.5,2.7,2.3*2D
$GNRMC,083238.000,A,2307.2763,N,11318.8318,E,0.67,338.00,100919,,,A*75
$GNGGA,083239.000,2307.2764,N,11318.8318,E,1,06,2.7,96.1,M,0.0,M,,*45
$GNRMC,083239.000,A,2307.2764,N,11318.8318,E,0.49,330.60,100919,,,A*71
!AIVDM,1,1,,A,16:fm?0P00`6f`H=>JH<4P1<20S3,0*61
$GNGGA,083240.000,2307.2763,N,11318.8317,E,1,06,2.7,96.1,M,0.0,M,,*43
$GPGSA,A,3,29,24,02,,,,,,,,,,3.5,2.7,2.3*3F
$BDGSA,A,3,11,09,05,,,,,,,,,,3.5,2.7,2.3*2D
$GNRMC,083240.000,A,2307.2763,N,11318.8317,E,0.15,330.60,100919,,,A*7E
$GNGGA,083241.000,2307.2760,N,11318.8315,E,1,06,2.7,95.7,M,0.0,M,,*46
$GNRMC,083241.000,A,2307.2760,N,11318.8315,E,0.43,225.50,100919,,,A*7B
$GNGGA,083242.000,2307.2759,N,11318.8318,E,1,06,2.7,95.8,M,0.0,M,,*4D
$GPGSA,A,3,29,24,02,,,,,,,,,,3.5,2.7,2.3*3F
$BDGSA,A,3,11,09,05,,,,,,,,,,3.5,2.7,2.3*2D
$GPGSV,2,1,08,02,16,144,32,05,25,077,,13,34,033,,15,63,354,*73
$GPGSV,2,2,08,20,18,306,,21,38,319,,24,48,165,29,29,33,226,38*79
$BDGSV,2,1,06,01,,,32,02,,,29,05,25,256,36,09,60,268,22*61
$BDGSV,2,2,06,10,05,190,32,11,42,204,36*66
$GNRMC,083242.000,A,2307.2759,N,11318.8318,E,0.61,188.22,100919,,,A*7E
$GNGGA,083243.000,2307.2759,N,11318.8320,E,1,06,2.7,95.4,M,0.0,M,,*4B
$GNRMC,083243.000,A,2307.2759,N,11318.8320,E,0.60,162.03,100919,,,A*72
$GNGGA,083244.000,2307.2763,N,11318.8325,E,1,06,2.7,95.8,M,0.0,M,,*4C
$GPGSA,A,3,29,24,02,,,,,,,,,,3.5,2.7,2.3*3F
$BDGSA,A,3,11,09,05,,,,,,,,,,3.5,2.7,2.3*2D
$GNRMC,083244.000,A,2307.2763,N,11318.8325,E,0.41,17.88,100919,,,A*4A
$GNGGA,083245.000,2307.2766,N,11318.8327,E,1,06,2.7,96.0,M,0.0,M,,*41
$GNRMC,083245.000,A,2307.2766,N,11318.8327,E,0.57,32.76,100919,,,A*4D
$GNGGA,083246.000,2307.2765,N,11318.8332,E,1,06,2.7,97.0,M,0.0,M,,*44
$GPGSA,A,3,29,24,02,,,,,,,,,,3.5,2.7,2.3*3F
$BDGSA,A,3,11,09,05,,,,,,,,,,3.5,2.7,2.3*2D
$GNRMC,083246.000,A,2307.2765,N,11318.8332,E,0.37,16.83,100919,,,A*43
!AIVDM,1,1,,A,36:fm?0P00`6f`J=>JGd4P5L20rh,0*38
$GNGGA,083247.000,2307.2757,N,11318.8360,E,1,06,2.7,93.3,M,0.0,M,,*44
$GPGSV,2,1,08,02,16,144,31,05,25,077,,13,34,033,,15,63,354,*70
$GPGSV,2,2,08,20,18,306,,21,38,319,,24,48,165,29,29,32,226,37*77
$BDGSV,2,1,06,01,,,32,02,,,29,05,25,256,36,09,60,268,23*60
$BDGSV,2,2,06,10,05,190,31,11,42,204,36*65
$GNRMC,083247.000,A,2307.2757,N,11318.8360,E,1.46,8.06,100919,,,A*71
$GNGGA,083248.000,2307.2753,N,11318.8352,E,1,06,2.7,91.8,M,0.0,M,,*47
$GPGSA,A,3,29,24,02,,,,,,,,,,3.5,2.7,2.3*3F
$BDGSA,A,3,11,09,05,,,,,,,,,,3.5,2.7,2.3*2D
$GNRMC,083248.000,A,2307.2753,N,11318.8352,E,3.95,12.44,100919,,,A*4A
$GNGGA,083249.000,2307.2744,N,11318.8344,E,1,06,2.7,90.1,M,0.0,M,,*4F
$GNRMC,083249.000,A,2307.2744,N,11318.8344,E,1.11,14.18,100919,,,A*4B
!AIVDM,1,1,,B,36:fm?0P00`6f`J=>JGd4P5R210h,0*66
!AIVDM,1,1,,B,16:fm?0P00`6f`J=>JGd4P5R2L5a,0*15
$GNGGA,083250.000,2307.2756,N,11318.8342,E,1,06,2.7,87.3,M,0.0,M,,*46
$GPGSA,A,3,29,24,02,,,,,,,,,,3.5,2.7,2.3*3F
$BDGSA,A,3,11,09,05,,,,,,,,,,3.5,2.7,2.3*2D
$GNRMC,083250.000,A,2307.2756,N,11318.8342,E,2.46,19.07,100919,,,A*44
$GNGGA,083251.000,2307.2749,N,11318.8334,E,1,06,2.7,86.8,M,0.0,M,,*42
$GNRMC,083251.000,A,2307.2749,N,11318.8334,E,0.91,2.82,100919,,,A*75
!AIVDM,1,1,,B,403sl3Av>E8Pk`6OJn=>ONi020S:,0*7C
$GNGGA,083252.000,2307.2748,N,11318.8329,E,1,06,2.7,86.9,M,0.0,M,,*4D
$GPGSA,A,3,29,24,02,,,,,,,,,,3.5,2.7,2.3*3F
$BDGSA,A,3,11,09,05,,,,,,,,,,3.5,2.7,2.3*2D
$GPGSV,2,1,08,02,16,144,31,05,25,077,,13,34,033,,15,63,354,*70
$GPGSV,2,2,08,20,18,306,,21,38,319,,24,48,165,29,29,32,226,38*78
$BDGSV,2,1,06,01,,,32,02,,,29,05,25,256,36,09,60,268,23*60
$BDGSV,2,2,06,10,05,190,31,11,42,204,36*65
$GNRMC,083252.000,A,2307.2748,N,11318.8329,E,0.56,7.66,100919,,,A*7F
!AIVDM,1,1,,A,36:fm?0P00`6f`J=>JGd4P5`21tP,0*2B
$GNGGA,083253.000,2307.2732,N,11318.8319,E,1,06,2.7,86.6,M,0.0,M,,*4D
$GNRMC,083253.000,A,2307.2732,N,11318.8319,E,1.20,212.88,100919,,,A*76
$GNGGA,083254.000,2307.2740,N,11318.8297,E,1,06,2.7,89.6,M,0.0,M,,*47
$GPGSA,A,3,29,24,02,,,,,,,,,,3.5,2.7,2.3*3F
$BDGSA,A,3,11,09,05,,,,,,,,,,3.5,2.7,2.3*2D
$GNRMC,083254.000,A,2307.2740,N,11318.8297,E,1.55,208.05,100919,,,A*7F
$GNGGA,083255.000,2307.2742,N,11318.8287,E,1,06,2.7,90.2,M,0.0,M,,*49
$GNRMC,083255.000,A,2307.2742,N,11318.8287,E,1.61,171.00,100919,,,A*72
$GNGGA,083256.000,2307.2730,N,11318.8266,E,1,06,2.7,93.3,M,0.0,M,,*42
$GPGSA,A,3,29,24,02,,,,,,,,,,3.5,2.7,2.3*3F
$BDGSA,A,3,11,09,05,,,,,,,,,,3.5,2.7,2.3*2D
$GNRMC,083256.000,A,2307.2730,N,11318.8266,E,0.60,180.58,100919,,,A*78
!AIVDM,1,1,,B,36:fm?0P00`6f`J=>JGd4P3h21u0,0*47
$GNGGA,083257.000,2307.2725,N,11318.8266,E,1,06,2.7,93.3,M,0.0,M,,*47
$GPGSV,2,1,08,02,16,144,31,05,25,077,,13,34,033,,15,63,354,*70
$GPGSV,2,2,08,20,18,306,,21,38,319,,24,49,165,29,29,32,226,38*79
$BDGSV,2,1,06,01,,,32,02,,,29,05,25,256,36,09,60,268,22*61
$BDGSV,2,2,06,10,05,190,30,11,42,204,36*64
$GNRMC,083257.000,A,2307.2725,N,11318.8266,E,0.79,201.38,100919,,,A*79
$GNGGA,083258.000,2307.2718,N,11318.8265,E,1,06,2.7,93.3,M,0.0,M,,*45
$GPGSA,A,3,29,24,02,,,,,,,,,,3.5,2.7,2.3*3F
$BDGSA,A,3,11,09,05,,,,,,,,,,3.5,2.7,2.3*2D
$GNRMC,083258.000,A,2307.2718,N,11318.8265,E,1.52,206.87,100919,,,A*70
$GNGGA,083259.000,2307.2703,N,11318.8262,E,1,06,2.7,94.3,M,0.0,M,,*4E
$GNRMC,083259.000,A,2307.2703,N,11318.8262,E,2.10,196.47,100919,,,A*7F
!AIVDM,1,1,,A,16:fm?0P00`6f`J=>JGL4P1n2D5b,0*0D
$GNGGA,083300.000,2307.2695,N,11318.8264,E,1,06,2.7,95.1,M,0.0,M,,*48
$GPGSA,A,3,29,24,02,,,,,,,,,,3.5,2.7,2.3*3F
$BDGSA,A,3,11,09,05,,,,,,,,,,3.5,2.7,2.3*2D
$GNRMC,083300.000,A,2307.2695,N,11318.8264,E,2.20,204.40,100919,,,A*76
$GNGGA,083301.000,2307.2689,N,11318.8269,E,1,07,2.4,94.1,M,0.0,M,,*4A
$GNRMC,083301.000,A,2307.2689,N,11318.8269,E,1.90,195.70,100919,,,A*77
$GNGGA,083302.000,2307.2724,N,11318.8284,E,1,07,2.4,94.1,M,0.0,M,,*4C
$GPGSA,A,3,29,24,02,,,,,,,,,,3.2,2.4,2.1*39
$BDGSA,A,3,11,09,05,10,,,,,,,,,3.2,2.4,2.1*2A
$GPGSV,2,1,08,02,16,144,31,05,25,077,,13,34,033,,15,63,355,*71
$GPGSV,2,2,08,20,18,306,,21,38,319,,24,49,165,28,29,32,226,38*78
$BDGSV,2,1,06,01,,,32,02,,,30,05,25,256,35,09,60,268,22*6A
$BDGSV,2,2,06,10,05,190,30,11,42,204,36*64
$GNRMC,083302.000,A,2307.2724,N,11318.8284,E,0.47,33.84,100919,,,A*4C
$GNGGA,083303.000,2307.2724,N,11318.8289,E,1,07,2.4,93.7,M,0.0,M,,*41
$GNRMC,083303.000,A,2307.2724,N,11318.8289,E,1.93,200.71,100919,,,A*70
$GNGGA,083304.000,2307.2729,N,11318.8288,E,1,07,2.4,93.7,M,0.0,M,,*4A
$GPGSA,A,3,29,24,02,,,,,,,,,,3.2,2.4,2.1*39
$BDGSA,A,3,11,09,05,10,,,,,,,,,3.2,2.4,2.1*2A
$GNRMC,083304.000,A,2307.2729,N,11318.8288,E,0.47,171.25,100919,,,A*77
$GNGGA,083305.000,2307.2730,N,11318.8286,E,1,07,2.4,94.0,M,0.0,M,,*4D
$GNRMC,083305.000,A,2307.2730,N,11318.8286,E,0.44,180.46,100919,,,A*78
!AIVDO,1,1,,,B68rO0001:1cFO3CcUahkwRVSP06,0*26
!AIVDM,1,1,,A,36:fm?0P01`6f`L=>JGd4P0:210@,0*27
$GNGGA,083306.000,2307.2733,N,11318.8283,E,1,07,2.4,93.9,M,0.0,M,,*46
$GPGSA,A,3,29,24,02,,,,,,,,,,3.2,2.4,2.1*39
$BDGSA,A,3,11,09,05,10,,,,,,,,,3.2,2.4,2.1*2A
$GNRMC,083306.000,A,2307.2733,N,11318.8283,E,0.50,184.22,100919,,,A*7E
!AIVDO,1,1,,,B68rO003wp3?<DSCcUcQ3wSVSP06,0*04
$GNGGA,083307.000,2307.2736,N,11318.8279,E,1,07,2.4,94.3,M,0.0,M,,*4A
$GPGSV,2,1,08,02,16,144,33,05,25,077,,13,34,033,,15,63,355,*73
$GPGSV,2,2,08,20,18,306,,21,38,319,,24,49,165,30,29,32,226,37*7E
$BDGSV,2,1,06,01,,,32,02,,,30,05,25,256,35,09,60,268,23*6B
$BDGSV,2,2,06,10,05,190,30,11,41,204,36*67
$GNRMC,083307.000,A, E,0.23,249.72,100919,,,A*7C
$GNGGA,083308.000,2307.2736,N,11318.8273,E,1,07,2.4,94.2,M,0.0,M,,*4E
$GPGSA,A,3,29,24,02,,,,,,,,,,3.2,2.4,2.1*39
$BDGSA,A,3,11,09,05,10,,,,,,,,,3.2,2.4,2.1*2A
$GNRMC,083308.000,A,2307.2736,N,11318.8273,E,0.68,179.05,100919,,,A*76
$GNGGA,083309.000,2307.2735,N,11318.8272,E,1,07,2.4,94.7,M,0.0,M,,*48
$GNRMC,083309.000,A,2307.2735,N,11318.8272,E,0.74,226.78,100919,,,A*7B
!AIVDM,1,1,,B,B68rO003wp3?<DSCcUcQ3wSVSP06,0*44
!AIVDM,1,1,,B,36:fm?0Oh0`6f`L=>JGt4c<B20u@,0*71
ƒ£($GNGGA,083310.000,2307.2734,N,11318.8271,E,1,07,2.4,95.3,M,0.0,M,,*47
$GPGSA,A,3,29,24,02,,,,,,,,,,3.2,2.4,2.1*39
$BDGSA,A,3,11,09,05,10,,,,,,,,,3.2,2.4,2.1*2A
$GNRMC,083310.000,A,2307.2734,N,11318.8271,E,0.85,208.15,100919,,,A*78
$GNGGA,083311.000,2307.2731,N,11318.8271,E,1,07,2.4,96.1,M,0.0,M,,*42
$GNRMC,083311.000,A,2307.2731,N,11318.8271,E,1.07,205.41,100919,,,A*7B
!AIVDM,1,1,,B,403sl3Av>E8Q;`6OJn=>ONi02<;:,0*49
$GNGGA,083312.000,2307.2731,N,11318.8270,E,1,07,2.4,97.3,M,0.0,M,,*43
$GPGSA,A,3,29,24,02,,,,,,,,,,3.2,2.4,2.1*39
$BDGSA,A,3,11,09,05,10,,,,,,,,,3.2,2.4,2.1*2A
$GPGSV,2,1,08,02,15,144,29,05,25,077,,13,34,033,,15,63,355,*7B
$GPGSV,2,2,08,20,18,306,,21,38,319,,24,49,165,30,29,32,226,38*71
$BDGSV,2,1,06,01,,,32,02,,,30,05,25,256,35,09,60,268,23*6B
$BDGSV,2,2,06,10,05,190,30,11,41,204,36*67
$GNRMC,083312.000,A,2307.2731,N,11318.8270,E,1.23,222.12,100919,,,A*7C
$GNGGA,083313.000,2307.2731,N,11318.8270,E,1,07,2.4,98.3,M,0.0,M,,*4D
$GNRMC,083313.000,A,2307.2731,N,11318.8270,E,1.24,201.07,100919,,,A*7F
$GNGGA,083314.000,2307.2732,N,11318.8272,E,1,07,2.4,98.9,M,0.0,M,,*41
$GPGSA,A,3,29,24,02,,,,,,,,,,3.2,2.4,2.1*39
$BDGSA,A,3,11,09,05,10,,,,,,,,,3.2,2.4,2.1*2A
$GNRMC,083314.000,A,2307.2732,N,11318.8272,E,0.90,179.66,100919,,,A*7C
$GNGGA,083315.000,2307.2733,N,11318.8274,E,1,07,2.4,99.1,M,0.0,M,,*4E
$GNRMC,083315.000,A,2307.2733,N,11318.8274,E,0.73,164.02,100919,,,A*79
$GNGGA,083316.000,2307.2730,N,11318.8277,E,1,07,2.4,100.2,M,0.0,M,,*7F
$GPGSA,A,3,29,24,02,,,,,,,,,,3.2,2.4,2.1*39
$BDGSA,A,3,11,09,05,10,,,,,,,,,3.2,2.4,2.1*2A
$GNRMC,083316.000,A,2307.2730,N,11318.8277,E,0.80,207.06,100919,,,A*74
!AIVDM,1,1,,B,36:fm?0P00`6f`R=>JGt4P4N21vh,0*35
$GNGGA,083317.000,2307.2731,N,11318.8278,E,1,07,2.4,100.2,M,0.0,M,,*70
$GPGSV,2,1,08,02,15,144,32,05,25,077,,13,34,033,,15,63,355,*71
$GPGSV,2,2,08,20,18,306,,21,38,319,,24,49,165,30,29,32,226,38*71
$BDGSV,2,1,06,01,,,32,02,,,30,05,25,256,35,09,60,268,23*6B
$BDGSV,2,2,06,10,05,190,31,11,41,204,37*67
$GNRMC,083317.000,A,2307.2731,N,11318.8278,E,0.72,186.44,100919,,,A*7A
$GNGGA,083318.000,2307.2731,N,11318.8283,E,1,07,2.4,100.2,M,0.0,M,,*7B
$GPGSA,A,3,29,24,02,,,,,,,,,,3.2,2.4,2.1*39
$BDGSA,A,3,11,09,05,10,,,,,,,,,3.2,2.4,2.1*2A
$GNRMC,083318.000,A,2307.2731,N,11318.8283,E,0.33,178.34,100919,,,A*72
$GNGGA,083319.000,2307.2731,N,11318.8283,E,1,07,2.4,100.2,M,0.0,M,,*7A
$GNRMC,083319.000,A,2307.2731,N,11318.8283,E,0.35,338.87,100919,,,A*7B
$GNGGA,083320.000,2307.2731,N,11318.8283,E,1,07,2.4,100.2,M,0.0,M,,*70
$GPGSA,A,3,29,24,02,,,,,,,,,,3.2,2.4,2.1*39
$BDGSA,A,3,11,09,05,10,,,,,,,,,3.2,2.4,2.1*2A
$GNRMC,083320.000,A,2307.2731,N,11318.8283,E,0.74,358.94,100919,,,A*70
!AIVDM,1,1,,A,16:fm?0P00`6f`T=>JHL4P0V28=;,0*08
$GNGGA,083321.000,2307.2731,N,11318.8283,E,1,07,2.4,100.2,M,0.0,M,,*71
$GNRMC,083321.000,A,2307.2731,N,11318.8283,E,0.72,6.01,100919,,,A*73
$GNGGA,083322.000,2307.2731,N,11318.8283,E,1,07,2.4,100.2,M,0.0,M,,*72
$GPGSA,A,3,29,24,02,,,,,,,,,,3.2,2.4,2.1*39
$BDGSA,A,3,11,09,05,10,,,,,,,,,3.2,2.4,2.1*2A
$GPGSV,2,1,08,02,15,144,32,05,25,077,,13,34,034,,15,63,355,*76
$GPGSV,2,2,08,20,18,306,,21,38,319,,24,49,165,30,29,32,226,38*71
$BDGSV,2,1,06,01,,,32,02,,,29,05,25,256,36,09,60,268,23*60
$BDGSV,2,2,06,10,05,190,31,11,41,204,37*67
$GNRMC,083322.000,A,2307.2731,N,11318.8283,E,0.23,50.29,100919,,,A*4D
$GNGGA,083323.000,2307.2731,N,11318.8283,E,1,07,2.4,100.2,M,0.0,M,,*73
$GNRMC,083323.000,A,2307.2731,N,11318.8283,E,1.16,26.38,100919,,,A*4A
$GNGGA,083324.000,2307.2731,N,11318.8283,E,1,07,2.4,100.2,M,0.0,M,,*74
$GPGSA,A,3,29,24,02,,,,,,,,,,3.2,2.4,2.1*39
$BDGSA,A,3,11,09,05,10,,,,,,,,,3.2,2.4,2.1*2A
$GNRMC,083324.000,A,2307.2731,N,11318.8283,E,1.15,355.53,100919,,,A*74
$GNGGA,083325.000,2307.2730,N,11318.8283,E,1,07,2.4,100.1,M,0.0,M,,*77
$GNRMC,083325.000,A,2307.2730,N,11318.8283,E,1.13,170.64,100919,,,A*73
$GNGGA,083326.000,2307.2726,N,11318.8283,E,1,07,2.4,100.2,M,0.0,M,,*70
$GPGSA,A,3,29,24,02,,,,,,,,,,3.2,2.4,2.1*39
$BDGSA,A,3,11,09,05,10,,,,,,,,,3.2,2.4,2.1*2A
$GNRMC,083326.000,A,2307.2726,N,11318.8283,E,1.00,181.85,100919,,,A*74
!AIVDM,1,1,,A,36:fm?0P00`6f`R=>JHt4P4j20vh,0*1C
$GNGGA,083621.000,2307.2790,N,11318.8356,E,1,07,2.3,99.6,M,0.0,M,,*44
$GNRMC,083621.000,A,2307.2790,N,11318.8356,E,0.16,347.28,100919,,,A*7B
$GNGGA,083622.000,2307.2791,N,11318.8358,E,1,07,2.3,99.5,M,0.0,M,,*4B
$GPGSA,A,3,29,24,02,,,,,,,,,,3.1,2.3,2.1*3D
$BDGSA,A,3,11,09,05,10,,,,,,,,,3.1,2.3,2.1*2E
$GPGSV,2,1,08,02,14,145,27,05,24,079,,13,33,034,,15,62,357,*79
$GPGSV,2,2,08,20,19,307,,21,39,318,,24,50,164,29,29,31,224,39*70
$BDGSV,2,1,07,01,,,32,02,,,29,05,25,256,36,07,,,26*50
$BDGSV,2,2,07,09,59,270,22,10,05,190,28,11,40,204,36*5E
$GNRMC,083622.000,A,2307.2791,N,11318.8358,E,0.19,347.28,100919,,,A*78
!AIVDM,1,1,,B,36:fm?0P00`6f`P=>JJ<4P0d21wP,0*65
$GNGGA,083623.000,2307.2794,N,11318.8358,E,1,07,2.3,98.9,M,0.0,M,,*42
$GNRMC,083623.000,A,2307.2794,N,11318.8358,E,0.42,87.66,100919,,,A*47
$GNGGA,083624.000,2307.2795,N,11318.8358,E,1,07,2.3,98.1,M,0.0,M,,*4C
$GPGSA,A,3,29,24,02,,,,,,,,,,3.1,2.3,2.1*3D
$BDGSA,A,3,11,09,05,10,,,,,,,,,3.1,2.3,2.1*2E
$GNRMC,083624.000,A,2307.2795,N,11318.8358,E,0.34,97.63,100919,,,A*44
$GNGGA,083625.000,2307.2797,N,11318.8357,E,1,07,2.3,97.5,M,0.0,M,,*4B
$GNRMC,083625.000,A,2307.2797,N,11318.8357,E,0.35,23.34,100919,,,A*44
!AIVDM,1,1,,A,36:fm?0P00`6f`N=>JIt4P0j211@,0*6B
$GNGGA,083626.000,2307.2801,N,11318.8356,E,1,07,2.3,96.8,M,0.0,M,,*45
$GPGSA,A,3,29,24,02,,,,,,,,,,3.1,2.3,2.1*3D
$BDGSA,A,3,11,09,05,10,,,,,,,,,3.1,2.3,2.1*2E
$GNRMC,083626.000,A,2307.2801,N,11318.8356,E,0.49,34.16,100919,,,A*4B
$GNGGA,083627.000,2307.2807,N,11318.8356,E,1,07,2.3,95.9,M,0.0,M,,*40
$GPGSV,2,1,08,02,14,145,28,05,24,079,,13,33,034,,15,62,357,*76
$GPGSV,2,2,08,20,19,307,,21,39,318,,24,50,164,29,29,31,224,39*70
$BDGSV,2,1,07,01,,,32,02,,,29,05,25,256,35,07,,,25*50
$BDGSV,2,2,07,09,59,270,22,10,05,189,28,11,40,204,37*57
$GNRMC,083627.000,A,2307.2807,N,11318.8356,E,0.92,21.00,100919,,,A*49
$GNGGA,083628.000,2307.2812,N,11318.8356,E,1,07,2.3,95.3,M,0.0,M,,*41
$GPGSA,A,3,29,24,02,,,,,,,,,,3.1,2.3,2.1*3D
$BDGSA,A,3,11,09,05,10,,,,,,,,,3.1,2.3,2.1*2E
$GNRMC,083628.000,A,2307.2812,N,11318.8356,E,1.06,17.85,100919,,,A*46
$GNGGA,083629.000,2307.2811,N,11318.8354,E,1,07,2.3,95.7,M,0.0,M,,*45
$GNRMC,083629.000,A,2307.2811,N,11318.8354,E,0.93,349.90,100919,,,A*77
$GNGGA,083630.000,2307.2809,N,11318.8355,E,1,07,2.3,95.8,M,0.0,M,,*4A
$GPGSA,A,3,29,24,02,,,,,,,,,,3.1,2.3,2.1*3D
$BDGSA,A,3,11,09,05,10,,,,,,,,,3.1,2.3,2.1*2E
$GNRMC,083630.000,A,2307.2809,N,11318.8355,E,0.31,27.14,100919,,,A*48
$GNGGA,083631.000,2307.2808,N,11318.8355,E,1,07,2.3,95.7,M,0.0,M,,*45
$GNRMC,083631.000,A,2307.2808,N,11318.8355,E,0.00,27.14,100919,,,A*4A
$GNGGA,083632.000,2307.2792,N,11318.8356,E,1,07,2.3,99.1,M,0.0,M,,*43
$GPGSA,A,3,29,24,02,,,,,,,,,,3.1,2.3,2.1*3D
$BDGSA,A,3,11,09,05,10,,,,,,,,,3.1,2.3,2.1*2E
$GPGSV,2,1,08,02,14,145,27,05,24,079,,13,33,034,,15,62,357,*79
$GPGSV,2,2,08,20,19,307,,21,39,318,,24,50,164,30,29,31,224,40*76
$BDGSV,2,1,07,01,,,32,02,,,29,05,25,256,35,07,,,25*50
$BDGSV,2,2,07,09,59,270,22,10,05,189,28,11,40,203,38*5F
$GNRMC,083632.000,A,2307.2792,N,11318.8356,E,0.07,27.14,100919,,,A*41
$GNGGA,083633.000,2307.2794,N,11318.8357,E,1,07,2.3,99.4,M,0.0,M,,*40
$GNRMC,083633.000,A,2307.2794,N,11318.8357,E,0.22,43.58,100919,,,A*4A
$GNGGA,083634.000,2307.2792,N,11318.8356,E,1,07,2.3,99.7,M,0.0,M,,*43
$GPGSA,A,3,29,24,02,,,,,,,,,,3.1,2.3,2.1*3D
$BDGSA,A,3,11,09,05,10,,,,,,,,,3.1,2.3,2.1*2E
$GNRMC,083634.000,A,2307.2792,N,11318.8356,E,0.41,192.73,100919,,,A*7B
$GNGGA,083635.000,2307.2791,N,11318.8355,E,1,07,2.3,99.7,M,0.0,M,,*42
$GNRMC,083635.000,A,2307.2791,N,11318.8355,E,0.52,215.62,100919,,,A*74
$GNGGA,083636.000,2307.2777,N,11318.8360,E,1,07,2.3,102.0,M,0.0,M,,*7B
$GPGSA,A,3,29,24,02,,,,,,,,,,3.1,2.3,2.1*3D
$BDGSA,A,3,11,09,05,10,,,,,,,,,3.1,2.3,2.1*2E
$GNRMC,083636.000,A,2307.2777,N,11318.8360,E,0.54,163.26,100919,,,A*7D
$GNGGA,083637.000,2307.2777,N,11318.8361,E,1,07,2.3,101.0,M,0.0,M,,*78
$GPGSV,2,1,08,02,14,145,27,05,24,079,,13,32,034,,15,62,357,*78
$GPGSV,2,2,08,20,19,307,,21,39,318,,24,50,164,28,29,31,224,40*7F
$BDGSV,2,1,07,01,,,32,02,,,29,05,25,256,35,07,,,25*50
$BDGSV,2,2,07,09,59,270,22,10,05,189,28,11,40,203,38*5F
$GNRMC,083637.000,A,2307.2777,N,11318.8361,E,1.13,169.34,100919,,,A*76
$GNGGA,083638.000,2307.2782,N,11318.8362,E,1,07,2.3,99.1,M,0.0,M,,*4F
$GPGSA,A,3,29,24,02,,,,,,,,,,3.1,2.3,2.1*3D
$BDGSA,A,3,11,09,05,10,,,,,,,,,3.1,2.3,2.1*2E
$GNRMC,083638.000,A,2307.2782,N,11318.8362,E,1.09,161.17,100919,,,A*72
$GNGGA,083639.000,2307.2780,N,11318.8365,E,1,07,2.3,100.4,M,0.0,M,,*7F
$GNRMC,083639.000,A,2307.2780,N,11318.8365,E,1.50,4.73,100919,,,A*7A
!AIVDM,1,1,,A,16:fm?0P00`6f`H=>JI<4P5<28HD,0*00
$GNGGA,083640.000,2307.2801,N,11318.8368,E,1,07,2.3,98.3,M,0.0,M,,*4D
$GPGSA,A,3,29,24,02,,,,,,,,,,3.1,2.3,2.1*3D
$BDGSA,A,3,11,09,05,10,,,,,,,,,3.1,2.3,2.1*2E
$GNRMC,083640.000,A,2307.2801,N,11318.8368,E,2.85,18.04,100919,,,A*49
$GNGGA,083641.000,2307.2808,N,11318.8369,E,1,07,2.3,96.6,M,0.0,M,,*4F
$GNRMC,083641.000,A,2307.2808,N,11318.8369,E,1.77,12.10,100919,,,A*41
$GNGGA,083642.000,2307.2787,N,11318.8362,E,1,07,2.3,98.7,M,0.0,M,,*40
$GPGSA,A,3,29,24,02,,,,,,,,,,3.1,2.3,2.1*3D
$BDGSA,A,3,11,09,05,10,,,,,,,,,3.1,2.3,2.1*2E
$GPGSV,2,1,08,02,14,145,27,05,24,079,,13,32,034,,15,62,357,*78
$GPGSV,2,2,08,20,19,307,,21,39,318,,24,50,164,27,29,31,224,40*70
$BDGSV,2,1,07,01,,,32,02,,,29,05,25,256,35,07,,,24*51
$BDGSV,2,2,07,09,59,270,23,10,05,189,29,11,40,203,37*50
$GNRMC,083642.000,A,2307.2787,N,11318.8362,E,0.58,351.59,100919,,,A*74
$GNGGA,083643.000,2307.2774,N,11318.8354,E,1,07,2.3,99.6,M,0.0,M,,*48
$GNRMC,083643.000,A,2307.2774,N,11318.8354,E,0.44,212.83,100919,,,A*70
$GNGGA,083644.000,2307.2764,N,11318.8348,E,1,07,2.3,100.4,M,0.0,M,,*70
$GPGSA,A,3,29,24,02,,,,,,,,,,3.1,2.3,2.1*3D
$BDGSA,A,3,11,09,05,10,,,,,,,,,3.1,2.3,2.1*2E
$GNRMC,083644.000,A,2307.2764,N,11318.8348,E,0.94,219.52,100919,,,A*71
$GNGGA,083645.000,2307.2761,N,11318.8346,E,1,07,2.3,100.7,M,0.0,M,,*79
$GNRMC,083645.000,A,2307.2761,N,11318.8346,E,0.67,201.28,100919,,,A*73
$GNGGA,083646.000,2307.2761,N,11318.8347,E,1,07,2.3,99.8,M,0.0,M,,*45
$GPGSA,A,3,29,24,02,,,,,,,,,,3.1,2.3,2.1*3D
$BDGSA,A,3,11,09,05,10,,,,,,,,,3.1,2.3,2.1*2E
$GNRMC,083646.000,A,2307.2761,N,11318.8347,E,1.46,157.55,100919,,,A*79
$GNGGA,083647.000,2307.2759,N,11318.8347,E,1,07,2.3,99.3,M,0.0,M,,*44
$GPGSV,2,1,08,02,14,145,23,05,24,079,,13,32,034,,15,62,357,*7C
$GPGSV,2,2,08,20,19,307,,21,39,318,,24,50,163,28,29,31,224,39*76
$BDGSV,2,1,07,01,,,32,02,,,29,05,25,256,35,07,,,24*51
$BDGSV,2,2,07,09,59,270,23,10,05,189,29,11,40,203,37*50
$GNRMC,083647.000,A,2307.2759,N,11318.8347,E,0.97,168.97,100919,,,A*7C
$GNGGA,083648.000,2307.2758,N,11318.8345,E,1,07,2.3,99.0,M,0.0,M,,*4B
$GPGSA,A,3,29,24,02,,,,,,,,,,3.1,2.3,2.1*3D
$BDGSA,A,3,11,09,05,10,,,,,,,,,3.1,2.3,2.1*2E
$GNRMC,083648.000,A,2307.2758,N,11318.8345,E,0.53,190.85,100919,,,A*7C
$GNGGA,083649.000,2307.2760,N,11318.8343,E,1,07,2.3,98.2,M,0.0,M,,*44
$GNRMC,083649.000,A,2307.2760,N,11318.8343,E,0.47,186.21,100919,,,A*7C
!AIVDM,1,1,,B,16:fm?0P01`6f`H=>JHd4P1R2<5R,0*5E
$GNGGA,083650.000,2307.2764,N,11318.8344,E,1,07,2.3,97.2,M,0.0,M,,*40
$GPGSA,A,3,29,24,02,,,,,,,,,,3.1,2.3,2.1*3D
$BDGSA,A,3,11,09,05,10,,,,,,,,,3.1,2.3,2.1*2E
$GNRMC,083650.000,A,2307.2764,N,11318.8344,E,0.48,114.09,100919,,,A*79
$AISUC,SetSuccess!
0
 $GNGGA,083651.000,2307.2764,N,11318.8343,E,1,07,2.3,97.3,M,0.0,M,,*47
$GNRMC,083651.000,A,2307.2764,N,11318.8343,E,0.29,329.60,100919,,,A*7B
!AIVDM,1,1,,B,403sl3Av>E8Tk`6OJn=>ONi028NN,0*19
$GNGGA,083652.000,2307.2769,N,11318.8342,E,1,07,2.3,96.7,M,0.0,M,,*4D
$GPGSA,A,3,29,24,02,,,,,,,,,,3.1,2.3,2.1*3D
$BDGSA,A,3,11,09,05,10,,,,,,,,,3.1,2.3,2.1*2E
$GPGSV,2,1,08,02,14,145,23,05,24,079,,13,32,034,,15,62,357,*7C
$GPGSV,2,2,08,20,19,307,,21,39,318,,24,50,163,29,29,31,224,39*77
$BDGSV,2,1,07,01,,,32,02,,,29,05,25,256,35,07,,,24*51
$BDGSV,2,2,07,09,59,270,23,10,05,189,29,11,40,203,37*50
$GNRMC,083652.000,A,2307.2769,N,11318.8342,E,0.48,352.70,100919,,,A*7E
$GNGGA,083653.000,2307.2768,N,11318.8337,E,1,07,2.3,97.6,M,0.0,M,,*4F
$GNRMC,083653.000,A,2307.2768,N,11318.8337,E,0.89,326.35,100919,,,A*73
$GNGGA,083654.000,2307.2769,N,11318.8336,E,1,07,2.3,97.8,M,0.0,M,,*46
$GPGSA,A,3,29,24,02,,,,,,,,,,3.1,2.3,2.1*3D
$BDGSA,A,3,11,09,05,10,,,,,,,,,3.1,2.3,2.1*2E
$GNRMC,083654.000,A,2307.2769,N,11318.8336,E,0.34,2.23,100919,,,A*70
$GNGGA,083655.000,2307.2772,N,11318.8336,E,1,07,2.3,97.2,M,0.0,M,,*47
$GNRMC,083655.000,A,2307.2772,N,11318.8336,E,0.34,43.63,100919,,,A*4A
$GNGGA,083656.000,2307.2772,N,11318.8336,E,1,07,2.3,97.2,M,0.0,M,,*44
$GPGSA,A,3,29,24,02,,,,,,,,,,3.1,2.3,2.1*3D
$BDGSA,A,3,11,09,05,10,,,,,,,,,3.1,2.3,2.1*2E
$GNRMC,083656.000,A,2307.2772,N,11318.8336,E,0.64,35.39,100919,,,A*42
$GNGGA,083657.000,2307.2772,N,11318.8336,E,1,07,2.3,97.2,M,0.0,M,,*45
$GPGSV,2,1,08,02,14,145,27,05,24,079,,13,32,034,18,15,62,357,*71
$GPGSV,2,2,08,20,19,307,,21,39,318,,24,50,163,28,29,31,224,40*78
$BDGSV,2,1,07,01,,,32,02,,,29,05,25,256,35,07,,,25*50
$BDGSV,2,2,07,09,59,270,23,10,05,189,30,11,40,203,38*57
$GNRMC,083657.000,A,2307.2772,N,11318.8336,E,1.03,46.92,100919,,,A*46
$GNGGA,083658.000,2307.2772,N,11318.8336,E,1,07,2.3,97.2,M,0.0,M,,*4A
$GPGSA,A,3,29,24,02,,,,,,,,,,3.1,2.3,2.1*3D
$BDGSA,A,3,11,09,05,10,,,,,,,,,3.1,2.3,2.1*2E
$GNRMC,083658.000,A,2307.2772,N,11318.8336,E,0.94,25.05,100919,,,A*4D
$GNGGA,083659.000,2307.2772,N,11318.8336,E,1,07,2.3,97.2,M,0.0,M,,*4B
$GNRMC,083659.000,A,2307.2772,N,11318.8336,E,0.63,61.87,100919,,,A*4E
!AIVDM,1,1,,A,16:fm?0P00`6f`D=>JGt4P5n252@,0*6B
$GNGGA,083700.000,2307.2772,N,11318.8336,E,1,07,2.3,97.2,M,0.0,M,,*46
$GPGSA,A,3,29,24,02,,,,,,,,,,3.1,2.3,2.1*3D
$BDGSA,A,3,11,09,05,10,,,,,,,,,3.1,2.3,2.1*2E
$GNRMC,083700.000,A,2307.2772,N,11318.8336,E,0.76,31.01,100919,,,A*4C
$GNGGA,083701.000,2307.2773,N,11318.8337,E,1,07,2.3,97.6,M,0.0,M,,*43
$GNRMC,083701.000,A,2307.2773,N,11318.8337,E,0.68,29.32,100919,,,A*4B
$GNGGA,083702.000,2307.2773,N,11318.8337,E,1,07,2.3,97.9,M,0.0,M,,*4F
$GPGSA,A,3,29,24,02,,,,,,,,,,3.1,2.3,2.1*3D
$BDGSA,A,3,11,09,05,10,,,,,,,,,3.1,2.3,2.1*2E
$GPGSV,2,1,08,02,14,145,25,05,24,079,,13,32,034,18,15,62,358,*7C
$GPGSV,2,2,08,20,19,307,,21,39,318,,24,50,163,29,29,31,224,40*79
$BDGSV,2,1,07,01,,,32,02,,,29,05,25,256,36,07,,,26*50
$BDGSV,2,2,07,09,59,270,22,10,05,189,29,11,40,203,38*5E
$GNRMC,083702.000,A,2307.2773,N,11318.8337,E,0.46,30.63,100919,,,A*48
$GNGGA,083703.000,2307.2775,N,11318.8337,E,1,07,2.3,98.0,M,0.0,M,,*4E
$GNRMC,083703.000,A,2307.2775,N,11318.8337,E,0.38,29.91,100919,,,A*43
$GNGGA,083704.000,2307.2773,N,11318.8336,E,1,07,2.3,97.3,M,0.0,M,,*42
$GPGSA,A,3,29,24,02,,,,,,,,,,3.1,2.3,2.1*3D
$BDGSA,A,3,11,09,05,10,,,,,,,,,3.1,2.3,2.1*2E
$GNRMC,083704.000,A,2307.2773,N,11318.8336,E,0.49,47.47,100919,,,A*46
!AIVDM,1,1,,B,D03sl3@@LNfp00N000,4*20
$GNGGA,083705.000,2307.2773,N,11318.8336,E,1,07,2.3,97.3,M,0.0,M,,*43
$GNRMC,083705.000,A,2307.2773,N,11318.8336,E,0.11,47.47,100919,,,A*4A
$GNGGA,083706.000,2307.2773,N,11318.8336,E,1,07,2.3,97.3,M,0.0,M,,*40
$GPGSA,A,3,29,24,02,,,,,,,,,,3.1,2.3,2.1*3D
$BDGSA,A,3,11,09,05,10,,,,,,,,,3.1,2.3,2.1*2E
$GNRMC,083706.000,A,2307.2773,N,11318.8336,E,0.74,85.53,100919,,,A*41
$GNGGA,083707.000,2307.2773,N,11318.8336,E,1,07,2.3,97.3,M,0.0,M,,*41
$GPGSV,2,1,08,02,14,145,25,05,24,079,,13,32,034,16,15,62,358,*72
$GPGSV,2,2,08,20,19,307,,21,39,318,,24,50,163,30,29,31,224,39*7F
$BDGSV,2,1,07,01,,,32,02,,,29,05,25,256,36,07,,,26*50
$BDGSV,2,2,07,09,59,270,22,10,05,189,29,11,40,203,38*5E
$GNRMC,083707.000,A,2307.2773,N,11318.8336,E,0.56,10.82,100919,,,A*40
$GNGGA,083708.000,2307.2773,N,11318.8336,E,1,07,2.3,97.3,M,0.0,M,,*4E
$GPGSA,A,3,29,24,02,,,,,,,,,,3.1,2.3,2.1*3D
$BDGSA,A,3,11,09,05,10,,,,,,,,,3.1,2.3,2.1*2E
$GNRMC,083708.000,A,2307.2773,N,11318.8336,E,0.56,34.60,100919,,,A*45
!AIVDM,1,1,,B,16:fm?0P00`6f`D=>JGL4P2@2@6L,0*04
$GNGGA,083709.000,2307.2773,N,11318.8336,E,1,07,2.3,97.3,M,0.0,M,,*4F
$GNRMC,083709.000,A,2307.2773,N,11318.8336,E,0.68,36.22,100919,,,A*4D
$GNGGA,083710.000,2307.2773,N,11318.8336,E,1,07,2.3,97.3,M,0.0,M,,*47
$GPGSA,A,3,29,24,02,,,,,,,,,,3.1,2.3,2.1*3D
$BDGSA,A,3,11,09,05,10,,,,,,,,,3.1,2.3,2.1*2E
$GNRMC,083710.000,A,2307.2773,N,11318.8336,E,0.42,351.38,100919,,,A*74
$GNGGA,083711.000,2307.2773,N,11318.8336,E,1,07,2.3,97.3,M,0.0,M,,*46
$GNRMC,083711.000,A,2307.2773,N,11318.8336,E,0.14,351.38,100919,,,A*76
!AIVDO,1,1,,,B68rO0000J1cFp3Cc`GKWwUVSP06,0*63
!AIVDM,1,1,,B,403sl3Av>E8U;`6OJn=>ONi02<;H,0*3F
$GNGGA,083712.000,2307.2773,N,11318.8336,E,1,07,2.3,97.3,M,0.0,M,,*45
$GPGSA,A,3,29,24,02,,,,,,,,,,3.1,2.3,2.1*3D
$BDGSA,A,3,11,09,05,10,,,,,,,,,3.1,2.3,2.1*2E
$GPGSV,2,1,08,02,14,145,27,05,24,079,,13,32,034,16,15,62,358,*70
$GPGSV,2,2,08,20,19,307,,21,40,318,,24,50,163,31,29,31,224,40*7E
$BDGSV,2,1,07,01,,,32,02,,,29,05,25,256,36,07,,,24*52
$BDGSV,2,2,07,09,59,270,22,10,05,189,29,11,40,203,37*51
$GNRMC,083712.000,A,2307.2773,N,11318.8336,E,0.54,152.12,100919,,,A*78
$GNGGA,083713.000,2307.2773,N,11318.8336,E,1,07,2.3,97.3,M,0.0,M,,*44
$GNRMC,083713.000,A,2307.2773,N,11318.8336,E,0.49,264.25,100919,,,A*77
!AIVDO,1,1,,,B68rO0001:1cFp3Cc`FU;wVVSP06,0*62
 B@GNGGA,083714.000,2307.2773,N,11318.8336,E,1,07,2.3,97.3,M,0.0,M,,*43
$GPGSA,A,3,29,24,02,,,,,,,,,,3.1,2.3,2.1*3D
$BDGSA,A,3,11,09,05,10,,,,,,,,,3.1,2.3,2.1*2E
$GNRMC,083714.000,A,2307.2773,N,11318.8336,E,0.21,293.74,100919,,,A*72
$GNGGA,083715.000,2307.2773,N,11318.8336,E,1,07,2.3,97.3,M,0.0,M,,*42
$GNRMC,083715.000,A,2307.2773,N,11318.8336,E,0.22,20.82,100919,,,A*43
!AIVDM,1,1,,B,B68rO0001:1cFp3Cc`FU;wVVSP06,0*22
