!AIVDM,1,1,,A,18M<JN002=`8g3J<mV:ehK40082I,0*1F
!AIVDM,1,1,,A,16:4AF0002`8kb0<rOSv40j6282M,0*42
!AIVDM,1,1,,B,16:E7FP04f`8oP0<oj4H26H:00Rw,0*5F
$GNGGA,011904.000,2231.1242,N,11350.3595,E,1,05,20.2,-95.7,M,0.0,M,,*57
$GNRMC,011904.000,A,2231.1242,N,11350.3595,E,1.92,251.80,051219,,,A*7C
!AIVDM,2,1,5,A,56:R6GT000000000001PTr0L4pN1ADv3J22222162@D666sg0<S@H6R3mH10,0*61
!AIVDM,2,2,5,A,Cp888888880,2*12
!AIVDM,1,1,,B,C6:fWc@0022BUn3>8kK>wwv0@b2@2L?eeh0000000000S0DFSS0P,0*14
!AIVDM,1,1,,A,B6:kG=00022@`tS>oFM>?wR3QP06,0*04
!AIVDM,1,1,,B,C6:fWc@0022BUn3>8kK>wwv0@b2@2L?eeh0000000000S0DFSS0P,0*14
!AIVDM,1,1,,B,16:4fcP006`8Er0<vCK`qap820Sa,0*5A
$GNGGA,011905.000,2231.1237,N,11350.3593,E,1,05,20.2,-96.4,M,0.0,M,,*52
$GPGSA,A,3,13,02,30,05,,,,,,,,,25.5,20.2,17.6*06
$BDGSA,A,3,08,,,,,,,,,,,,25.5,20.2,17.6*19
$GNRMC,011905.000,A,2231.1237,N,11350.3593,E,2.37,240.59,051219,,,A*71
!AIVDM,1,1,,B,B6:fOw:@?j2C2q3=vkidowRFkP06,0*07
!AIVDM,1,1,,A,16;4O2001m`8Ii4<v`FVLU880L<J,0*6A
!AIVDM,1,1,,B,33ku:I@Oi0`8K`8<tVbS32d60000,0*29
!AIVDM,1,1,,A,16:Cqq000088aUP<tT43E:b:0<5u,0*4C
!AIVDM,1,1,,A,10`:DoOP00899Qv<pHHamOv<2H3W,0*0D
!AIVDM,1,1,,B,B6:DDTP08B2CMS3=sRPnpcv021Mk,0*2B
!AIVDM,1,1,,A,16:E7FP04f`8oMJ<oiNp2VH>0D6m,0*14
!AIVDM,1,1,,A,36:>fmQ1P088aCj<tIUSfJd60P00,0*7D
$GNGGA,011906.000,2231.1236,N,11350.3599,E,1,05,20.2,-95.7,M,0.0,M,,*5A
$GPGSV,3,1,09,02,43,118,29,05,39,037,46,06,04,128,20,13,71,041,34*70
$GPGSV,3,2,09,15,70,251,,21,09,318,,24,15,182,,29,48,279,*76
$GPGSV,3,3,09,30,12,057,40*46
$BDGSV,1,1,02,04,,,35,08,69,071,30*5A
$GNRMC,011906.000,A,2231.1236,N,11350.3599,E,2.28,238.81,051219,,,A*7D
!AIVDM,1,1,,A,H6:EFt0PDpLQDWKKR2222222220,2*1D
!AIVDM,1,1,,B,16:EL;8P0388g@b<s04RTwv:20S;,0*18
!AIVDM,1,1,,B,169v:Q?P008991h<oqLi1wv<0<;Q,0*65
!AIVDM,1,1,,A,16:D17PP0089<Jj<q16h0?v<049<,0*22
!AIVDM,1,1,,B,36:R6GU000`99V:<osIc1P4>2D`J,0*6D
$GNGGA,011907.000,2231.1239,N,11350.3603,E,1,05,20.1,-93.1,M,0.0,M,,*57
$GPGSA,A,3,13,02,30,05,,,,,,,,,25.5,20.1,17.6*05
$BDGSA,A,3,08,,,,,,,,,,,,25.5,20.1,17.6*1A
$GNRMC,011907.000,A,2231.1239,N,11350.3603,E,2.59,261.96,051219,,,A*7F
!AIVDM,1,1,,B,36:`6tm00089>IP<pA80T?v00000,0*6B
!AIVDM,1,1,,A,16:flfgP00`9>O0<om;>4?v>284I,0*57
!AIVDM,1,1,,B,16:E7FP04f`8oJr<ohpp2nH@0@4e,0*5F
$GNGGA,011908.000,2231.1242,N,11350.3613,E,1,05,20.1,-91.1,M,0.0,M,,*57
$GNRMC,011908.000,A,2231.1242,N,11350.3613,E,2.53,259.09,051219,,,A*7A
!AIVDM,1,1,,A,16:Ejr?00089>GT<pD1@05<@249<,0*66
!AIVDM,1,1,,B,16:EIc?P0088jS0<q4kT`wwj0U9h,0*69
!AIVDM,1,1,,B,169@nBPP00`8pTh<t05f4?v@2@5;,0*09
!AIVDM,1,1,,B,16:E8QP000899v@<pUl;6pB01P06,0*47
!AIVDM,1,1,,A,16:ICDPk0088jkN<riMuigv@4p5=,0*4A
!AIVDM,1,1,,B,16:foN0P01`9;W@<oW;v4?v@249<,0*3C
$GNGGA,011909.000,2231.1240,N,11350.3613,E,1,05,20.1,-90.2,M,0.0,M,,*56
$GPGSA,A,3,13,02,30,05,,,,,,,,,25.5,20.1,17.6*05
$BDGSA,A,3,08,,,,,,,,,,,,25.5,20.1,17.6*1A
$GNRMC,011909.000,A,2231.1240,N,11350.3613,E,1.91,256.95,051219,,,A*7E
!AIVDM,1,1,,B,16;Anv?P0f`8jc0<sDIds?vB2D=l,0*61
!AIVDM,1,1,,B,18MARV001S`8UQT<r?ae?bb@0@5W,0*56
!AIVDM,1,1,,B,369GEGU000`8mq0<s1V>44NB2Dob,0*2C
!AIVDM,1,1,,B,16;AlAPP0088k6r<pHCq3?vB2H5h,0*73
!AIVDM,1,1,,A,16:E7FP04f`8oHJ<ohC82nHD0<6n,0*6C
!AIVDM,1,1,,A,36:4Ou5000`8hK@<s7qVmbjB0DG:,0*58
!AIVDM,1,1,,A,16:fn0?P00`8jd0<pnpf4?vB285t,0*6A
!AIVDM,1,1,,B,18M<JN002=`8g26<mWI=i;4<00S?,0*29
$GNGGA,011910.000,2231.1242,N,11350.3623,E,1,05,20.1,-88.5,M,0.0,M,,*51
$GNRMC,011910.000,A,2231.1242,N,11350.3623,E,1.81,253.97,051219,,,A*71
!AIVDM,1,1,,B,H6:ij`PMDTL4pM@T4qTuG7KK800,2*70
!AIVDM,1,1,,A,169>cq000188is<<rKHJg1HF086E,0*37
!AIVDM,1,1,,B,19NSRbw000898Td<oaf2q`DD0<<3,0*3A
!AIVDO,1,1,,,B68rO1P04b2An3S>:TbNgwU6SP06,0*64
!AIVDM,1,1,,B,C69GIS00>R2C4j3>3<b@Swv0jNc0HB2M0DB2O1d00000N2<ASSPP,0*18
$GNGGA,011911.000,2231.1242,N,11350.3608,E,1,05,20.1,-89.7,M,0.0,M,,*5A
$GPGSA,A,3,13,02,30,05,,,,,,,,,25.5,20.1,17.6*05
$BDGSA,A,3,08,,,,,,,,,,,,25.5,20.1,17.6*1A
$GPGSV,3,1,09,02,43,118,30,05,39,037,46,06,04,128,20,13,71,041,32*7E
$GPGSV,3,2,09,15,70,251,,21,09,318,,24,15,182,,29,48,279,*76
$GPGSV,3,3,09,30,12,057,41*47
$BDGSV,1,1,02,04,,,35,08,70,071,31*53
$GNRMC,011911.000,A,2231.1242,N,11350.3608,E,1.48,278.92,051219,,,A*70
!AIVDM,1,1,,A,169@WGP000896m@<p>HqpaDB00RR,0*6E
!AIVDM,1,1,,A,B6:fpQh00B2B=93=o7CBJ`53QP06,0*0D
!AIVDM,1,1,,B,B6:E20000J2Bnb3=pmG6NNv021Mk,0*2B
!AIVDM,1,1,,B,B6:bbO000B2BBJS=sVEFi5N021Mk,0*61
!AIVDM,1,1,,A,B6:bbO000B2BBJS=sVEFi5N021Mk,0*62
$GNGGA,011912.000,2231.1243,N,11350.3608,E,1,05,20.1,-89.6,M,0.0,M,,*59
$GNRMC,011912.000,A,2231.1243,N,11350.3608,E,1.43,279.66,051219,,,A*73
!AIVDM,2,1,8,B,56:E8QP000022222220hT`TpOF222222222222160Hw9972T07V2@CQihCQp,0*23
!AIVDM,2,2,8,B,88888888888,2*27
!AIVDM,1,1,,B,B6:bd0h0022>PoS>C0N9mfN021Mk,0*0D
!AIVDM,1,1,,A,169A5cS000895v:<p5>8FG0J049<,0*11
!AIVDM,1,1,,B,33ku:I@Oi3`8Ke8<tVj3:RlF00tA,0*63
!AIVDM,1,1,,B,1815GUh01l88gL@<mfo=jc4H049<,0*45
!AIVDM,1,1,,A,B6:bd0h0022>PoS>C0N9mfN021Mk,0*0E
!AIVDM,1,1,,B,B69GIS00A:2C4T3>3;NGkwV6SP06,0*2A
!AIVDM,1,1,,B,377RWD5P00`8CqL<vd;RF?vH0000,0*14
!AIVDO,1,1,,,B68rO1P03b2Amt3>:TffkwV6SP06,0*64
$GNGGA,011913.000,2231.1244,N,11350.3610,E,1,05,20.1,-89.1,M,0.0,M,,*51
$GPGSA,A,3,13,02,30,05,,,,,,,,,25.5,20.1,17.5*06
$BDGSA,A,3,08,,,,,,,,,,,,25.5,20.1,17.5*19
$G€(!!  €`@B姃ⅱbr11350.3610,E,0.79,265.02,051219,,,A*7B
!AIVDM,1,1,,B,B6:bg=P04S?8mP=18D0CswVSQP06,0*6B
!AIVDM,1,1,,A,B6:bg=P04S?8mP=18D0CswVSQP06,0*68
!AIVDM,1,1,,B,169GCuPP0088V<b<oqsh0OvJ2L80,0*6E
!AIVDM,1,1,,B,16:Cfu0P0189<q><pqIHmgvH2T9<,0*30
!AIVDM,1,1,,B,H6:E2056?F10200ojjn0007H<870,0*22
!AIVDM,1,1,,A,16:E7FP04g`8oCF<og7H2nHL088:,0*37
!AIVDM,1,1,,B,C69?Ra@01r2AcbS>FW9R7wVPVA111111111111111110?1052120,0*69
$GNGGA,011914.000,2231.1244,N,11350.3610,E,1,05,20.1,-89.0,M,0.0,M,,*57
$GNRMC,011914.000,A,2231.1244,N,11350.3610,E,0.75,265.37,051219,,,A*76
!AIVDM,1,1,,A,16:E4HPP00899R@<os3ur?vJ049<,0*1E
!AIVDM,1,1,,A,16;5I`001``8`G:<qBPuIJfL0@8O,0*16
!AIVDM,1,1,,A,16:G@P002788WBh<qN56E@0L00Sf,0*78
!AIVDM,1,1,,A,B69K=Wbp03?8mP=18D003wPN1P06,0*2C
!AIVDM,1,1,,A,C6:fpQh00B2B=93=o7D>VR72jb:@bBl@Nb@bOgSii110S384S3P7,0*0D
!AIVDM,1,1,,B,10`:DoOP00`99RH<pHI9n?vN288o,0*70
!AIVDM,1,1,,B,16:fMs000088vwh<sIIt;QD01P06,0*6B
!AIVDM,1,1,,B,B68rO1P03b2Amt3>:TffkwV6SP06,0*24
$GNGGA,011915.000,2231.1239,N,11350.3613,E,1,05,20.0,-89.3,M,0.0,M,,*5D
$GPGSA,A,3,13,02,30,05,,,,,,,,,25.5,20.0,17.5*07
$BDGSA,A,3,08,,,,,,,,,,,,25.5,20.0,17.5*18
$GNRMC,011915.000,A,2231.1239,B r€0  鄩b偑姃娛bbb
                                                 70
!AIVDM,1,1,,A,16=q?7@01p`8No4<tARVBU0F00SM,0*6B
!AIVDM,1,1,,B,16:Cbb8P0088Tuf<os`aowvL2<3w,0*3D
!AIVDM,1,1,,B,16:E7FPOlg`8o@t<ofQ`2VJP0D6o,0*6C
!AIVDM,1,1,,B,16:HVL001W88gj4<m<O=gc4L049<,0*77
!AIVDM,1,1,,B,16:Cqq000088aUD<tT43CrbP0L5w,0*0D
!AIVDM,1,1,,B,33==7R5P00`96N0<ow?3qOvL0DRb,0*5C
$GNGGA,011916.000,2231.1237,N,11350.3618,E,1,05,20.0,-89.0,M,0.0,M,,*58
$GPGSV,3,1,09,02,43,118,30,05,39,037,47,06,04,128,22,13,71,041,32*7D
$GPGSV,3,2,09,15,70,251,,21,09,318,,24,15,182,,29,48,279,*76
$GPGSV,3,3,09,30,12,057,40*46
$BDGSV,1,1,02,04,,,36,08,70,071,30*51
$GNRMC,011916.000,A,2231.1237,N,11350.3618,E,0.88,177.59,051219,,,A*72
!AIVDM,1,1,,B,16;4O2001l`8Ikp<vW96LU8L0<<J,0*02
!AIVDM,1,1,,A,16:EL;8P0088g@b<s04RTwvN249<,0*05
!AIVDM,1,1,,A,33==7R5P00`96N0<ow?3v?vL0Dc:,0*41
!AIVDM,1,1,,A,169v:Q?P008991f<oqOA1wvP0D;P,0*56
$GNGGA,011917.000,2231.1238,N,11350.3578,E,1,05,20.0,-94.2,M,0.0,M,,*5D
$GPGSA,A,3,13,02,30,05,,,,,,,,,25.5,20.0,17.5*07
$BDGSA,A,3,08,,,,,,,,,,,,25.5,20.0,17.5*18
$GNRMC,011917.000,A,2231.1238,N,11350.3578,E,1.61,301.60,051219,,,A*76
!AIVDM,1,1,,B,B6:frTP0022BPKS=sua>Lv`3QP06,0*7B
!AIVDM,1,1,,B,16:R@BP01k88HV8<w?MFVEDT049<,0*29
!AIVDM,1,1,,B,16:flfgP00`9>O0<om;v4?vR249<,0*04
!AIVDM,1,1,,A,16:E7FPOlg`8o>N<oes`2nJT049<,0*1A
!AIVDM,1,1,,B,16:EmwP04>88SE0<mhF`6nLL08:Q,0*2F
!AIVDM,1,1,,B,16:D17PP0089<Jv<q15P0?vR088V,0*0F
!AIVDM,1,1,,A,16:DbQPP0s89Aoh<nNR5qgvR2p:a,0*38
$GNGGA,011918.000,2231.1240,N,11350.3568,E,1,05,20.0,-95.5,M,0.0,M,,*5A
$GNRMC,011918.000,A,2231.1240,N,11350.3568,E,1.65,303.11,051219,,,A*77
!AIVDM,1,1,,A,B6:`Hm@0;R2BUbS>9WmFkw`SQP06,0*73
!AIVDM,1,1,,B,177`j?002N89;Lj<lrhHKFfV0LBI,0*09
!AIVDM,2,1,9,B,577<W702@p3uI9<sN20du@60<4q@Tf222222221:MA3I?6iQ0APkSThH8888,0*0C
!AIVDM,2,2,9,B,88888888880,2*2E
!AIVDM,1,1,,A,169G3m0P01899Ph<ori`3?vT0D;;,0*12
!AIVDM,2,1,0,B,56:fMs0000022222221UDE4TpMUD4pQDw;WO>2165H:6540006p888888888,0*6C
!AIVDM,2,2,0,B,88888888888,2*2F
!AIVDM,1,1,,A,16:foN0P02`9;W@<oW=>4?vT249<,0*66
!AIVDM,1,1,,B,16:Ejr?000`9>GT<pD1@05:T20RR,0*2E
$GNGGA,011919.000,2231.1231,N,11350.3554,E,1,05,20.0,-100.1,M,0.0,M,,*6B
$GPGSA,A,3,13,02,30,05,,,,,,,,,25.5,20.0,17.5*07
$BDGSA,A,3,08,,,,,,,,,,,,25.5,20.0,17.5*18
$GNRMC,011919.000,A,2231.1231,N,11350.3554,E,0.99,196.92,051219,,,A*78
!AIVDM,1,1,,A,16:EIc?P0088jS0<q4kR0?v@0t@N,0*21
!AIVDM,1,1,,B,16:fn0?P01`8jd0<pnpf4?vV20S6,0*50
!AIVDM,1,1,,A,16;AlAPP0088k6t<pHDI3?vT2D3w,0*4A
!AIVDM,1,1,,A,36:D?kg00089@CH<o<i7v1Rb0RwA,0*06
!AIVDM,1,1,,B,16:E7FP04f`8o;r<oeEp36L`08;m,0*14
!AIVDM,1,1,,A,16:flBgP00`8r0@<od5f4?v`20Sa,0*77
$GNGGA,011920.000,2231.1226,N,11350.3542,E,1,05,20.0,-102.5,M,0.0,M,,*66
$GNRMC,011920.000,A,2231.1226,N,11350.3542,E,0.86,199.83,051219,,,A*72
!AIVDM,1,1,,A,D03sl4QQdNfp00N000,4*0C
!AIVDM,2,1,6,A,569@>E4000008PHv220`Tr1@4V1`PuF222222216A`B;=72VN>1n`8888888,0*63
!AIVDM,2,2,6,A,88888888880,2*22
!AIVDM,1,1,,B,169FWKPP4W892G0<o;fdlgv`0@<<,0*61
!AIVDM,1,1,,A,18MARV001S`8UMl<r@j==:bV08<?,0*08
!AIVDM,1,1,,A,19NSRbw000898Td<oaf338DT0H<D,0*31
!AIVDM,1,1,,B,16:Ej8004m89KK`<n2EPl0bV049<,0*2B
!AIVDM,1,1,,A,H69?RaA<R222222222222222220,2*42
!AIVDM,1,1,,B,B69GKsP0022Bod3=peC@2V:3QP06,0*7C
$GNGGA,011921.000,2231.1225,N,11350.3520,E,1,05,20.0,-106.2,M,0.0,M,,*63
$GPGSA,A,3,13,02,30,05,,,,,,,,,25.5,20.0,17.4*06
$BDGSA,A,3,08,,,,,,,,,,,,25.5,20.0,17.4*19
$GPGSV,3,1,09,02,43,118,29,05,39,037,40,06,04,128,22,13,71,041,32*72
$GPGSV,3,2,09,15,70,251,,21,09,318,,24,15,182,,29,48,279,*76
$GPGSV,3,3,09,30,12,057,39*48
$BDGSV,1,1,02,04,,,36,08,70,071,31*50
$GNRMC,011921.000,A,2231.1225,N,11350.3520,E,1.55,259.02,051219,,,A*7D
!AIVDM,1,1,,A,16:E7FP04f`8o9H<odh83nLd00SA,0*5B
!AIVDM,1,1,,B,B6:fOvqH>j2=ip3>7@dtSwbbh49<,0*58
!AIVDM,1,1,,B,169A5cS000895v4<p5?6M70d0@<w,0*7C
$GNGGA,011922.000,2231.1222,N,11350.3509,E,1,05,20.0,-108.0,M,0.0,M,,*60
$GNRMC,011922.000,A,2231.1222,N,11350.3509,E,1.61,259.81,051219,,,A*7E
!AIVDM,1,1,,A,1815GUh01l88gK0<mgmeh;6d0D<:,0*6D
!AIVDM,1,1,,A,B69FdUs86j2@fo3>M4k7jOh61P06,0*44
!AIVDM,1,1,,B,C6:fd:h00:2BW>3=s>@mPbv0jb:vjbLvjBL>wSUV0000S3064R00,0*08
$GNGGA,011923.000,2231.1218,N,11350.3507,E,1,05,19.9,-109.3,M,0.0,M,,*67
$GPGSA,A,3,13,02,30,05,,,,,,,,,25.5,19.9,17.4*05
$BDGSA,A,3,08,,,,,,,,,,,,25.5,19.9,17.4*1A
$GNRMC,011923.000,A,2231.1218,N,11350.3507,E,1.94,245.94,051219,,,A*7B
!AIVDM,1,1,,B,B6:V4jP0=B2Brp3>69oBCwc3QP06,0*42
!AIVDM,1,1,,A,16:Cfu0P0289<pl<pqLc3wvd2T9<,0*2F
!AIVDM,1,1,,B,16:E4HPP00899R@<os6=r?vf0<gS,0*45
!AIVDM,1,1,,B,16:4fcP006`8Eq@<vCHf49tf2@>6,0*21
!AIVDM,1,1,,B,16:E7FP04f`8o6t<od9`4FLj08><,0*5B
$GNGGA,011924.000,2231.1215,N,11350.3498,E,1,05,19.9,-111.0,M,0.0,M,,*60
$GNRMC,011924.000,A,2231.1215,N,11350.3498,E,1.96,246.87,051219,,,A*75
!AIVDM,1,1,,A,16:Cmw0000894dP<nuPjcir01P06,0*71
!AIVDM,1,1,,A,169@FkP01l`8OFb<t7m6EE0j0<80,0*01
!AIVDM,1,1,,B,16=q?7@01p`8Ns@<t@<F@50b08>n,0*7F
$GNGGA,011925.000,2231.1208,N,11350.3498,E,1,05,19.9,-112.6,M,0.0,M,,*68
$GPGSA,A,3,13,02,30,05,,,,,,,,,25.5,19.9,17.4*05
$BDGSA,A,3,08,,,,,,,,,,,,25.5,19.9,17.4*1A
$GNRMC,011925.000,A,2231.1208,N,11350.3498,E,2.42,214.58,051219,,,A*77
!AIVDM,1,1,,B,169v:Q?P0089912<oqbi1wvh0H>q,0*14
!AIVDM,1,1,,A,10`:DoOP00`99Rh<pHJ9n?vl28>u,0*6E
!AIVDM,1,1,,B,33ku:I@Oi6`8Kl0<tVo3G30f0000,0*37
!AIVDM,1,1,,B,H6:fM=iUDE4TpMUD4pQDwWS7P00,2*41
!AIVDM,1,1,,B,C6:DbwP0022CT53=wQpH<C<2jb:V@2N>b2L@bOWQik10S3P5T2P7,0*3E
!AIVDM,1,1,,B,C6:ECsP0022BNnS=rii;Lt<Rjb:V@2N>b2L@bOWSiS10S3D542P7,0*04
!AIVDM,1,1,,A,16:E7FPPDf`8o4P<ocSp4VJn0<6q,0*40
!AIVDM,1,1,,B,16:G@P002788WG0<qLIVFh0l08?L,0*7D
!AIVDM,1,1,,B,C69GNI00022PbD3>2edvgwdRjb:8:RBL>@bO1SWSi110S2P53207,0*03
$GNGGA,011926.000,2231.1202,N,11350.3496,E,1,05,19.9,-113.7,M,0.0,M,,*6F
$GPGSV,3,1,09,02,43,118,28,05,39,037,44,06,04,128,22,13,71,041,32*77
$GPGSV,3,2,09,15,70,251,,21,09,318,,24,15,182,,29,48,279,*76
$GPGSV,3,3,09,30,12,057,39*48
$BDGSV,1,1,02,04,,,36,08,70,071,30*51
$GNRMC,011926.000,A,2231.1202,N,11350.3496,E,2.39,214.14,051219,,,A*74
!AIVDM,1,1,,B,36:DJAQ000899WB<ot45>aLj0000,0*46
!AIVDM,1,1,,B,16:EL;8P0088g@d<s062Twvl2@?h,0*66
!AIVDM,1,1,,A,18M<JN002=`8fw2<maw=hK4f0L;e,0*07
$GNGGA,011927.000,2231.1207,N,11350.3471,E,1,05,19.9,-115.3,M,0.0,M,,*60
$GPGSA,A,3,13,02,30,05,,,,,,,,,25.5,19.9,17.3*02
$BDGSA,A,3,08,,,,,,,,,,,,25.5,19.9,17.3*1D
$GNRMC,011927.000,A,2231.1207,N,11350.3471,E,3.50,275.65,051219,,,A*76
!AIVDM,1,1,,A,H6:fM=m6?F10200IIII0007P<960,0*31
!AIVDM,1,1,,B,16:DF8P001`8IaN<u;Ln>`pn28@>,0*19
!AIVDM,1,1,,A,16:Ejr?00189>GT<pD1@05:n2<1t,0*07
!AIVDM,1,1,,A,B6:iVH@0AR2Crl3=eG=Ja9=SQP06,0*79
!AIVDM,1,1,,B,16:E7FP04f`8o24<obup4nJp0<6r,0*33
$GNGGA,011928.000,2231.1210,N,11350.3470,E,1,05,19.9,-115.2,M,0.0,M,,*69
$GNRMC,011928.000,A,2231.1210,N,11350.3470,E,3.41,275.81,051219,,,A*74
!AIVDM,2,1,7,A,56:Cmw0000033333331`PtpN0LtpN360P4v2221J<P`LL400004j1C`6R1CQ,0*51
!AIVDM,2,2,7,A,p8888888888,2*63
!AIVDM,1,1,,B,169UBuPP1<88hTj<ljWMkPTl0<wr,0*08
!AIVDM,1,1,,B,169G3m0P01899P`<ork7wwvp08@n,0*36
!AIVDM,1,1,,A,16:D17PP0089<K4<q16P0?vp0H>n,0*20
!AIVDM,1,1,,B,16:=1<000>`8Kmn<t5WtgWFp0h@t,0*02
!AIVDM,1,1,,B,169@nBPP00`8pTP<t05f4?vp2D=I,0*7F
$GNGGA,011929.000,2231.1208,N,11350.3483,E,1,05,19.9,-113.1,M,0.0,M,,*68
$GPGSA,A,3,13,02,30,05,,,,,,,,,25.5,19.9,17.3*02
$BDGSA,A,3,08,,,,,,,,,,,,25.5,19.9,17.3*1D
$GNRMC,011929.000,A,2231.1208,N,11350.3483,E,2.87,249.56,051219,,,A*7E
!AIVDM,1,1,,B,16:ED?g00188l4@<q0nl59tn0<@g,0*2A
!AIVDM,1,1,,B,16;Anv?P0f`8jVP<sEBLqgvr249<,0*58
!AIVDM,1,1,,B,16;AlAPP0088k6v<pHDa3?vr2@AN,0*0A
!AIVDM,1,1,,A,16:fn0?P00`8jdP<pnpf4?vr2<?F,0*06
$GNGGA,011930.000,2231.1209,N,11350.3495,E,1,05,19.8,-111.3,M,0.0,M,,*67
$GNRMC,011930.000,A,2231.1209,N,11350.3495,E,2.79,246.80,051219,,,A*75
!AIVDM,1,1,,B,B6:fmw@00:2CJg3>>gIbEEN021Mk,0*15
!AIVDM,1,1,,B,16:flBgP00`8r0@<od5f4?vt2D>p,0*68
!AIVDM,1,1,,B,18MARV001S`8UJH<rAk==:dr00Ru,0*26
!AIVDM,1,1,,B,38HwNG5001`96hv<p:?WviHr0Dg:,0*7F
!AIVDM,1,1,,B,36:fmvHP00`8c4h<u?2>4?vv208k,0*38
$GNGGA,011931.000,2231.1214,N,11350.3490,E,1,05,19.8,-109.7,M,0.0,M,,*62
$GPGSA,A,3,13,02,30,05,,,,,,,,,25.5,19.8,17.3*03
$BDGSA,A,3,08,,,,,,,,,,,,25.5,19.8,17.3*1C
$GPGSV,3,1,09,02,43,118,29,05,39,037,42,06,04,128,22,13,71,040,33*70
$GPGSV,3,2,09,15,70,251,,21,09,318,,24,15,182,,29,48,279,*76
$GPGSV,3,3,09,30,12,057,38*49
$BDGSV,1,1,02,04,,,36,08,70,071,30*51
$GNRMC,011931.000,A,2231.1214,N,11350.3490,E,3.08,274.32,051219,,,A*72
!AIVDM,1,1,,B,13v6Lp801@`8KGT<uJU634hT88BT,0*6F
!AIVDM,1,1,,B,1815GUh01l88gIh<miDejc6v00Si,0*13
!AIVDM,1,1,,B,36:E7FP04f`8nu4<oajp56M000Wi,0*03
$GNGGA,011932.000,2231.1218,N,11350.3498,E,1,05,19.8,-108.1,M,0.0,M,,*62
$GNRMC,011932.000,A,2231.1218,N,11350.3498,E,2.94,273.23,051219,,,A*76
!AIVDM,1,1,,B,33ku:I@Oi8`8Kqt<tVo3Q3:v00tA,0*59
!AIVDM,1,1,,A,169A5cS001895vB<p5<ktG120<;v,0*32
!AIVDM,1,1,,B,169FWKPP4`8923R<o?>tjww000S2,0*5A
$GNGGA,011933.000,2231.1218,N,11350.3509,E,1,05,19.8,-105.7,M,0.0,M,,*61
$GPGSA,A,3,13,02,30,05,,,,,,,,,25.5,19.8,17.3*03
$BDGSA,A,3,08,,,,,,,,,,,,25.5,19.8,17.3*1C
$GNRMC,011933.000,A,2231.1218,N,11350.3509,E,2.07,263.19,051219,,,A*7C
!AIVDM,1,1,,A,B6:`IN00>j2C15S>4sWBv`h3QP06,0*5B
!AIVDM,1,1,,B,B6:`IN00>j2C15S>4sWBv`h3QP06,0*58
!AIVDM,1,1,,B,16:Cfu0P0089<pl<pqHnE?w02`Cd,0*5A
!AIVDM,1,1,,B,B6:Vbn@0422B1l3>TiH6<4h3QP06,0*70
!AIVDM,1,1,,A,B6:Vbn@0422B1l3>TiH6<4h3QP06,0*73
!AIVDM,1,1,,B,18M<JN002=`8fur<mbqeh;4r0<;e,0*0F
$GNGGA,011934.000,2231.1220,N,11350.3517,E,1,05,19.8,-104.3,M,0.0,M,,*67
$GNRMC,011934.000,A,2231.1220,N,11350.3517,E,1.92,262.52,051219,,,A*7E
!AIVDM,1,1,,B,10`:DoOP00`99Rv<pHJaq?w62<=k,0*76
!AIVDM,1,1,,B,16:fURHP0s89==6<ogdeRww22hD=,0*63
$AISUC,SetSuccess!
!AIVDM,1,1,,A,16:E4HPP00899Q0<ornhvgw200Rf,0*3C
!AIVDM,1,1,,B,16:C`2P01p88Hf<<m=sU94760hDT,0*34
!AIVDM,1,1,,B,16:HVL001`88gg6<m>U=g;520HDU,0*18
(寐靠掝r刈3$GNGGA,011935.000,2231.1223,N,11350.3483,E,1,05,19.8,-107.1,M,0.0,M,,*68
$GPGSA,A,3,13,02,30,05,,,,,,,,,25.5,19.8,17.2*02
$BDGSA,A,3,08,,,,,,,,,,,,25.5,19.8,17.2*1D
$GNRMC,011935.000,A,2231.1223,N,11350.3483,E,2.73,296.36,051219,,,A*75
!AIVDM,1,1,,A,169v:Q?P008990R<oqgQ1ww40D;Q,0*3F
!AIVDM,1,1,,A,B6:fOw3P?R2C3D3=vBeegwiFkP06,0*06
!AIVDM,1,1,,A,16;5I`001W88`A8<qDjMGre60HDk,0*66
!AIVDM,1,1,,A,33ku:I@Oi9`8KrT<tVo3V3=20000,0*09
!AIVDM,1,1,,A,16:G@P002788WJP<qKA6Fh140<?W,0*3A
!AIVDM,1,1,,A,177`j?002M89;>R<lpHHI6g:0@EC,0*7F
!AIVDM,1,1,,A,16=q?7@01p`8NwN<t>mn@510049<,0*7B
$GNGGA,011936.000,2231.1228,N,11350.3483,E,1,05,19.8,-106.5,M,0.0,M,,*65
$GPGSV,3,1,09,02,43,118,31,05,39,037,44,06,04,128,21,13,71,040,33*7C
$GPGSV,3,2,09,15,70,251,,21,09,318,,24,15,182,,29,48,279,*76
$GPGSV,3,3,09,30,12,057,38*49
$BDGSV,1,1,02,04,,,36,08,70,071,31*50
$GNRMC,011936.000,A,2231.1228,N,11350.3483,E,2.66,296.35,051219,,,A*7A
!AIVDM,1,1,,B,169FWKPP4b891tB<o@`Lmww808ET,0*62
!AIVDM,1,1,,A,16:EL;8P0088g@f<s05jTww620S:,0*29
!AIVDM,1,1,,B,16:flfgP00`9>O0<om<N4?w8249<,0*50
!AIVDM,1,1,,B,C6:DDTP08:2COp3=sSHmlcN0jb:l@b@2BDbMSSWj0000e2H93300,0*54
!AIVDM,1,1,,B,B6:fRM000226pSS?2jIR?wj3QP06,0*0E
$GNGGA,011937.000,2231.1222,N,11350.3466,E,1,05,19.8,-110.1,M,0.0,M,,*66
$GPGSA,A,3,13,02,30,05,,,,,,,,,25.5,19.8,17.2*02
$BDGSA,A,3,08,,,,,,,,,,,,25.5,19.8,17.2*1D
$GNRMC,011937.000,A,2231.1222,N,11350.3466,E,0.77,254.86,051219,,,A*7E
!AIVDM,1,1,,B,16:=UNQP02`8moh<s11@ROw:0<4j,0*02
!AIVDM,1,1,,B,16:D17PP0089<K4<q1800?w:0<0I,0*5B
!AIVDM,1,1,,A,169G3m0P00899Pd<orgnqOw:049<,0*37
!AIVDM,1,1,,A,16:E7FP04f`8nmR<o`0H5VM<08FG,0*44
$GNGGA,011938.000,2231.1219,N,11350.3453,E,1,05,19.7,-112.3,M,0.0,M,,*68
$GNRMC,011938.000,A,2231.1219,N,11350.3453,E,0.84,259.86,051219,,,A*7E
!AIVDM,1,1,,A,16:EIc?P0088jS0<q4n2rgvp0`Fg,0*55
!AIVDM,1,1,,A,16:foN0P02`9;W0<oW?N4?w<249<,0*0D
$GNGGA,011939.000,2231.1212,N,11350.3456,E,1,05,19.7,-113.7,M,0.0,M,,*62
$GPGSA,A,3,13,02,30,05,,,,,,,,,25.5,19.7,17.2*0D
$BDGSA,A,3,08,,,,,,,,,,,,25.5,19.7,17.2*12
$GNRMC,011939.000,A,2231.1212,N,11350.3456,E,1.38,209.20,051219,,,A*7E
!AIVDM,1,1,,A,169@nBPP00`8pTh<t04f4?w>20R6,0*6E
!AIVDM,1,1,,B,16:Ejr?000`9>GT<pD1@05;>2D1s,0*73
!AIVDM,1,1,,A,18M<JN002=`8ftr<mcl=hs5600S7,0*72
!AIVDM,1,1,,B,16:fn0?P01`8jdP<pnpf4?w>2@GO,0*44
!AIVDM,1,1,,A,16;AlAPP0088k6f<pHO6F?w>28GM,0*00
!AIVDM,1,1,,B,16:E7FPPDf`8njr<oWK85VKB0L6q,0*06
$GNGGA,011940.000,2231.1208,N,11350.3449,E,1,05,19.7,-115.4,M,0.0,M,,*6C
$GNRMC,011940.000,A,2231.1208,N,11350.3449,E,1.32,210.88,051219,,,A*75
!AIVDM,1,1,,A,16;Anv?P0g`8jT@<sEi<u?w@28Gd,0*56
!AIVDM,1,1,,A,18MARV001T`8UFt<rBl=?be>0<<C,0*55
!AIVDM,1,1,,B,169FWKPP4`891ov<oANLlgw@00S9,0*7A
!AIVDM,1,1,,B,B69FbMs0D22<J1S>SCmTm@U61P06,0*2C
!AIVDM,1,1,,B,H6:bbNm6?F10200h0000006h:850,0*0F
!AIVDM,1,1,,B,B6:Dh4P0=B2Acm3=kSk3>LD3QP06,0*7D
!AIVDM,1,1,,A,C6:Cmw00022A;9S=gH<`dKl2l@NL?0>NL?1S0@2O1110e6@D>>07,0*33
!AIVDM,1,1,,A,13v6Lp801>`8KJd<uIk624hp8<G:,0*58
!AIVDM,1,1,,A,16:flBgP00`8r0@<od5f4?wB2@HG,0*19
$GNGGA,011941.000,2231.1205,N,11350.3423,E,1,05,19.7,-119.2,M,0.0,M,,*66
$GPGSA,A,3,13,02,30,05,,,,,,,,,25.5,19.7,17.2*0D
$BDGSA,A,3,08,,,,,,,,,,,,25.5,19.7,17.2*12
$GPGSV,3,1,09,02,43,118,30,05,39,037,41,06,04,128,21,13,71,040,33*78
$GPGSV,3,2,09,15,70,251,,21,09,318,,24,15,182,,29,48,279,*76
$GPGSV,3,3,09,30,12,056,37*47
$BDGSV,1,1,02,04,,,36,08,70,071,30*51
$GNRMC,011941.000,A,2231.1205,N,11350.3423,E,1.76,260.33,051219,,,A*72
!AIVDM,1,1,,A,33ku:I@Oi:`8L0l<tVlSc3EB013i,0*72
!AIVDM,1,1,,A,16:E7FPPDe`8nhB<oVnH5nKD00S7,0*01
!AIVDM,1,1,,B,16:EnU000089LDp<nwOQHq7B08Hb,0*4A
!AIVDM,1,1,,A,19NSRbw000898Tf<oafAf`E>0D<0,0*5F
$GNGGA,011942.000,2231.1203,N,11350.3412,E,1,05,19.7,-121.1,M,0.0,M,,*69
$GNRMC,011942.000,A,2231.1203,N,11350.3412,E,1.80,261.59,051219,,,A*71
!AIVDM,1,1,,A,1815GUh01l88gI8<mjEem;5B00SN,0*0D
!AIVDM,1,1,,B,169A5cS000895vJ<p5;T3W1F08Hl,0*4E
!AIVDM,2,1,1,B,56:EM7400001I9?G3K1<TP4pLMD`V2222222221J0I3??40007Dj0CQj0BH8,0*0E
!AIVDM,2,2,1,B,88888888880,2*26
!AIVDM,1,1,,B,B69GIS00@r2C0?S>2u>Gwwm6SP06,0*74
$GNGGA,011943.000,2231.1197,N,11350.3408,E,1,05,19.7,-123.3,M,0.0,M,,*6D
$GPGSA,A,3,13,02,30,05,,,,,,,,,25.5,19.7,17.1*0E
$BDGSA,A,3,08,,,,,,,,,,,,25.5,19.7,17.1*11
$GNRMC,011943.000,A,2231.1197,N,11350.3408,E,1.72,237.92,051219,,,A*7C
!AIVDM,1,1,,B,16:DbQPP0p89Avl<nM=5b?wD0T9<,0*6D
!AIVDM,1,1,,A,16:Cfu0P0089<pn<pqHM3wwF2`Ii,0*37
!AIVDM,1,1,,B,16:4fcP005`8Ep@<vCHf49wF20Sq,0*5A
$GNGGA,011944.000,2231.1193,N,11350.3396,E,1,05,19.7,-125.7,M,0.0,M,,*6C
$GNRMC,011944.000,A,2231.1193,N,11350.3396,E,1.70,240.68,051219,,,A*78
!AIVDM,1,1,,A,16:fURHP0r89=<6<ohCePgwF2d3v,0*1E
!AIVDM,1,1,,A,169@FkP01l`8OMF<t5RnE4wH0HJA,0*28
!AIVDM,1,1,,A,B6:bbNh00R2BB`S=s1I1DlN021Mk,0*69
!AIVDM,1,1,,B,16:E4HPP00899Q0<ornjU?wF0@JE,0*79
!AIVDM,1,1,,B,16:G@P002788WN0<qIn6Gh1H00SV,0*6C
!AIVDM,1,1,,B,B6:bbNh00R2BBaS=s1I1TlN021Mk,0*7B
!AIVDM,1,1,,B,16;5I`001`88`><<qEoeI:eJ08JQ,0*7B
$GNGGA,011945.000,2231.1190,N,11350.3393,E,1,05,19.7,-126.2,M,0.0,M,,*6D
$GPGSA,A,3,13,02,30,05,,,,,,,,,25.5,19.7,17.1*0E
$BDGSA,A,3,08,,,,,,,,,,,,25.5,19.7,17.1*11
$GNRMC,011945.000,A,2231.1190,N,11350.3393,E,2.43,243.15,051219,,,A*75
!AIVDM,1,1,,B,33ku:I@Oi;`8L30<tVj3h3IH0000,0*1F
!AIVDM,1,1,,B,18M<JN002=`8fsr<mdfuiK5B049<,0*1B
!AIVDM,1,1,,A,10`:DoOP00`99S8<pHL9ugwL2<=k,0*42
!AIVDM,1,1,,A,16:E7FPOld`8nbr<oUdH4nKL00S>,0*04
!AIVDM,1,1,,B,16=q?7@01p`8O2t<t=gn@51B0<<P,0*1C
$GNGGA,011946.000,2231.1189,N,11350.3397,E,1,05,19.6,-126.1,M,0.0,M,,*60
$GPGSV,3,1,09,02,43,118,28,05,39,037,42,06,04,128,22,13,71,040,34*76
$GPGSV,3,2,09,15,70,252,,21,09,318,,24,15,182,,29,48,279,*75
$GPGSV,3,3,09,30,12,056,39*49
$BDGSV,1,1,02,04,,,36,08,70,072,31*53
$GNRMC,011946.000,A,2231.1189,N,11350.3397,E,2.35,241.54,051219,,,A*7C
!AIVDM,1,1,,B,16:EL;8P0088g@d<s06RTwwJ2<3w,0*4E
!AIVDM,1,1,,A,B6:EI=00022=CkS=sSm:dsn3QP06,0*28
!AIVDM,1,1,,B,169v:Q?P0089912<oqdQ1wwL0<;Q,0*5E
$GNGGA,011947.000,2231.1190,N,11350.3394,E,1,05,19.6,-125.3,M,0.0,M,,*6B
$GPGSA,A,3,13,02,30,05,,,,,,,,,25.5,19.6,17.1*0F
$BDGSA,A,3,08,,,,,,,,,,,,25.5,19.6,17.1*10
$GNRMC,011947.000,A,2231.1190,N,11350.3394,E,2.88,266.81,051219,,,A*7D
!AIVDM,1,1,,A,16:D17PP0089<K0<q1:00?wN0HJ2,0*5F
!AIVDM,1,1,,B,16:E7FPOld`8n`B<oU6p4VMP08L4,0*60
!AIVDM,1,1,,B,B6:`Hm@0;22BWT3>9E5JGwoSQP06,0*21
$GNGGA,011948.000,2231.1192,N,11350.3399,E,1,05,19.6,-124.4,M,0.0,M,,*6D
$GNRMC,011948.000,A,2231.1192,N,11350.3399,E,2.67,268.55,051219,,,A*7B
!AIVDM,1,1,,B,33BB0P5000`9708<p66:q49P2lU:,0*4D
!AIVDM,1,1,,A,B6:fWc@00:2BUh3>8k?>wwp6SP06,0*11
!AIVDM,1,1,,B,15@0lV000P89FId<lJ;M4JWR0D?d,0*59
!AIVDM,1,1,,B,B6:DWIP00B2BFC3=vKvgv<nSQP06,0*04
!AIVDM,1,1,,B,169G3m0P01899Pv<ork`gwwR0<;=,0*68
!AIVDM,1,1,,B,16:foN0P02`9;W0<oW@f4?wP2<S2,0*59
$GNGGA,011949.000,2231.1195,N,11350.3449,E,1,05,19.6,-117.8,M,0.0,M,,*6D
$GPGSA,A,3,13,02,30,05,,,,,,,,,25.5,19.6,17.0*0E
$BDGSA,A,3,08,,,,,,,,,,,,25.5,19.6,17.0*11
$GNRMC,011949.000,A,2231.1195,N,11350.3449,E,1.94,230.71,051219,,,A*73
!AIVDM,1,1,,B,16:EIc?P0088jS0<q4n0QOw80hLv,0*05
!AIVDM,1,1,,A,169>cq000288itF<rKGqtQET0<@3,0*15
!AIVDM,1,1,,A,B69G1tc8?C?8mP=18D2dOwtN1P06,0*37
!AIVDM,1,1,,A,16:Ejr?001`9>GT<pD1@059R20RM,0*36
!AIVDM,1,1,,B,B6:fWc@00:2BUh3>8kC>wwpVSP06,0*0E
!AIVDM,1,1,,A,16:fPap001`9;40<ns4bh@AT2D:;,0*56
!AIVDM,1,1,,A,16:E7FPOlc`8nUf<oTQ`4VOV049<,0*76
$GNGGA,011950.000,2231.1194,N,11350.3460,E,1,05,19.6,-116.4,M,0.0,M,,*62
$GNRMC,011950.000,A,2231.1194,N,11350.3460,E,1.67,228.35,051219,,,A*74
!AIVDM,1,1,,B,16:ED?g00188l4P<q0nl=qwP0@MQ,0*00
!AIVDM,1,1,,B,18MARV001T`8UCl<rCoe?beR0<<C,0*7D
!AIVDM,1,1,,B,19NSRbw000898Th<oafiMHET049<,0*6A
!AIVDM,1,1,,B,16:flBgP00`8r0@<od5f4?wT2D>q,0*48
$GNGGA,011951.000,2231.1196,N,11350.3471,E,1,05,19.6,-114.4,M,0.0,M,,*63
$GPGSA,A,3,13,02,30,05,,,,,,,,,25.5,19.6,17.0*0E
$BDGSA,A,3,08,,,,,,,,,,,,25.5,19.6,17.0*11
$GPGSV,3,1,09,02,43,119,30,05,39,037,45,06,04,128,22,13,70,040,34*78
$GPGSV,3,2,09,15,70,252,,21,09,318,,24,15,182,,29,48,279,*75
$GPGSV,3,3,09,30,11,056,37*44
$BDGSV,1,1,02,04,,,36,08,70,072,30*52
$GNRMC,011951.000,A,2231.1196,N,11350.3471,E,1.77,241.06,051219,,,A*79
!AIVDM,1,1,,A,169@WGP000896m@<p>Hp0aER0HNF,0*4E
!AIVDM,1,1,,B,16:E7FPOlc`8nS<<oStH5FO`08NK,0*08
$GNGGA,011952.000,2231.1194,N,11350.3472,E,1,05,19.6,-114.2,M,0.0,M,,*67
$GNRMC,011952.000,A,2231.1194,N,11350.3472,E,1.65,240.51,051219,,,A*7B
!AIVDM,1,1,,B,33ku:I@Oi=`8L7H<tVe3w3OT00tA,0*5A
!AIVDM,1,1,,A,B6:bbNh00R2BBbS=s1A4Tnv021Mk,0*4C
!AIVDM,1,1,,A,169A5cS000895vB<p5;nBW1b049<,0*07
!AIVDM,1,1,,A,C6:`6th0022CVH3>4B093wv0J30l@Nc0DB2O1R000000N0D>0U0P,0*6F
!AIVDM,1,1,,B,B69FdUs85B2@emS>M?s6JNh61P06,0*3E
!AIVDM,1,1,,A,C6:`6th0022CVH3>4B093wv0J30l@Nc0DB2O1R000000N0D>0U0P,0*6F
!AIVDM,1,1,,B,B6:bbNh00R2BBc3=s1A5Tov021Mk,0*2E
!AIVDM,1,1,,A,C6:fWc@0022BUd3>8kK>wwv0@b2@2L?eeh0000000000S0DFSS0P,0*1D
$GNGGA,011953.000,2231.1190,N,11350.3480,E,1,05,19.6,-113.4,M,0.0,M,,*6E
$GPGSA,A,3,13,02,30,05,,,,,,,,,25.5,19.6,17.0*0E
$BDGSA,A,3,08,,,,,,,,,,,,25.5,19.6,17.0*11
$GNRMC,011953.000,A,2231.1190,N,11350.3480,E,1.67,218.78,051219,,,A*77
!AIVDM,1,1,,A,B6:V4jP0=R2BqD3>6SKACwr3QP06,0*3A
!AIVDM,1,1,,B,B6:fOw<T?j3vcPS=uuUf;wrfkP06,0*46
!AIVDM,1,1,,B,16:Cfu0P0189<of<pqkcngw`2T9<,0*55
!AIVDM,1,1,,B,16:fo:1P01`9=Ch<nhOac?wb049<,0*58
!AIVDM,1,1,,A,B6:fn2P00R2<UoS>3HI=cwr3QP06,0*54
!AIVDM,1,1,,B,B6:fn2P00R2<UoS>3HI=cwr3QP06,0*57
!AIVDM,1,1,,A,16:4fcP004`8Eoh<vCGN4:1b20Sq,0*29
$GNGGA,011954.000,2231.1188,N,11350.3489,E,1,05,19.5,-112.4,M,0.0,M,,*6B
$GNRMC,011954.000,A,2231.1188,N,11350.3489,E,1.32,215.85,051219,,,A*7F
!AIVDM,1,1,,B,H6:fkg0MD4pNm44ro33H0000000,2*32
!AIVDM,1,1,,B,H6:fkg5:0000000hhhhhh01p>280,0*41
!AIVDM,1,1,,A,16=q?7@01o`8O6P<t<bn=TwT08P0,0*60
!AIVDM,1,1,,B,16;4O2001m`8Iw8<vR>6LU9d049<,0*07
!AIVDM,1,1,,B,10`:DoOP00`99S6<pHLqrgwf2D=i,0*50
!AIVDM,1,1,,A,16;5I`001`88`;6<qFtMFref0HPD,0*53
$GNGGA,011955.000,2231.1183,N,11350.3452,E,1,05,19.5,-117.4,M,0.0,M,,*62
$GPGSA,A,3,13,02,30,05,,,,,,,,,25.5,19.5,17.0*0D
$BDGSA,A,3,08,,,,,,,,,,,,25.5,19.5,17.0*12
$GNRMC,011955.000,A,2231.1183,N,11350.3452,E,1.83,268.84,051219,,,A*72
!AIVDM,1,1,,A,16:E4HPP00899Q0<ornhD?wb00R@,0*20
!AIVDM,1,1,,B,16:Cbb8P0088Ttj<osPnoOwd20S:,0*3F
!AIVDM,1,1,,A,33ku:I@Oi?`8L:<<tV`443Sd0000,0*7A
!AIVDM,1,1,,B,16:E7FPOlc`8nMn<oRk87VSh00SA,0*33
!AIVDM,1,1,,B,B6:ij`P0>B2BHD3>1hUKShD4SP00,0*6A
!AIVDM,1,1,,A,C69GIS00@j2BvC3>2lnGwwv0jNc0HB2M0DB2O1d00000N2<ASSPP,0*49
!AIVDM,2,1,2,B,56:fM=P000022222221UDE<P4tMD4pQDv3;?KJ167@9765jkNB1m@CQnR3mC,0*57
!AIVDM,2,2,2,B,PC`88888888,2*66
!AIVDM,1,1,,A,C69GIS00@j2BvC3>2lnGwwv0jNc0HB2M0DB2O1d00000N2<ASSPP,0*49
!AIVDO,1,1,,,B68rO1P05:2AlV3>:PjUKwt6SP06,0*20
$GNGGA,011956.000,2231.1180,N,11350.3436,E,1,05,19.5,-119.8,M,0.0,M,,*62
$GPGSV,3,1,09,02,43,119,30,05,39,037,42,06,04,128,23,13,70,040,34*7E
$GPGSV,3,2,09,15,70,252,,21,09,318,,24,15,182,,29,48,279,*75
$GPGSV,3,3,09,30,11,056,35*46
$BDGSV,1,1,02,04,,,36,08,70,072,31*53
$GNRMC,011956.000,A,2231.1180,N,11350.3436,E,2.05,264.64,051219,,,A*7F
!AIVDM,1,1,,A,16:EL;8P0088g@d<s06jTwwf2@QB,0*72
!AIVDM,1,1,,A,B69FdTs88j2A;uS>JDuSQ>R61P06,0*10
$GNGGA,011957.000,2231.1177,N,11350.3429,E,1,05,19.5,-120.8,M,0.0,M,,*6F
$GPGSA,A,3,13,02,30,05,,,,,,,,,25.5,19.5,16.9*05
$BDGSA,A,3,08,,,,,,,,,,,,25.5,19.5,16.9*1A
$GNRMC,011957.000,A,2231.1177,N,11350.3429,E,1.80,253.15,051219,,,A*74
!AIVDM,1,1,,B,18M<JN002=`8fr4<mfJMiK3b049<,0*6C
!AIVDM,1,1,,B,16:flfgP00`9>O@<om>MNgwj2@Qw,0*06
!AIVDM,1,1,,B,16:D17PP0089<K4<q19@0?wl00Rb,0*39
$GNGGA,011958.000,2231.1176,N,11350.3427,E,1,05,19.5,-121.3,M,0.0,M,,*65
$GNRMC,011958.000,A,2231.1176,N,11350.3427,E,1.71,255.23,051219,,,A*79
!AIVDM,1,1,,B,16:Ejr?001`9>GT<pD1@059j28R;,0*73
!AIVDO,1,1,,,B68rO1P04J2AlQS>:PROSwu6SP06,0*0D
!AIVDM,1,1,,A,16:ED?g00188l4P<q0nlS:5j049<,0*33
!AIVDM,1,1,,A,169G3m0P00899Ph<orgH7Owl00R`,0*3E
!AIVDM,1,1,,A,169@nBPP00`8pU0<t02>4?wl249<,0*5E
!AIVDM,1,1,,A,16:foN0P02`9;W0<oWAN4?wl2<S3,0*4E
鐬m^$GNGGA,011959.000,2231.1177,N,11350.3414,E,1,05,19.5,-122.7,M,0.0,M,,*62
$GPGSA,A,3,13,02,30,05,,,,,,,,,25.5,19.5,16.9*05
$BDGSA,A,3,08,,,,,,,,,,,,25.5,19.5,16.9*1A
$GNRMC,011959.000,A,2231.1177,N,11350.3414,E,2.06,269.27,051219,,,A*71
!AIVDM,1,1,,A,16:DNn0P0089=bP<ne:hDOwn0@Rw,0*33
!AIVDM,1,1,,B,16:ChoP00089LIH<nuKr>`v00H00,0*0E
!AIVDM,1,1,,B,16:D3dPP0188IdL<u7pWs?v02D;2,0*47
!AIVDM,1,1,,A,16:flBgP00`8r0@<od5f4?wn2H04,0*36
!AIVDM,1,1,,B,16:E7FPOlc`8nH8<oQc8:VT000S>,0*46
!AIVDM,1,1,,A,16:EIc?P0088jS0<q4n2MgwN0p06,0*62
!AIVDM,1,1,,B,16:fn0?P00`8jdh<pnpf4?wn2808,0*55
$GNGGA,012000.000,2231.1173,N,11350.3393,E,1,05,19.5,-125.5,M,0.0,M,,*6D
$GNRMC,012000.000,A,2231.1173,N,11350.3393,E,2.45,263.57,051219,,,A*71
!AIVDM,1,1,,A,B6:bbNh00R2BBfS=s1570pv021Mk,0*45
!AIVDM,1,1,,B,B68rO1P04J2AlQS>:PROSwu6SP06,0*4D
!AIVDM,1,1,,A,18MARV001T`8U@d<rDpe?bd00<<C,0*0E
!AIVDM,1,1,,B,169FWKPP4a891Jd<oFt<kgv00L80,0*69
!AIVDM,1,1,,B,B6:DE7P0022;2FS>clPwPjP3QP06,0*59
!AIVDM,1,1,,A,B6:EFt000:2CFnS>>U@OgwP73P00,0*51
!AIVDM,1,1,,A,B6:iSk@4022C2hS>B3D6wwuSQP06,0*2B
!AIVDM,1,1,,B,B6:iSk@4022C2hS>B3D6wwuSQP06,0*28
!AIVDM,1,1,,B,E>ldCi?;Pb2a@22`:4@HrGK6P0044b3T6Jde@00003v01P,4*0F
!AIVDM,1,1,,A,16:fmvHP00`8c4h<u?2>4?v22@0l,0*02
C窥旡格损:$GNGGA,012001.000,2231.1163,N,11350.3359,E,1,05,19.5,-131.1,M,0.0,M,,*6A
$GPGSA,A,3,13,02,30,05,,,,,,,,,25.5,19.5,16.9*05
$BDGSA,A,3,08,,,,,,,,,,,,25.5,19.5,16.9*1A
$GPGSV,3,1,09,02,43,119,31,05,39,037,45,06,04,128,23,13,70,040,34*78
$GPGSV,3,2,09,15,70,252,,21,09,318,,24,15,182,,29,48,279,*75
$GPGSV,3,3,09,30,11,056,35*46
$BDGSV,1,1,02,04,,,36,08,70,072,30*52
$GNRMC,012001.000,A,2231.1163,N,11350.3359,E,1.98,242.58,051219,,,A*78
!AIVDM,1,1,,A,1815GUh01l88gF`<mlmejc420<<:,0*4D
!AIVDM,1,1,,A,16:E7FPOlc`8nEB<oQ6p;VT40<6u,0*08
!AIVDM,2,1,3,B,577RWD02=c7II91CL01<P4p@tpN1LDTPD000001@E0<B>6o00AQm@CQnR3mH,0*7F
!AIVDM,2,2,3,B,0j2CP@00000,2*1F
$GNGGA,012002.000,2231.1167,N,11350.3385,E,1,05,19.4,-128.3,M,0.0,M,,*67
$GNRMC,012002.000,A,2231.1167,N,11350.3385,E,0.99,252.55,051219,,,A*72
!AIVDM,1,1,,B,169@WGP000896m@<p>HpDaEn0FF9,0*7C
!AIVDM,1,1,,A,19NSRbw000898Th<oafpp`D2081P,0*6A
!AIVDM,2,1,8,A,56:EbI8000032222221UDDMD4pM`PuDLtpO7S7IJ3p<5;u8A05Tj1CVR1C`8,0*69
!AIVDM,2,2,8,A,88888888880,2*2C
!AIVDM,1,1,,A,B6:`6th00:2CVIS>4B@93wQ6SP06,0*32
!AIVDM,1,1,,B,169A5cS001895vB<p5;LuFv8049@,0*60
!AIVDM,1,1,,A,B6:`IN00?22BwM3>5HGArWQ3QP06,0*7E
$GNGGA,012003.000,2231.1172,N,11350.3374,E,1,05,19.4,-129.1,M,0.0,M,,*6F
$GPGSA,A,3,13,02,30,05,,,,,,,,,25.5,19.4,16.8*05
$BDGSA,A,3,08,,,,,,,,,,,,25.5,19.4,16.8*1A
$GNRMC,012003.000,A,2231.1172,N,11350.3374,E,1.83,284.54,051219,,,A*79
!AIVDM,1,1,,B,B6:Vbn@01j2B273>TiqF94PSQP06,0*61
!AIVDM,1,1,,A,16:Cfu0P0189<ob<pqedIwv42d3v,0*49
!AIVDM,1,1,,B,B6:`6th00:2CVIS>4B@93wQVSP06,0*51
!AIVDM,1,1,,B,16:E7FP04c`8nBF<oPS8=6T80@2D,0*20
!AIVDM,1,1,,A,18M<JN002=`8fpj<mgNuhs5n049@,0*41
!AIVDM,1,1,,A,16:4AF0000`8kah<rOTN40j6249@,0*2E
$GNGGA,012004.000,2231.1168,N,11350.3344,E,1,05,19.4,-133.0,M,0.0,M,,*6A
$GNRMC,012004.000,A,2231.1168,N,11350.3344,E,2.43,271.57,051219,,,A*70
!AIVDM,1,1,,B,169FWKPP4`891Dn<oH0tjwv80@2d,0*25
!AIVDM,1,1,,B,16:E4HPP00899Q0<ornm7gv600S3,0*2A
!AIVDM,1,1,,B,369GfVQP00`8nQh<p4rv4?v82DdJ,0*01
$GNGGA,012005.000,2231.1163,N,11350.3324,E,1,05,19.4,-136.0,M,0.0,M,,*63
$GPGSA,A,3,13,02,30,05,,,,,,,,,25.5,19.4,16.8*05
$BDGSA,A,3,08,,,,,,,,,,,,25.5,19.4,16.8*1A
$GNRMC,012005.000,A,2231.1163,N,11350.3324,E,2.20,261.87,051219,,,A*75
!AIVDM,1,1,,A,16;4O2001l`8J2T<vPq6LU880H3A,0*34
!AIVDM,1,1,,B,16:4fcP003`8Eo@<vCEf4:2:2@3C,0*56
!AIVDM,1,1,,A,10`:DoOP00`99Rt<pHLqqOv<2D=k,0*62
!AIVDM,1,1,,B,36;5I`001``8`7t<qH9=Hrd<02iQ,0*74
!AIVDM,1,1,,A,16:E7FP04c`8n?J<oOvp=nT>0@3a,0*5A
!AIVDM,1,1,,B,16;cn0P00188r:P<orD8o5@01P06,0*4D
$GNGGA,012006.000,2231.1160,N,11350.3314,E,1,05,19.4,-137.4,M,0.0,M,,*65
$GPGSV,3,1,09,02,43,119,30,05,39,037,43,06,04,128,24,13,70,040,34*78
$GPGSV,3,2,09,15,70,252,,21,09,318,,24,15,182,,29,48,278,*74
$GPGSV,3,3,09,30,11,056,35*46
$BDGSV,1,1,02,04,,,36,08,70,072,30*52
$GNRMC,012006.000,A,2231.1160,N,11350.3314,E,2.27,260.92,051219,,,A*74
!AIVDM,1,1,,A,169@FkP01l`8OTn<t2p6ATt<083u,0*4A
!AIVDM,1,1,,B,169v:Q?P008992l<oqD11wv:083v,0*1F
!AIVDM,1,1,,A,16:D17PP0089<Jt<q18P0?v<00SW,0*0F
$GNGGA,012007.000,2231.1156,N,11350.3293,E,1,05,19.4,-140.9,M,0.0,M,,*62
$GPGSA,A,3,13,02,30,05,,,,,,,,,25.5,19.4,16.8*05
$BDGSA,A,3,08,,,,,,,,,,,,25.5,19.4,16.8*1A
$GNRMC,012007.000,A,2231.1156,N,11350.3293,E,1.95,259.13,051219,,,A*77
!AIVDM,1,1,,B,36:86P100088M7h<w<lkBJD>2DIb,0*08
!AIVDM,1,1,,A,16:flfgP00`9>O@<om=f4?v>249@,0*71
!AIVDM,1,1,,B,H69FdUlN6DeiphihjipoPP0h6120,0*11
!AIVDM,1,1,,B,16:E7FPPDc`8n<P<oOK`>nT@0<6v,0*6E
!AIVDM,1,1,,B,B6:fodP0022=sAS>@t>JAu3SQP06,0*27
$GNGGA,012008.000,2231.1151,N,11350.3275,E,1,05,19.4,-143.6,M,0.0,M,,*6E
$GNRMC,012008.000,A,2231.1151,N,11350.3275,E,2.22,256.15,051219,,,A*71
!AIVDM,1,1,,B,169G3m0P01899Q6<orjq0wv@0<;?,0*7F
!AIVDM,1,1,,A,16:ICDPk0088jkH<riMBAgwt4h51,0*72
!AIVDM,1,1,,A,16:Ejr?001`9>GT<pD1@056@20SM,0*2A
!AIVDM,1,1,,B,16:EIc?P0088jS0<q4n6swwd0PSB,0*56
!AIVDM,1,1,,A,38Htso5000`96h@<p@fdHar>0DU:,0*3F
!AIVDM,1,1,,B,16:foN0P01`9;Vh<oWAv4?v@20RQ,0*6D
$GNGGA,012009.000,2231.1149,N,11350.3268,E,1,05,19.3,-144.9,M,0.0,M,,*65
$GPGSA,A,3,13,02,30,05,,,,,,,,,25.5,19.3,16.8*02
$BDGSA,A,3,08,,,,,,,,,,,,25.5,19.3,16.8*1D
$GNRMC,012009.000,A,2231.1149,N,11350.3268,E,2.17,252.73,051219,,,A*77
!AIVDM,1,1,,B,16;Anv?P0f`8jNP<sG4dvgvB2@5T,0*3B
!AIVDM,1,1,,B,18MARV001T`8U=p<rEleB:dB0<<C,0*2E
!AIVDM,1,1,,B,16;AlAPP0088k6j<pHN6F?vB2D3w,0*41
!AIVDM,1,1,,A,16:E7FP04c`8n9T<oNop?6TD085n,0*0B
$GNGGA,012010.000,2231.1145,N,11350.3252,E,1,05,19.3,-147.3,M,0.0,M,,*61
$GNRMC,012010.000,A,2231.1145,N,11350.3252,E,2.35,251.58,051219,,,A*70
!AIVDM,1,1,,B,18M<JN002=`8fof<mhI=hc4:0@62,0*5D
!AIVDM,1,1,,A,C6:E<e00022BPWS=q3B@qkTRjb:V@2N>b2L@bOWeQi10S3L542P7,0*56
!AIVDM,1,1,,B,C6:E<e00022BPWS=q3B@qkTRjb:V@2N>b2L@bOWeQi10S3L542P7,0*55
!AIVDM,1,1,,B,B6:WaAP0?j2C=93=h:P8KwT3QP06,0*34
!AIVDM,1,1,,B,36:4QDU000`8Heh<uR3v4:PD2DJr,0*49
!AIVDM,1,1,,A,B6:WaAP0?j2C=93=h:P8KwT3QP06,0*37
!AIVDM,1,1,,B,16:flBgP00`8r0@<od5f4?vD286N,0*12
!AIVDM,1,1,,B,19NSRbw000898Tf<oafP:pDB086P,0*6A
!AIVDM,2,1,9,A,58Htso42=q5SUKGKKL0l4E9<f0@uD4h40000001?2:w??6bQ0AhkTj2h0000,0*0D
!AIVDM,2,2,9,A,00000000000,2*2D
$GNGGA,012011.000,2231.1143,N,11350.3235,E,1,05,19.3,-149.4,M,0.0,M,,*6E
$GPGSA,A,3,13,02,30,05,,,,,,,,,25.5,19.3,16.7*0D
$BDGSA,A,3,08,,,,,,,,,,,,25.5,19.3,16.7*12
$GPGSV,3,1,09,02,43,119,30,05,39,037,44,06,03,128,24,13,70,040,35*79
$GPGSV,3,2,09,15,70,252,,21,09,318,,24,15,182,,29,48,278,*74
$GPGSV,3,3,09,30,11,056,33*40
$BDGSV,1,1,02,04,,,36,08,70,072,30*52
$GNRMC,012011.000,A,2231.1143,N,11350.3235,E,2.73,259.17,051219,,,A*77
!AIVDM,1,1,,B,H6:ij`U61G3Cifh00000005P5760,0*51
!AIVDM,1,1,,A,H69rUq0P4V1QDr37C?380000000,2*22
!AIVDM,1,1,,B,13v6Lp801<`8KT4<uGR61lil80S:,0*7E
!AIVDM,1,1,,A,36:>bv1000`9?AV<nGc9;bpD0Dfr,0*01
!AIVDM,1,1,,B,B6:bbNh00R2BBiS=s0q9Lrv021Mk,0*7C
$GNGGA,012012.000,2231.1141,N,11350.3229,E,1,05,19.3,-150.2,M,0.0,M,,*6C
$GNRMC,012012.000,A,2231.1141,N,11350.3229,E,2.72,258.34,051219,,,A*7A
!AIVDM,1,1,,B,B6:fjBh0BR2?=qS>G<QEA45SQP06,0*3A
!AIVDM,1,1,,A,169A5cS000895vB<p5>=`G0J00Rh,0*71
!AIVDM,1,1,,B,1815GUh01l88gEH<mnDem;4F00Rk,0*56
!AIVDM,1,1,,B,B69GIS00B:2BstS>2`rAWwV6SP06,0*73
!AIVDM,1,1,,A,B6:lDkh0?R2CFf3=m@Md1FV3QP06,0*50
!AIVDM,2,1,4,B,58Htso42=q5SUKGKKL0l4E9<f0@uD4h40000001?2:w??6bQ0AhkTj2h0000,0*03
!AIVDM,2,2,4,B,00000000000,2*23
$GNGGA,012013.000,2231.1137,N,11350.3239,E,1,05,19.3,-149.2,M,0.0,M,,*65
$GPGSA,A,3,13,02,30,05,,,,,,,,,25.5,19.3,16.7*0D
$BDGSA,A,3,08,,,,,,,,,,,,25.5,19.3,16.7*12
$GNRMC,012013.000,A,2231.1137,N,11350.3239,E,2.44,236.80,051219,,,A*79
!AIVDM,1,1,,B,16:Cfu0P0189<pN<pq`aOwvH2PS3,0*12
!AIVDM,1,1,,A,16:E7FP04d`8n3j<oMh`?VRL049@,0*6C
!AIVDM,1,1,,B,B6:faRh0?22@Hb3>709FgwUSQP06,0*57
!AIVDM,2,1,0,A,53BB0P42>?2PuPQK:20EHDiTr0l4E9<f22222217LrWLL>ioNB@kST3wPkTj,0*6F
!AIVDM,2,2,0,A,2p888888880,2*66
!AIVDM,1,1,,A,16:4fcP003`8Eo0<vCEf4:2J2<HT,0*45
$GNGGA,012014.000,2231.1135,N,11350.3244,E,1,05,19.3,-148.9,M,0.0,M,,*60
$GNRMC,012014.000,A,2231.1135,N,11350.3244,E,1.90,237.73,051219,,,A*71
!AIVDM,1,1,,A,16:E4HPP00899R@<orvm7gvJ00S@,0*4D
!AIVDM,1,1,,B,16:fURHP0n89=;0<oj3=vwvJ2d3v,0*11
!AIVDM,1,1,,A,B6:D7;00022Bso3>DiNmcwVW1P06,0*3F
!AIVDM,1,1,,A,B6:Vf100022>OD3=uJbcb977QP06,0*00
!AIVDM,1,1,,B,10`:DoOP00`99Rh<pHMawwvN249@,0*7F
!AIVDM,1,1,,B,169@FkP01l`8OWh<t1l6@ltN0<80,0*52
$GNGGA,012015.000,2231.1130,N,11350.3229,E,1,05,19.3,-151.5,M,0.0,M,,*6B
$GPGSA,A,3,13,02,30,05,,,,,,,,,25.5,19.3,16.7*0D
$BDGSA,A,3,08,,,,,,,,,,,,25.5,19.3,16.7*12
$GNRMC,012015.000,A,2231.1130,N,11350.3229,E,1.91,235.98,051219,,,A*78
!AIVDM,1,1,,B,16:Cbb8P0088Tth<osPFoOvL289<,0*58
!AIVDM,1,1,,A,16:G@P002888WWh<qEPnNP0L0<?b,0*2B
!AIVDM,1,1,,B,16:E7FPPDd`8n0r<oM<p?6RP0@9F,0*2E
!AIVDM,1,1,,B,16:Cqq000088aTp<tT200:VP0H9K,0*06
$GNGGA,012016.000,2231.1118,N,11350.3194,E,1,05,19.3,-158.1,M,0.0,M,,*6A
$GPGSV,3,1,09,02,43,119,29,05,39,037,44,06,03,129,18,13,70,040,35*7F
$GPGSV,3,2,09,15,70,252,,21,09,319,,24,15,182,,29,48,278,*75
$GPGSV,3,3,09,30,11,056,33*40
$BDGSV,1,1,02,04,,,36,08,70,072,30*52
$GNRMC,012016.000,A,2231.1118,N,11350.3194,E,2.13,220.82,051219,,,A*72
!AIVDM,1,1,,B,169G6T0P1A88SMB<rhbnF?vP2`9b,0*0E
!AIVDM,1,1,,B,16;4O2001l`8J5H<vOa6LU8N089g,0*09
!AIVDM,1,1,,B,B6:QwfP0022BIf3=vqvt:F`3QP06,0*35
!AIVDM,1,1,,A,169v:Q?P008992r<oqG11wvR0@:9,0*57
$GNGGA,012017.000,2231.1117,N,11350.3192,E,1,05,19.2,-158.4,M,0.0,M,,*66
$GPGSA,A,3,13,02,30,05,,,,,,,,,25.5,19.2,16.7*0C
$BDGSA,A,3,08,,,,,,,,,,,,25.5,19.2,16.7*13
$GNRMC,012017.000,A,2231.1117,N,11350.3192,E,2.97,252.89,051219,,,A*78
!AIVDM,1,1,,B,16:R@BP01k88HiB<w8KVTmBR00Rq,0*75
!AIVDM,1,1,,A,B6:`Hm@0;R2BaMS>91aHGw`SQP06,0*20
!AIVDM,1,1,,B,16:D17PP0089<Jf<q17P0?vR049@,0*06
!AIVDM,1,1,,B,16:Ejr?00089>GT<pD1@056R2H:`,0*5E
$GNGGA,012018.000,2231.1115,N,11350.3189,E,1,05,19.2,-158.5,M,0.0,M,,*60
$GNRMC,012018.000,A,2231.1115,N,11350.3189,E,3.17,259.11,051219,,,A*7C
!AIVDM,1,1,,B,16:ICDPk0088jkF<riMBAgwr4l3w,0*3D
!AIVDM,1,1,,A,H6:b`lQ<QDpPtpO33L000000000,2*61
!AIVDM,1,1,,A,169G3m0P01899Q:<orloU?vT0@;4,0*26
!AIVDM,1,1,,B,33ku:I@OiH`8LK4<tUpTR3pR010@,0*06
!AIVDM,1,1,,A,36:ED?g00188l4P<q0nlA:0R015Q,0*7A
!AIVDM,1,1,,B,B6:E8QP0022BOT3>9M0I=@8SQP06,0*5F
!AIVDM,1,1,,A,16:foN0P01`9;Vh<oWBf4?vT20Ro,0*57
!AIVDM,1,1,,A,B6:E8QP0022BOT3>9M0I<D8SQP06,0*59
$GNGGA,012019.000,2231.1113,N,11350.3188,E,1,05,19.2,-158.4,M,0.0,M,,*67
$GPGSA,A,3,13,02,30,05,,,,,,,,,25.4,19.2,16.6*0C
$BDGSA,A,3,08,,,,,,,,,,,,25.4,19.2,16.6*13
$GNRMC,012019.000,A,2231.1113,N,11350.3188,E,3.09,252.16,051219,,,A*79
!AIVDM,1,1,,A,16:EIc?P0088jS0<q4n47Ov:0p;R,0*2C
!AIVDM,1,1,,A,16;AlAPP0088k6l<pHMFF?vT2@;e,0*3F
!AIVDM,1,1,,A,16:D?kg00089@CH<o<i6f1Jb0p;l,0*4E
!AIVDM,1,1,,B,16:E7FPPDd`8ms6<oL4`>6P`049@,0*72
!AIVDM,1,1,,B,16:D3dPP0188IdH<u7bos?vb0<;1,0*42
$GNGGA,012020.000,2231.1112,N,11350.3191,E,1,05,19.2,-157.9,M,0.0,M,,*66
$GNRMC,012020.000,A,2231.1112,N,11350.3191,E,2.86,254.18,051219,,,A*74
惋幼翱郴:p|n$AISUC,SetSuccess!
!AIVDM,1,1,,B,H6:b`lQ<QDpPtpO33L000000000,2*62
!AIVDM,1,1,,A,H6:b`lU6000000000000000Pp8:0,0*4D
!AIVDM,1,1,,B,169FWKPP4c890tB<oLF<hwv`0<80,0*79
!AIVDM,1,1,,A,18MARV001T`8U:8<rFu=?bd`049@,0*29
!AIVDM,1,1,,B,B6:ESw00022<aAS>OoEn5NN021Mk,0*60
!AIVDM,1,1,,A,19NSRbw000898Tf<oaf@SHDV0D;s,0*6E
!AIVDM,1,1,,A,16:flBgP00`8r0@<od5f4?v`2D>r,0*7D
!AIVDM,1,1,,A,H6:D7;0LtpLPF22222222222220,2*08
!AIVDM,1,1,,A,H69?RaDNC8e19Cjijklmno20:420,0*3E
!AIVDM,1,1,,B,16:ChoP00189LHj<nuJJ>a0d0H<L,0*76
!AIVDM,1,1,,B,18M<JN002=`8fmn<mj4uic4P0D;e,0*55
$GNGGA,012021.000,2231.1110,N,11350.3178,E,1,05,19.2,-159.4,M,0.0,M,,*61
$GPGSA,A,3,13,02,30,05,,,,,,,,,25.4,19.2,16.6*0C
$BDGSA,A,3,08,,,,,,,,,,,,25.4,19.2,16.6*13
$GPGSV,3,1,09,02,43,119,29,05,39,037,43,06,03,129,18,13,70,040,34*79
$GPGSV,3,2,09,15,70,252,,21,09,319,,24,15,182,,29,48,278,*75
$GPGSV,3,3,09,30,11,056,34*47
$BDGSV,1,1,02,04,,,36,08,70,072,30*52
$GNRMC,012021.000,A,2231.1110,N,11350.3178,E,2.99,258.37,051219,,,A*7F
!AIVDM,1,1,,B,B6:fn003wk?8mP=18D3Q00@3QP06,0*10
!AIVDM,1,1,,A,16:E7FPPDd`8mpH<oKP8=FNd0H<t,0*13
!AIVDM,1,1,,B,169A5cS001895v2<p5DMWo0d0<;r,0*47
$GNGGA,012022.000,2231.1111,N,11350.3182,E,1,05,19.2,-157.9,M,0.0,M,,*65
$GNRMC,012022.000,A,2231.1111,N,11350.3182,E,3.26,267.45,051219,,,A*74
!AIVDM,1,1,,A,169FWKPP4a890q<<oLpLh?vd00S2,0*6C
!AIVDM,1,1,,B,H6:b`lU6000000000000000Pp8:0,0*4E
!AIVDM,1,1,,A,33ku:I@OiJ`8LN<<tUd4W3td00tA,0*0D
!AIVDM,1,1,,A,B6:b`lP00:2C7B3>@1pgswbVSP06,0*36
!AIVDM,1,1,,B,33Abld5000`98m@<p3kaK4:`8Deb,0*6C
!AIVDM,1,1,,B,B6:V4jP0=R2BohS>6tkA7wc3QP06,0*09
$GNGGA,012023.000,2231.1109,N,11350.3187,E,1,05,19.2,-157.0,M,0.0,M,,*61
$GPGSA,A,3,13,02,30,05,,,,,,,,,25.3,19.2,16.6*0B
$BDGSA,A,3,08,,,,,,,,,,,,25.3,19.2,16.6*14
$GNRMC,012023.000,A,2231.1109,N,11350.3187,E,2.60,250.68,051219,,,A*71
!AIVDM,1,1,,A,16:Cfu0P0089<pR<pqTsLOvd2PS8,0*36
!AIVDM,1,1,,B,16:E4HPP00899Q0<ornnVgvb08>1,0*7B
!AIVDM,1,1,,B,16:4fcP004`8EnP<vCFv4:2f2<HP,0*1B
$GNGGA,012024.000,2231.1114,N,11350.3209,E,1,05,19.2,-152.3,M,0.0,M,,*69
$GNRMC,012024.000,A,2231.1114,N,11350.3209,E,2.99,275.29,051219,,,A*7B
!AIVDM,1,1,,A,177`j?002L89:Ul<liK`G6bj049@,0*48
!AIVDM,1,1,,B,B6:b`lP00:2C7B3>@1pgswbVSP06,0*35
!AIVDM,1,1,,B,16;5I`001``8`2F<qJ5=F:`h0L?H,0*68
!AIVDM,1,1,,A,169@FkP01m`8OcH<t0VFATtj08>j,0*4A
$GNGGA,012025.000,2231.1111,N,11350.3239,E,1,05,19.1,-148.0,M,0.0,M,,*65
$GPGSA,A,3,13,02,30,05,,,,,,,,,25.3,19.1,16.5*0B
$BDGSA,A,3,08,,,,,,,,,,,,25.3,19.1,16.5*14
$GNRMC,012025.000,A,2231.1111,N,11350.3239,E,1.85,223.48,051219,,,A*76
!AIVDM,1,1,,B,169v:Q?P008992v<oqGA1wvj0D;Q,0*75
!AIVDM,1,1,,A,16;4O2001l`8J7T<vNbVLU8f08>t,0*4A
!AIVDM,1,1,,A,10`:DoOP00`99Rf<pHNJ2Ovl249@,0*05
!AIVDM,1,1,,B,C6:DE7P0022;2G3>clPuPi<2jb;0hBM0@;1iki111110S2<3RR07,0*4F
!AIVDM,1,1,,A,C6:DE7P0022;2G3>clPuPi<2jb;0hBM0@;1iki111110S2<3RR07,0*4C
!AIVDM,1,1,,B,33ku:I@OiK`8LPH<tUTTaSvh0000,0*58
!AIVDM,2,1,5,B,56:;`jP000008<Th001PTpN20htpN21<PDpL0016:@A8875<0=lRH6R0Cp88,0*61
!AIVDM,2,2,5,B,88888888880,2*22
!AIVDM,1,1,,A,169G6T0P1A88SOB<rgrVDOvj2`?D,0*40
!AIVDM,1,1,,A,36:ED?g00188l4P<q0nl@qvh00th,0*35
$GNGGA,012026.000,2231.1111,N,11350.3253,E,1,05,19.1,-145.9,M,0.0,M,,*6E
$GPGSV,3,1,09,02,43,119,30,05,39,037,41,06,03,129,20,13,70,040,35*79
$GPGSV,3,2,09,15,70,252,,21,09,319,,24,15,182,,29,48,278,*75
$GPGSV,3,3,09,30,11,056,35*46
$BDGSV,1,1,02,04,,,36,08,70,072,29*5A
$GNRMC,012026.000,A,2231.1111,N,11350.3253,E,1.37,227.77,051219,,,A*78
!AIVDM,1,1,,A,169FWKPP4W890jv<oMvLfwvl0<80,0*27
!AIVDM,1,1,,B,16:EL;8P0088g@n<s0bBAgvl2<3w,0*22
!AIVDM,1,1,,A,16:ED:gP0088gU@<ps`Gi?vh00Ru,0*12
!AIVDM,1,1,,A,B6:ij`P0>22BJd3>1G=J7h54SP00,0*68
!AIVDO,1,1,,,B68rO1P04b2Ak;3>:LFIkweVSP06,0*6E
$GNGGA,012027.000,2231.1109,N,11350.3254,E,1,05,19.1,-145.1,M,0.0,M,,*69
$GPGSA,A,3,13,02,30,05,,,,,,,,,25.3,19.1,16.5*0B
$BDGSA,A,3,08,,,,,,,,,,,,25.3,19.1,16.5*14
$GNRMC,012027.000,A,2231.1109,N,11350.3254,E,1.85,246.03,051219,,,A*7A
!AIVDM,1,1,,A,16:R@BP01k88Hk><w7?VVE@n0<<N,0*3A
!AIVDM,1,1,,A,B6:fs@h0022B51S>TII7@qN021Mk,0*77
!AIVDM,1,1,,B,B6:fs@h0022B51S>TII7@qN021Mk,0*74
!AIVDM,1,1,,B,B6:kUPh0;j2BawS=ed7:7we3QP06,0*19
!AIVDM,1,1,,A,16:Ejr?001`9>GP<pD1h056n28@K,0*35
!AIVDM,1,1,,B,16:E7FPPDd`8mhd<oIi896Hp08@O,0*4E
$GNGGA,012028.000,2231.1096,N,11350.3207,E,1,05,19.1,-151.5,M,0.0,M,,*66
$GNRMC,012028.000,A,2231.1096,N,11350.3207,E,2.59,230.70,051219,,,A*73
!AIVDM,1,1,,B,169G3m0P01899P<<orn7Swvp049@,0*10
!AIVDM,1,1,,A,16:D17PP0089<Jb<q1700?vp0D2K,0*33
!AIVDM,1,1,,B,16:=rEP5P388HOv<uba9<rR80T9@,0*2F
!AIVDM,1,1,,A,33ku:I@OiK`8LRT<tUJTd40n00v0,0*3F
$GNGGA,012029.000,2231.1091,N,11350.3198,E,1,05,19.1,-152.6,M,0.0,M,,*65
$GPGSA,A,3,13,02,30,05,,,,,,,,,25.2,19.1,16.5*0A
$BDGSA,A,3,08,,,,,,,,,,,,25.2,19.1,16.5*15
$GNRMC,012029.000,A,2231.1091,N,11350.3198,E,2.71,256.32,051219,,,A*7C
!AIVDO,1,1,,,B68rO1P06r2Ajg3>:K>P?wfVSP06,0*10
!AIVDM,1,1,,B,16:ED?g00188l4P<q0nlBavn08AF,0*33
!AIVDM,1,1,,B,16:EIc?P0088jRh<q4n4W?vP0t@L,0*6D
!AIVDM,1,1,,B,16:;`jP01W`8Mc8<tnHVAltv0pBW,0*23
!AIVDM,1,1,,A,16:fn0?P01`8je0<pnov4?vr28AS,0*06
!AIVDM,1,1,,A,B69GRd?`0B2BOgS>9NP03wfvkP06,0*7C
!AIVDM,1,1,,B,B6:lGV@0022C:u3>>eBR21eSQP06,0*2E
!AIVDM,1,1,,A,B6:lGV@0022C:u3>>eBR21eSQP06,0*2D
.蝼3侀}$GNGGA,012030.000,2231.1088,N,11350.3186,E,1,05,19.1,-154.3,M,0.0,M,,*69
$GNRMC,012030.000,A,2231.1088,N,11350.3186,E,2.77,254.32,051219,,,A*77
!AIVDM,1,1,,A,16:D3dPP0188Id6<u7kGs?vv00RW,0*09
!AIVDM,1,1,,B,16:flBgP00`8r0@<od4v4?vt2@B6,0*47
!AIVDM,1,1,,B,B68rO1P06r2Ajg3>:K>P?wfVSP06,0*50
$GNGGA,012031.000,2231.1085,N,11350.3184,E,1,05,19.1,-154.4,M,0.0,M,,*60
$GPGSA,A,3,13,02,30,05,,,,,,,,,25.2,19.1,16.5*0A
$BDGSA,A,3,08,,,,,,,,,,,,25.2,19.1,16.5*15
$GPGSV,3,1,09,02,43,119,29,05,39,037,42,06,03,129,17,13,70,040,35*76
$GPGSV,3,2,09,15,70,253,,21,09,319,,24,15,182,,29,48,278,*74
$GPGSV,3,3,09,30,11,056,36*45
$BDGSV,1,1,02,04,,,36,08,70,072,30*52
$GNRMC,012031.000,A,2231.1085, .B"偄B.77,051219,,,A*76
!AIVDM,1,1,,B,13v6Lp801<`8Kb0<uF0V3ThT849@,0*58
!AIVDM,1,1,,B,16:D7a0001`8vQ0<sgdWi1g00D50,0*21
$GNGGA,012032.000,2231.1083,N,11350.3184,E,1,05,19.1,-154.4,M,0.0,M,,*65
$GNRMC,012032.000,A,2231.1083,N,11350.3184,E,2.57,252.23,051219,,,A*78
!AIVDM,1,1,,B,19NSRbw000898Tf<oafG2pDv0@Bw,0*6A
!AIVDM,1,1,,A,369A5cS001895vf<p5<u=G12032i,0*5A
!AIVDM,1,1,,B,1815GUh01l88gC<<mplem;4v0L<:,0*61
!AIVDM,1,1,,A,H6:fPNm66DeiihlPPPPPPP0Pf870,0*3B
$GNGGA,012033.000,2231.1079,N,11350.3189,E,1,05,19.0,-153.7,M,0.0,M,,*69
$GPGSA,A,3,13,02,30,05,,,,,,,,,25.1,19.0,16.4*09
$BDGSA,A,3,08,,,,,,,,,,,,25.1,19.0,16.4*16
$GNRMC,012033.000,A,2231.1079,N,11350.3189,E,2.52,234.82,051219,,,A*7F
!AIVDM,1,1,,A,B6:`IN00?22Buf3>5m7@nW@3QP06,0*0E
!AIVDM,1,1,,B,16:Cfu0P0089<on<pqe<cOw02T9@,0*04
!AIVDM,1,1,,B,B6:`IN00?22Buf3>5m7@nW@3QP06,0*0D
!IVDM,1,1,,A,36:4WH5P00`8hG@<s8@`Dgw00Dk:,0*76
!AIVDM,1,1,,A,16:E7FP04c`8maT<oGw82nE40<70,0*65
!AIVDM,1,1,,A,16:E4HPP00899R@<ortH0gw20Dgb,0*76
$GNGGA,012034.000,2231.1079,N,11350.3198,E,1,05,19.0,-152.5,M,0.0,M,,*6D
$GNRMC,012034.000,A,2231.1079,N,11350.3198,E,2.24,249.86,051219,,,A*77
!AIVDM,1,1,,B,10`:DoOP00`99Rd<pHNJ1ww628D;,0*6E
!AIVDM,1,1,,A,169FWKPP4T890U4<oPLLogw408D=,0*4B
!AIVDM,1,1,,B,16:HVL001V88gW8<mE?=gc120D<W,0*2B
$GNGGA,012035.000,2231.1075,N,11350.3165,E,1,05,19.0,-156.8,M,0.0,M,,*6B
$GPGSA,A,3,13,02,30,05,,,,,,,,,25.1,19.0,16.4*09
$BDGSA,A,3,08,,,,,,,,,,,,25.1,19.0,16.4*16
$GNRMC,012035.000,A,2231.1075,N,11350.3165,E,2.96,267.08,051219,,,A*7B
!AIVDM,1,1,,B,36;?mV100088KCl<wUQ1aJ520EPJ,0*47
!AIVDM,1,1,,A,16;5I`001``8Wv`<qK?=Aba60D?G,0*32
!AIVDM,1,1,,A,C6:kRW@00B2A?gS>RetRtKhRPBL>L2L@b2V@bMQiee10S1l:32P7,0*47
!AIVDM,1,1,,B,16:Cbb8P0088Tth<osPVoOw428Dq,0*01
!AIVDM,1,1,,B,16;4O2001m`8J:4<vMM6LU940<<J,0*02
!AIVDM,1,1,,A,16:G@P002788Wf@<qBcVLP1408E<,0*6A
!AIVDM,1,1,,B,36:ED?g00188l4P<q0nl?9w400w0,0*07
!AIVDM,1,1,,A,16=q?7@01g`8OFH<t80n;51000Rl,0*45
$GNGGA,012036.000,2231.1069,N,11350.3136,E,1,05,19.0,-160.7,M,0.0,M,,*69
$GPGSV,3,1,09,02,43,119,28,05,39,037,42,06,03,129,17,13,70,040,34*76
$GPGSV,3,2,09,15,70,253,,21,09,319,,24,15,182,,29,48,278,*74
$GPGSV,3,3,09,30,11,056,35*46
$BDGSV,1,1,02,04,,,36,08,70,072,29*5A
$GNRMC,012036.000,A,2231.1069,N,11350.3136,E,3.23,258.80,051219,,,A*70
!AIVDM,1,1,,B,H6:fOw18tpL`TpOKSP000000000,2*0F
!AIVDM,1,1,,B,169@FkP01m`8Og<<swAnATu80<80,0*4D
!AIVDM,1,1,,A,16:EL;8P0088g@l<s0c2Agw82@Ea,0*1B
!AIVDM,1,1,,B,16:flfgP00`9>O0<om;v4?w820SG,0*7A
!AIVDM,1,1,,B,16:Ej80Olo89KbV<nK8utP340HEj,0*2D
!AIVDM,1,1,,A,B69Ff4h0<22>naS=nWLOGwj3QP06,0*10
$GNGGA,012037.000,2231.1066,N,11350.3129,E,1,05,19.0,-161.6,M,0.0,M,,*69
$GPGSA,A,3,13,02,30,05,,,,,,,,,25.1,19.0,16.4*09
$BDGSA,A,3,08,,,,,,,,,,,,25.1,19.0,16.4*16
$GNRMC,012037.000,A,2231.1066,N,11350.3129,E,3.15,254.21,051219,,,A*72
!AIVDM,1,1,,B,16:D17PP0189<J`<q1700?w:08Cv,0*48
!AIVDM,1,1,,B,16:EmwP04>88Qs><mL8p6nM2049@,0*3E
!AIVDM,1,1,,A,16:E7FPOlb`8mU2<oFk`0VG<049@,0*12
$GNGGA,012038.000,2231.1062,N,11350.3117,E,1,05,19.0,-163.3,M,0.0,M,,*68
$GNRMC,012038.000,A,2231.1062,N,11350.3117,E,3.21,253.40,051219,,,A*73
!AIVDM,1,1,,B,C6:`6th0022CVH3>4B093wv0J30l@Nc0DB2O1R000000N0D>0U0P,0*6C
!AIVDM,1,1,,B,C6:`6th0022CVH3>4B093wv0J30l@Nc0DB2O1R000000N0D>0U0P,0*6C
!AIVDM,1,1,,A,169FWKPP4S890Ol<oQUM4ww<00S5,0*43
!AIVDM,1,1,,A,16:EIc?P0088jRh<q4n:HOvh0U9t,0*57
!AIVDM,1,1,,A,B6:D6KP0022CReS=bL3Pnkk3QP06,0*0C
!AIVDM,1,1,,A,16:foN0P01`9;V@<oWCv4?w<20SE,0*2C
!AIVDM,2,1,6,B,56:D17T000033330001PT4pLIG800000000000160Hf:640000<000000000,0*19
!AIVDM,1,1,,A,38IQKJ5P00`92=J<opJK7gw>2EM:,0*76
!,2,2,6,B,00000000008,2*29
!AIVDM,1,1,,A,;03sl2Qv?2QDV`9E56<nojQ02000,0*71
!AIVDM,1,1,,B,36:DmMUP0089<kB<ppQ9GB3<0000,0*31
$GNGGA,012039.000,2231.1058,N,11350.3110,E,1,05,19.0,-164.0,M,0.0,M,,*63
$GPGSA,A,3,13,02,30,05,,,,,,,,,25.0,19.0,16.3*0F
$BDGSA,A,3,08,,,,,,,,,,,,25.0,19.0,16.3*10
$GNRMC,012039.000,A,2231.1058,N,11350.3110,E,3.62,251.93,051219,,,A*77
!AIVDM,1,1,,A,16:ED?g00188l4P<q0nl=qs:08G9,0*77
!AIVDM,1,1,,B,16:Ejr?Oh1`9>GP<pD1h057>2@GE,0*31
!AIVDM,1,1,,A,16;AlAPP0088k6p<pHM6F?w<249@,0*69
!AIVDM,1,1,,B,16:fn0?P01`8je0<pnoN4?w>2<?K,0*12
!AIVDM,1,1,,B,16:D3dPP0188Icp<u7mWs?w@08GS,0*73
$GNGGA,012040.000,2231.1054,N,11350.3102,E,1,05,18.9,-165.0,M,0.0,M,,*6B
$GNRMC,012040.000,A,2231.1054,N,11350.3102,E,3.47,254.00,051219,,,A*7E
!AIVDM,1,1,,A,16:D?kg00089@FP<o<i;u1IB0pGi,0*17
!AIVDM,1,1,,A,B6:fd:h00J2BW63=s?K1fJv021Mk,0*14
!AIVDM,1,1,,B,B69FbMs0DR2<Mm3>R1UT1@561P06,0*00
!AIVDM,1,1,,B,36:flc1P00`9Rjd<nvpJeww:0000,0*56
!AIVDM,1,1,,B,C6:fWc@0022BUR3>8l3>wwv0@b2@2L?eeh0000000000S0DFSS0P,0*57
!AIVDM,1,1,,B,C6:fWc@0022BUR3>8l3>wwv0@b2@2L?eeh0000000000S0DFSS0P,0*57
!AIVDM,1,1,,B,C69GIS00B22Bp=3>2ArAWwv0jNc0HB2M0DB2O1d00000N2<ASSPP,0*7F
!AIVDM,1,1,,A,16:flBgP00`8r0@<od4N4?wB2<>t,0*09
$GNGGA,012041.000,2231.1051,N,11350.3087,E,1,05,18.9,-167.1,M,0.0,M,,*60
$GPGSA,A,3,13,02,30,05,,,,,,,,,25.0,18.9,16.3*07
$BDGSA,A,3,08,,,,,,,,,,,,25.0,18.9,16.3*18
$GPGSV,3,1,09,02,43,119,29,05,39,038,42,06,03,129,19,13,70,040,34*76
$GPGSV,3,2,09,15,70,253,,21,09,319,,24,15,182,,29,48,278,*74
$GPGSV,3,3,09,30,11,056,36*45
$BDGSV,1,1,02,04,,,36,08,70,072,29*5A
$GNRMC,012041.000,A,2231.1051,N,11350.3087,E,3.24,253.64,051219,,,A*76
!AIVDM,1,1,,B,16:EnU000089LDl<nwUAHq7B049@,0*03
$GNGGA,012042.000,2231.1050,N,11350.3089,E,1,05,18.9,-166.9,M,0.0,M,,*65
$GNRMC,012042.000,A,2231.1050,N,11350.3089,E,3.24,258.13,051219,,,A*71
!AIVDM,1,1,,B,169A5cS000895vr<p5;4qo1F049@,0*3D
!AIVDM,1,1,,A,1815GUh01k88gB@<mqcem;5B0<<:,0*53
!AIVDM,1,1,,B,177`j?002K89:G<<lfq8FFWF00S;,0*1E
!AIVDM,1,1,,B,36:ED?g00188l4P<q0nl:J1@0000,0*04
!AIVDM,1,1,,A,B6:lDkh0?R2CG?S=lgid=Fm3QP06,0*5D
!AIVDM,1,1,,B,B69GIS00Cb2BowS>2@F<3wm6SP06,0*03
$GNGGA,012043.000,2231.1048,N,11350.3077,E,1,05,18.9,-168.4,M,0.0,M,,*6F
$GPGSA,A,3,13,02,30,05,,,,,,,,,25.0,18.9,16.3*07
$BDGSA,A,3,08,,,,,,,,,,,,25.0,18.9,16.3*18
$GNRMC,012043.000,A,2231.1048,N,11350.3077,E,3.60,259.92,051219,,,A*70
!AIVDM,2,1,1,A,56:=1<0000000000000PDpM<PDpLaDsSP00000000i;896Vj0:im@CQp6R3m,0*0A
!AIVDM,2,2,1,A,H0000000000,2*5D
!AIVDM,1,1,,A,16:Cfu0P0089<p8<pq`MIOwF2T9@,0*66
!AIVDM,1,1,,B,16:E7FP04b`8mN2<oE180FIH00S1,0*59
$GNGGA,012044.000,2231.1045,N,11350.3066,E,1,05,18.9,-169.8,M,0.0,M,,*68
$GNRMC,012044.000,A,2231.1045,N,11350.3066,E,3.65,260.07,051219,,,A*79
!AIVDM,1,1,,B,35R4i45002`8IRF<u;OeFbmJ0I;@,0*43
!AIVDM,1,1,,B,169FWKPP4S890KP<oRee>OwH0@J:,0*43
!AIVDM,1,1,,A,16:EDL?P00`8B5@<t6hN4?wH249@,0*45
!AIVDM,1,1,,B,16:E4HPP00899Q0<ornp0gwF0<ga,0*2B
!AIVDM,1,1,,A,C6:DUhP05B2ApUS>Ti:K9tF2jb:@b2jb2MWQQW111110S3H6SS07,0*04
$GNGGA,012045.000,2231.1041,N,11350.3055,E,1,05,18.9,-171.3,M,0.0,M,,*6F
$GPGSA,A,3,13,02,30,05,,,,,,,,,24.9,18.9,16.3*0F
$BDGSA,A,3,08,,,,,,,,,,,,24.9,18.9,16.3*10
$GNRMC,012045.000,A,2231.1041,N,11350.3055,E,3.48,254.31,051219,,,A*71
!AIVDM,1,1,,B,H69K=WQ<PDq<PGG3KB222222220,2*2F
!AIVDM,1,1,,B,18M<JN002>`8fj0<mmiMiK5@00S4,0*19
!AIVDM,1,1,,B,C6:V4Uh0122CWs3>0;?>bUER<bHCWSi1111111111110S08H61P7,0*0F
!AIVDM,1,1,,A,C6:V4Uh0122CWrS>0;G?NUFR<bHCWSi1111111111110S08H61P7,0*3B
!AIVDM,1,1,,B,16:G@P002788WiP<qA@6Kh1H0D?e,0*2A
!AIVDM,1,1,,A,10`:DoOP00`99Rb<pHNJ7OwL28Jt,0*6E
!AIVDM,1,1,,A,36:ED?g00188l4P<q0nl5r3H0000,0*3A
!AIVDM,1,1,,A,16:E7FPOlb`8mKV<oDK80nKL0D70,0*58
!AIVDM,1,1,,A,16:flfgP00`9>O0<om;v4?wL2<7h,0*4A
$GNGGA,012046.000,2231.1037,N,11350.3044,E,1,05,18.9,-172.9,M,0.0,M,,*64
$GPGSV,3,1,09,02,43,119,29,05,39,038,43,06,03,129,19,13,70,040,34*77
$GPGSV,3,2,09,15,70,253,,21,09,319,,24,15,182,,29,48,278,*74
$GPGSV,3,3,09,30,11,056,37*44
$BDGSV,1,1,02,04,,,36,08,70,072,30*52
$GNRMC,012046.000,A,2231.1037,N,11350.3044,E,3.64,253.71,051219,,,A*7E
!AIVDM,1,1,,A,16:ED:gP0088gU@<ps`FkwwH08KC,0*5F
!AIVDM,2,1,2,A,56:fWc@000033333330QD4P4pOKKP000000000160`e761PbN9kPC`84j0@0,0*5C
!AIVDM,2,2,2,A,000000000080,0*1C
!AIVDM,1,1,,A,16:R@BP01k88Hmn<w4inVUAN049@,0*33
!AIVDM,1,1,,B,169v:Q?P008992`<oqA11wwN08Ka,0*0C
$GNGGA,012047.000,2231.1034,N,11350.3033,E,1,05,18.9,-174.3,M,0.0,M,,*6A
$GPGSA,A,3,13,02,30,05,,,,,,,,,24.9,18.9,16.2*0E
$BDGSA,A,3,08,,,,,,,,,,,,24.9,18.9,16.2*11
$GNRMC,012047.000,A,2231.1034,N,11350.3033,E,3.74,253.13,051219,,,A*79
!AIVDM,1,1,,B,B6:V5IP0022BNb3>9Im7Gwo3QP06,0*33
!AIVDM,1,1,,B,B6:`Hm@0<j2BcDS>8dmJKwo3QP06,0*2E
!AIVDM,1,1,,A,16:D17PP0189<JP<q17h0?wN0D1L,0*63
!AIVDM,1,1,,B,16:E7FPOlb`8mI8<oCm`0nKP049@,0*5C
!AIVDM,1,1,,B,B6:DqGP0:j2@UR3>>nk6bOGSQP06,0*62
!AIVDM,1,1,,B,B69K<=rp0C?8mP=18D0PWwTN1P06,0*24
$GNGGA,012048.000,2231.1031,N,11350.3028,E,1,05,18.8,-174.9,M,0.0,M,,*61
$GNRMC,012048.000,A,2231.1031,N,11350.3028,E,3.64,255.00,051219,,,A*7C
!AIVDM,1,1,,A,177`j?0PBK89:CD<lf=8E6UR049@,0*4D
!AIVDM,1,1,,A,16:Ejr?000`9>GP<pD1h059P2D1s,0*30
!AIVDM,1,1,,B,15@0lV000M89FBJ<lL2Lm:eR0@Lh,0*0F
!AIVDM,1,1,,B,169G3m0P01899P8<orjW`gwR08Ll,0*25
!AIVDM,1,1,,A,B6:fOvq4?B2=uk3>7153cwpBh<5E,0*11
!AIVDM,1,1,,B,16:foN0P01`9;V@<oWDN4?wP28Lm,0*43
$GNGGA,012049.000,2231.1028,N,11350.3014,E,1,05,18.8,-176.7,M,0.0,M,,*6B
$GPGSA,A,3,13,02,30,05,,,,,,,,,24.8,18.8,16.2*0E
$BDGSA,A,3,08,,,,,,,,,,,,24.8,18.8,16.2*11
$GNRMC,012049.000,A,2231.1028,N,11350.3014,E,3.87,259.62,051219,,,A*7F
!AIVDM,1,1,,A,169>cq000188it4<rKJGqiQT08M0,0*7C
!AIVDM,1,1,,A,16:ChoPP@089LHT<nuK:>`wT0HM9,0*59
!AIVDM,1,1,,B,16;AlAPP0088k7N<pHGC2OwR249@,0*40
!AIVDM,1,1,,B,B6:V3m00022BHk3=s9nvWwoV1P06,0*10
!AIVDM,1,1,,A,16:fPapP01`9;40<ns4bh@AT2@MJ,0*34
!AIVDM,1,1,,A,36:E7FPOlc`8mFb<oC@H26MV00UQ,0*2F
$GNGGA,012050.000,2231.1023,N,11350.2995,E,1,05,18.8,-179.3,M,0.0,M,,*62
$GNRMC,012050.000,A,2231.1023,N,11350.2995,E,4.07,257.08,051219,,,A*70
!AIVDM,1,1,,A,16:D3dPP0188IeP<u7jjVwwV249@,0*74
!AIVDM,1,1,,B,16:ED?g00188l50<q0nl5J1P0<@n,0*5A
!AIVDM,1,1,,B,B6:DQ9P0022BP83=q4qEM4HSQP06,0*27
!AIVDM,1,1,,B,18MARV001T`8U08<rJ7e?beT08Mr,0*49
!AIVDM,1,1,,B,16:flBgP00`8r0@<od4N4?wT2@Mw,0*10
$GNGGA,012051.000,2231.1020,N,11350.2985,E,1,05,18.8,-180.8,M,0.0,M,,*6C
$GPGSA,A,3,13,02,30,05,,,,,,,,,24.8,18.8,16.2*0E
$BDGSA,A,3,08,,,,,,,,,,,,24.8,18.8,16.2*11
$GPGSV,3,1,09,02,43,119,30,05,39,038,44,06,03,129,19,13,70,040,34*78
$GPGSV,3,2,09,15,70,253,,21,09,319,,24,15,182,,29,48,278,*74
$GPGSV,3,3,09,30,11,056,38*4B
$BDGSV,1,1,02,04,,,36,08,70,072,29*5A
$GNRMC,012051.000,A,2231.1020,N,11350.2985,E,3.70,252.28,051219,,,A*73
!AIVDM,1,1,,A,18M<JN002>`8fhv<mndeiK5L08NE,0*10
!AIVDM,1,1,,A,169@WGP000896m@<p>Hp89CR0FF6,0*6E
!AIVDM,1,1,,B,16:E7FP04c`8mD<<oBc836M`049@,0*49
!AIVDM,1,1,,A,16:EnU000089LDL<nwViHq9V0D2@,0*6A
!AIVDM,1,1,,A,16:fOd@00789:s0<oh0ajWT01P06,0*0D
$GNGGA,012052.000,2231.1019,N,11350.2987,E,1,05,18.8,-180.6,M,0.0,M,,*69
$GNRMC,012052.000,A,2231.1019,N,11350.2987,E,3.70,257.93,051219,,,A*7D
!AIVDM,2,1,3,A,56:fPah000000000001`PtpN1UDr3;3D0000001?0Hg8715o09U0BD2CQh00,0*11
!AIVDM,2,2,3,A,00000000004,2*23
!AIVDM,1,1,,B,1815GUh01k88g@d<ms==jc5V00S0,0*50
!AIVDM,1,1,,A,B6:V4jP0>22BnES>7EOAwwqSQP06,0*63
!AIVDM,1,1,,A,169A5cS000895vp<p5=nF6wd0L;t,0*24
$GNGGA,012053.000,2231.1018,N,11350.2980,E,1,05,18.8,-181.4,M,0.0,M,,*6D
$GPGSA,A,3,13,02,30,05,,,,,,,,,24.8,18.8,16.2*0E
$BDGSA,A,3,08,,,,,,,,,,,,24.8,18.8,16.2*11
$GNRMC,012053.000,A,2231.1018,N,11350.2980,E,3.69,257.77,051219,,,A*78
!AIVDM,1,1,,A,B6:l?a@0:j2AL>S=r1?7Swr3QP06,0*3C
!AIVDM,1,1,,B,16:Cfu0P0089<p><pqIH9gw`2PS>,0*21
!AIVDM,1,1,,A,168uqL0000`8HKJ<uf<L>7mb0@O`,0*46
!AIVDM,1,1,,A,16:E4HPP00899R@<ortH0gwb0HOg,0*07
!AIVDM,1,1,,A,16:E7FP04c`8mA`<oB5`4FMf0L6w,0*2C
!AIVDM,1,1,,A,36:;qt500089BaH<o7d9i0mb0000,0*27
$GNGGA,012054.000,2231.0985,N,11350.2949,E,1,06,18.7,-181.2,M,0.0,M,,*69
$GNRMC,012054.000,A,2231.0985,N,11350.2949,E,3.93,260.61,051219,,,A*70
!AIVDM,1,1,,B,16:fURHP1289=76<olOeCwwb2T9@,0*74
!AIVDM,1,1,,A,16=q?7@01d`8OLp<t62n=TwT049@,0*7E
!AIVDM,1,1,,B,16;4O2001m`8J@0<vJwVLU9b00SR,0*0C
!AIVDM,1,1,,B,10`:DoOP00`99R`<pHNr4?wf2@P>,0*26
!AIVDM,1,1,,B,16:Cqq000088aU@<tT024bUf049@,0*29
!AIVDM,1,1,,A,36;5I`001``8WqD<qLtMAbWV02vi,0*68
!AIVDM,1,1,,B,16:HVL0OiW88gTD<mGJMd;3b00SB,0*72
$GNGGA,012055.000,2231.0974,N,11350.2912,E,1,06,18.7,-186.0,M,0.0,M,,*6D
$GPGSA,A,3,13,02,30,05,,,,,,,,,24.7,18.7,16.1*0D
$BDGSA,A,3,04,08,,,,,,,,,,,24.7,18.7,16.1*16
$GNRMC,012055.000,A,2231.0974,N,11350.2912,E,4.63,248.27,051219,,,A*71
!AIVDM,1,1,,A,H69K=WTN6DeiqhomhnlPPP205520,0*05
!AIVDM,1,1,,B,169G6T0P1A88SVj<reCnCgwh2`Q1,0*4E
!AIVDM,1,1,,B,B69?Ra@02:2Ad73>FIiakwsW3P06,0*6B
$GNGGA,012056.000,2231.0927,N,11350.2880,E,1,06,18.7,-187.1,M,0.0,M,,*62
$GPGSV,3,1,09,02,43,119,29,05,39,038,43,06,03,129,18,13,70,040,34*76
$GPGSV,3,2,09,15,70,253,,21,09,319,,24,15,182,,29,48,278,*74
$GPGSV,3,3,09,30,11,056,39*4A
$BDGSV,1,1,02,04,32,111,36,08,70,072,30*62
$GNRMC,012056.000,A,2231.0927,N,11350.2880,E,4.24,245.16,051219,,,A*72
!AIVDM,1,1,,B,169FWKPP4V890>v<oVQ=Dwwh00SD,0*08
!AIVDM,1,1,,A,169v:Q?P0089930<oqCQ1wwh0@Q<,0*25
!AIVDM,1,1,,A,16:G@P002788WmP<q?PFKh1h0L?f,0*18
!AIVDM,1,1,,A,16:EL;8P0588g@n<s0e;mgwf2<3w,0*7D
!AIVDM,1,1,,B,B6:ij`P0>R2BM@3>10MF;hD4SP00,0*5E
!AIVDM,1,1,,A,B69FdTs87R2A;gS>Ik1lMLR61P06,0*0C
$GNGGA,012057.000,2231.0647,N,11350.3241,E,1,06,18.7,-209.3,M,0.0,M,,*6B
$GPGSA,A,3,13,02,30,05,,,,,,,,,24.7,18.7,16.1*0D
$BDGSA,A,3,04,08,,,,,,,,,,,24.7,18.7,16.1*16
$GNRMC,012057.000,A,2231.0647,N,11350.3241,E,4.01,260.99,051219,,,A*7B
!AIVDM,1,1,,B,16:D17PP0089<J:<q18h0?wj0L2F,0*21
!AIVDM,1,1,,A,B6:kUPh0;j2B`63=f03:owt3QP06,0*20
!AIVDM,1,1,,A,169UBuPP1;88hKR<lqoMiPUf0E1L,0*00
!AIVDM,1,1,,B,16:flfgP00`9>O0<om;>4?wj2<7k,0*24
!AIVDM,1,1,,B,16:R@BP01j88Hp><w3K6`5?l00RC,0*67
!AIVDM,1,1,,A,16:E7FPPDc`8m<R<o@r`5FKl0D6w,0*33
!AIVDM,1,1,,B,16:ED:gP0088gU@<psUFJwwf0@R3,0*77
!AIVDM,1,1,,A,169G3m0P01899P4<orm7@gwl0<;@,0*0C
$GNGGA,012058.000,2231.0663,N,11350.3290,E,1,06,18.7,-199.4,M,0.0,M,,*63
$GNRMC,012058.000,A,2231.0663,N,11350.3290,E,3.48,270.88,051219,,,A*75
!AIVDM,1,1,,B,16:Ejr?000`9>GP<pD1h05;j249@,0*40
!AIVDM,1,1,,A,33BB4J5000`98P><p4BHA4;l0Deb,0*71
!AIVDM,1,1,,A,15@0lV000N89FAF<lLEdoJen0L?K,0*4D
!AIVDM,1,1,,A,169FWKPP4T890=B<oW8=Ggwl0<80,0*52
!AIVDM,1,1,,A,16:DNn0P0089=bh<ne:hDOwl0<6v,0*10
!AIVDM,1,1,,A,16:ED?g00188l50<q0nkpb3h00Sa,0*19
!AIVDM,1,1,,B,9000CU@l05`:<PF<lSDh0>P20D00,0*54
!AIVDM,1,1,,A,169@nBPP01`8pTh<t03N4?wl20SG,0*62
!AIVDM,1,1,,A,16:foN0P01`9;V@<oWDN4?wl28Rc,0*6C
!AIVDM,1,1,,B,35DO4r500088Io@<tw=r9rn00D`b,0*1E
!AIVDO,1,1,,,B68rO1P06J2AkaS>:1>fOwuVSP06,0*60
$GNGGA,012059.000,2231.0675,N,11350.3315,E,1,06,18.6,-193.0,M,0.0,M,,*66
$GPGSA,A,3,13,02,30,05,,,,,,,,,24.6,18.6,16.1*0D
$BDGSA,A,3,04,08,,,,,,,,,,,24.6,18.6,16.1*16
$GNRMC,012059.000,A,2231.0675,N,11350.3315,E,2.50,279.16,051219,,,A*79
!AIVDM,1,1,,B,36:EbI1P00`9>Gh<orOv4?wn2;wr,0*5B
!AIVDM,1,1,,B,16:D3dPP0188IdD<u7mjVwv02@04,0*0B
!AIVDM,1,1,,A,16:EIc?P0188jR@<q4n:FgwL0l@L,0*05
!AIVDM,1,1,,B,16:fn0?P01`8je@<pnoN4?wn249D,0*33
!AIVDM,1,1,,B,16:E7FP04c`8m:B<o@Dp5FJ20D6w,0*4F
